stop_id,stop_code,stop_name,stop_desc,stop_lat,stop_lon,zone_id,stop_url
1,1325,Winchester&pnds,,40.610917999999998,-75.538689000000005,,
2,4086,Village_west,,40.596978,-75.524773999999994,,
3,4102,17th&chewe,,40.601457000000003,-75.494591999999997,,
4,1000,Atc,,40.604498999999997,-75.472284999999999,,
5,1095,Hanover&irving,,40.617001999999999,-75.441890000000001,,
9,1001,Guetter&broad,,40.623085000000003,-75.380504999999999,,
10,1488,Easton&oaklandw,,40.665412000000003,-75.316198,,
11,1002,Easton_ctr_sqe,,40.691178000000001,-75.209728999999996,,
12,5055,Beth_sq&giant,,40.674841999999998,-75.342427999999998,,
13,5069,East&butztowns,,40.653540999999997,-75.348871000000003,,
14,5109,Stefko&rocklnds,,40.632686,-75.353738000000007,,
16,5046,Fburg&14thw,,40.643841999999999,-75.318645000000004,,
18,5019,Pembrk&marvinew,,40.629075,-75.351872999999998,,
19,5127,Ostrum&st_lkessw,,40.609468999999997,-75.391891000000001,,
20,5140,Lynn&broadwayw,,40.601176000000002,-75.397087999999997,,
21,4958,Fburg&st_xingw,,40.663581999999998,-75.268012999999996,,
22,5374,Emrick&wpenns,,40.666049000000001,-75.295765000000003,,
23,4915,Green&nccw,,40.674948000000001,-75.324067999999997,,
24,1475,Easton&eastw,,40.643630000000002,-75.348213000000001,,
25,4351,Held&cherryvilles,,40.697217999999999,-75.500786000000005,,
26,4261,Pine&fronts,,40.654367000000001,-75.475605999999999,,
27,4120,Whitehall&ent,,40.634427000000002,-75.483842999999993,,
28,1003,Lehigh Valley Mall,,40.631247999999999,-75.478459999999998,,
29,6232,Jefersn&lib,,40.580187000000002,-75.480974000000003,,
30,4172,South_mall&ent,,40.555441999999999,-75.491625999999997,,
31,1405,Emmaus_weis,,40.526983000000001,-75.508246,,
33,4779,Cdr_crst&pro,,40.565130000000003,-75.516773999999998,,
34,1005,Lvh&1240_bldg,,40.566662999999998,-75.520773000000005,,
35,4938,Forks&giant,,40.713099999999997,-75.221472000000006,,
36,5393,21st & Lehighe,,40.686425999999997,-75.242795000000001,,
37,4375,Elizabeth&eastnw,,40.630484000000003,-75.371123999999995,,
38,6207,Creek_shp&giant,,40.563155000000002,-75.340535000000003,,
40,4584,4th&taylorw,,40.610638999999999,-75.374627000000004,,
42,5219,Catsqua&penna,,40.642516999999998,-75.425635999999997,,
43,5179,Ave_c&schnrsvle,,40.657409999999999,-75.418899999999994,,
44,4783,Ave_b&city_ln,,40.652166999999999,-75.423736000000005,,
45,1006,Lvia&upper_levl,,40.651673000000002,-75.434386000000003,,
46,4791,Postal&irving,,40.641615000000002,-75.449961999999999,,
47,4672,Union&pennaw,,40.627567999999997,-75.414863999999994,,
48,4492,4th&chewn,,40.608293000000003,-75.467460000000003,,
49,4692,Dixon&mack_blvd,,40.580813999999997,-75.467247,,
50,5860,Kmart_frnt_dr,,40.591008000000002,-75.561184999999995,,
51,4503,Susq&gilmoresw,,40.592019000000001,-75.438683999999995,,
52,4579,4th&neww,,40.610522000000003,-75.378236999999999,,
53,4648,Lynfield&lynn,,40.607129,-75.349020999999993,,
54,6214,Cedar&apts,,40.575795999999997,-75.542114999999995,,
55,1079,Hamilton&wldwtrw,,40.577309999999997,-75.528000000000006,,
56,4721,Gordon&ridge,,40.611637000000002,-75.460621000000003,,
57,4757,3rd St. & Pershing Blvd_1,,40.629325999999999,-75.470071000000004,,
59,6228,Church&emmaus,,40.575682999999998,-75.460391000000001,,
61,4202,S5th&wyoming,,40.592793,-75.463249000000005,,
62,4130,Liberty&bnaiw,,40.604055000000002,-75.494122000000004,,
63,4467,19th&pennas,,40.613191,-75.504964000000001,,
65,4546,Roma&officectrrd,,40.614252999999998,-75.531564000000003,,
66,4143,15th&walnutn,,40.596254999999999,-75.487257,,
67,4803,Washington & 8th,,40.612859,-75.479314000000002,,
68,4817,13th&overlookn,,40.620651000000002,-75.493458000000004,,
69,4871,Whitehall&ross,,40.637903999999999,-75.490746999999999,,
70,4875,Madison&peachs,,40.636056000000004,-75.497971000000007,,
71,1343,7th&allens,,40.610666000000002,-75.475655000000003,,
72,5232,25th&mrylnd_chkn,,40.688710999999998,-75.253569999999996,,
73,1004,Palmer_pk_ml&mn,,40.696306,-75.258808000000002,,
74,5269,C_town&main_ent,,40.673229999999997,-75.211000999999996,,
75,5259,Emrick@outbackstkhsenw,,40.665447999999998,-75.295188999999993,,
76,5440,Nrthmptn&walmrt,,40.715260000000001,-75.282133000000002,,
77,4983,4th&harlen_hsen,,40.687652999999997,-75.210744000000005,,
78,4972,Fburg&25thw,,40.675730000000001,-75.245816000000005,,
79,6240,17th&lehighs,,40.68674,-75.235253,,
80,5205,Berwick&centrew,,40.678384999999999,-75.221388000000005,,
81,5342,Thom_brt&shilow,,40.681061,-75.220172000000005,,
85,5611,Garbldi&norths,,40.884323999999999,-75.219021999999995,,
86,5569,Rt_512&bngr_plz,,40.874197000000002,-75.235155000000006,,
87,5566,Penna&robnsns,,40.868794999999999,-75.254700999999997,,
88,5551,Wnd_gap&rite_ad,,40.839450999999997,-75.299910999999994,,
89,5546,Tatamy&danforths,,40.733679000000002,-75.258167,,
90,1164,Broad&centerw,,40.622298999999998,-75.375693999999996,,
91,5539,Gracedl&tower,,40.740119,-75.337738000000002,,
92,5509,Commrce&brdhds,,40.673827000000003,-75.382647000000006,,
93,5010,Salsb_work_ctr,,40.612008000000003,-75.411595000000005,,
95,1256,Tlghmn&pkwyw,,40.591948000000002,-75.549094999999994,,
96,5976,Rt_309&orfld_scn,,40.628985,-75.582408000000001,,
97,5966,Lccc&main_ent,,40.664873,-75.609540999999993,,
98,5957,Rt_873&neffs_bkn,,40.693829000000001,-75.609526000000002,,
99,5944,Rt_873&wanutn,,40.752510000000001,-75.606435000000005,,
100,5940,873&groven,,40.742286999999997,-75.611474999999999,,
101,6123,14th&walnutw,,40.660122999999999,-75.460102000000006,,
103,4059,Front&lehighs,,40.659035000000003,-75.487172999999999,,
104,4075,Chsntnt&ruch,,40.667302999999997,-75.503444999999999,,
105,5993,Church&main - Egypt,,40.680157000000001,-75.529833999999994,,
106,5869,Broadway&39thw,,40.583866999999998,-75.538573,,
107,5241,Wood&25the,,40.685918999999998,-75.250656000000006,,
108,5797,Snwdrft&stngtw,,40.595629000000002,-75.607270999999997,,
109,5843,Windsr&tilghmw,,40.586281999999997,-75.613848000000004,,
111,5766,Sycamr&pennw,,40.575324999999999,-75.621844999999993,,
112,6220,Nestle&860_bldgw,,40.571052999999999,-75.651078999999996,,
113,5821,Indust&bldrw,,40.562133000000003,-75.621129999999994,,
114,5827,Olin&pennw,,40.579492000000002,-75.608324999999994,,
115,4007,Hamltn&brksdw,,40.566597999999999,-75.553248999999994,,
116,5798,Mill_crk&wlmrw,,40.552033000000002,-75.581012000000001,,
117,5748,Trexlr_mall&main,,40.550033999999997,-75.591755000000006,,
119,6231,Hamilton&trex,,40.548113999999998,-75.605099999999993,,
122,5627,Kesslersville Rd @4111 Bldg,,40.748663000000001,-75.232376000000002,,
123,5599,Weismarketforkstwp,,40.744118999999998,-75.241365000000002,,
125,5543,Mcfadn&schut,,40.731490999999998,-75.265108999999995,,
126,5460,Newlans_ml&mcs,,40.726824999999998,-75.265384999999995,,
127,5448,Nazareth & Newburgsw,,40.701484000000001,-75.269378000000003,,
129,5683,Old_naz&seips,,40.694813000000003,-75.263796999999997,,
130,6034,Whall_shp&wlmrt,,40.644585999999997,-75.489017000000004,,
131,5988,Mcrthr&kmart,,40.643129000000002,-75.493958000000006,,
132,4121,Allen&8thw,,40.609876999999997,-75.478087000000002,,
133,4453,Allen&13the,,40.607067000000001,-75.487954000000002,,
134,1032,15th&hamiltonn,,40.597700000000003,-75.487930000000006,,
135,4232,Jeferson&wyomgs,,40.588495000000002,-75.479513999999995,,
136,1342,6th&chewn,,40.606848999999997,-75.471711999999997,,
137,5141,8th&broadn,,40.622858000000001,-75.394893999999994,,
138,5097,Stefko&easton,,40.644720999999997,-75.344836000000001,,
139,1184,Nthpn&21stw,,40.689217999999997,-75.242611999999994,,
140,6001,Main&2nd_cemn,,40.689092000000002,-75.507801999999998,,
141,4157,Emaus&churchw,,40.574930999999999,-75.460983999999996,,
142,6222,17th&turnere,,40.599235999999998,-75.493425000000002,,
143,4776,Cedar_pt&weis,,40.582552999999997,-75.519705000000002,,
144,6150,17th&hamltns,,40.596758000000001,-75.492388000000005,,
145,6213,Hamilton&halle,,40.601891999999999,-75.472723999999999,,
146,6225,Dieruff Hs,,40.621015999999997,-75.439633999999998,,
147,1361,Lehigh&31st,,40.559289,-75.487493999999998,,
148,4133,17th&lindens,,40.598067,-75.493053000000003,,
149,1369,Lehigh&oxfords,,40.558978000000003,-75.487887000000001,,
150,6226,Penna&tacoma,,40.629752000000003,-75.426606000000007,,
151,4638,Union&irvinge,,40.623953,-75.443989000000002,,
152,1115,Hanover&tacoma,,40.621882999999997,-75.425746000000004,,
153,6223,2nd&turnern,,40.608241999999997,-75.461016999999998,,
154,5430,Brodhd&rt_191,,40.681337999999997,-75.341834000000006,,
155,5351,Washngtn&17thw,,40.686205000000001,-75.234925000000004,,
157,5263,Line&centre,,40.673693,-75.219899999999996,,
158,4438,Emaus&jutestn,,40.577502000000003,-75.455065000000005,,
161,5725,Sands Casino,,40.613745000000002,-75.358041999999998,,
162,4283,8th & Unionn,,40.599119999999999,-75.472308999999996,,
163,5935,Psu&stud_prkng,,40.558684999999997,-75.402282999999997,,
164,4107,17th&chewn,,40.601917,-75.494827999999998,,
165,4095,Ccblvd&lvhns,,40.565233999999997,-75.518443000000005,,
166,4364,Elizabeth&libertyhse,,40.630467000000003,-75.371465999999998,,
168,5896,Rt_873&walnutw,,40.752678000000003,-75.605841999999996,,
169,5009,3rd@bananafactoryw,,40.611958000000001,-75.380235999999996,,
170,5252,Berwick&centre,,40.678291999999999,-75.221275000000006,,
171,1581,Nhampton&21st,,40.689095999999999,-75.242885999999999,,
172,5323,Line&packere,,40.672984999999997,-75.226997999999995,,
173,4564,Susq&gilmorene,,40.591704,-75.439134999999993,,
174,4578,4th&newe,,40.610407000000002,-75.378173000000004,,
175,4231,Jeferson&wyomng,,40.588591999999998,-75.479411999999996,,
176,4126,Allen & 13thw,,40.607239999999997,-75.487747999999996,,
177,1108,Hanover&irvingw,,40.617108000000002,-75.441625999999999,,
178,4262,Pine&front,,40.654421999999997,-75.475415999999996,,
179,4227,Jeferson&lehigh,,40.579411999999998,-75.480642000000003,,
182,4150,6th&st_johns,,40.593012000000002,-75.465557000000004,,
183,4726,Postal&irvingw,,40.641661999999997,-75.450074000000001,,
185,6048,Lehigh&fronte,,40.658653999999999,-75.487448999999998,,
186,6039,Ruch&chstntw,,40.667239000000002,-75.503816,,
187,5916,Broadway&39th,,40.583776999999998,-75.538465000000002,,
188,5839,Snwdrft&stngt,,40.596029000000001,-75.607192999999995,,
189,5854,Windsr&tilghm,,40.586340999999997,-75.613675000000001,,
193,4777,Cedar Pointe & Boston Market,,40.581958999999998,-75.521409000000006,,
194,4010,Hamltn&brooksd,,40.566161999999998,-75.554254999999998,,
195,5747,Mill Creek & Walmart E,,40.552039999999998,-75.580871000000002,,
196,6230,Hamilton&trexw,,40.548264000000003,-75.605046999999999,,
197,5762,Rt 873&bellview Roadn,,40.690517999999997,-75.608729999999994,,
198,4741,Dixon&macks,,40.580719999999999,-75.466780999999997,,
199,4381,Emaus&4the,,40.577682000000003,-75.454509999999999,,
200,4134,Emmaus&churche,,40.575118000000003,-75.460267999999999,,
204,5070,East&butztown,,40.653114000000002,-75.348601000000002,,
207,6239,Stefko&marvine,,40.633955,-75.351944000000003,,
208,5288,Fburg&stns_crsg,,40.663471000000001,-75.26773,,
209,5367,Gr_pond&ncc,,40.674807000000001,-75.324160000000006,,
210,5418,Commrce&brdhd,,40.673606999999997,-75.382411000000005,,
211,1175,Broad&centere,,40.622222000000001,-75.375095999999999,,
212,5451,Tatamy&nrthwd,,40.709170999999998,-75.251621999999998,,
214,5479,Penna&robnsn,,40.868887999999998,-75.254751999999996,,
215,5301,Fburg&hobson,,40.672319999999999,-75.251258000000007,,
216,5314,17th&washngton,,40.68591,-75.235125999999994,,
217,1503,Easton&mcd,,40.644202,-75.346473000000003,,
218,4583,4th&taylore,,40.610444000000001,-75.374592000000007,,
219,5174,Catasqua&pennaw,,40.642552999999999,-75.426053999999993,,
220,4625,Union&pennae,,40.627395,-75.415465999999995,,
221,4552,4th&chews,,40.608356999999998,-75.467517000000001,,
222,4649,Argus&lynfield,,40.609195,-75.347573999999994,,
224,4770,Gordon&ridgew,,40.611708,-75.460283000000004,,
225,4708,Fullerton&pershing N,,40.629232000000002,-75.469767000000004,,
226,4457,Liberty&bnaie,,40.603890999999997,-75.494290000000007,,
227,4406,19th&pennan,,40.613,-75.504716999999999,,
228,4865,13th&overlooks,,40.620507000000003,-75.493476000000001,,
229,4996,Allen&6th,,40.610951999999997,-75.473803000000004,,
230,4925,Lehigh St & Easton Hospital W,,40.686489999999999,-75.243322000000006,,
231,5327,Line&centree,,40.673589,-75.220472000000001,,
232,5545,Newlinsmillrd@majesticathletic,,40.726517999999999,-75.270145999999997,,
233,4775,11th&hamiltonw,,40.600109000000003,-75.479760999999996,,
234,4812,12th&highlandn,,40.615425999999999,-75.489234999999994,,
236,4810,12th&livingstonn,,40.613875999999998,-75.488491999999994,,
237,4859,12th&livngstons,,40.613936000000002,-75.488783999999995,,
238,4808,12th&sumnern,,40.612208000000003,-75.487908000000004,,
239,4857,12th&sumners,,40.612363000000002,-75.487920000000003,,
242,4856,12th&washngtons,,40.610593000000001,-75.487199000000004,,
247,4993,13th&butlerw,,40.685856999999999,-75.227891999999997,,
249,4816,13th&fairmontn,,40.617978000000001,-75.492891,,
250,4864,13th&fairmonts,,40.618197000000002,-75.493093000000002,,
251,4862,13th&highlands,,40.615068999999998,-75.491686999999999,,
252,5685,Stefko&broadn,,40.622377999999998,-75.360146999999998,,
255,5684,Eastonseniorcenters,,40.735810999999998,-75.235338999999996,,
256,4815,13th&pennan,,40.616480000000003,-75.492075,,
257,4863,13th&pennas,,40.616677000000003,-75.492348000000007,,
260,6104,14th&bridgesw,,40.658830000000002,-75.460577999999998,,
261,6124,14th&lenapene,,40.658976000000003,-75.460305000000005,,
262,6105,14th&racesw,,40.653463000000002,-75.457352999999998,,
266,4879,15th&hamiltons,,40.598202000000001,-75.488260999999994,,
267,4878,15th&lindens,,40.598905999999999,-75.488619999999997,,
268,4998,15th&unionn,,40.595153000000003,-75.486756999999997,,
269,4144,15th&unions,,40.595331000000002,-75.486939000000007,,
270,4456,16th&allens,,40.605263000000001,-75.494005000000001,,
271,4100,17th&allens,,40.605035000000001,-75.496289000000004,,
272,4101,17th&libertys,,40.603740999999999,-75.495714000000007,,
273,4106,17th&libertyw,,40.603516999999997,-75.495518000000004,,
274,4997,17th&lindens,,40.597771000000002,-75.492726000000005,,
275,5352,18th&butlers,,40.685327999999998,-75.236462000000003,,
276,4400,19th&allenn,,40.603588999999999,-75.500220999999996,,
277,4461,19th&allens,,40.603859999999997,-75.500416000000001,,
278,4407,19th&fairmontn,,40.614505000000001,-75.505533999999997,,
279,4468,19th&fairmonts,,40.614795000000001,-75.505677000000006,,
280,4403,19th&greenleafn,,40.608220000000003,-75.502458000000004,,
281,4464,19th&greenleafs,,40.608396999999997,-75.502662999999998,,
283,4405,19th&highlandn,,40.611373,-75.503962000000001,,
284,4466,19th&highlands,,40.611659000000003,-75.504159000000001,,
285,4460,19th&libertys,,40.602547000000001,-75.499936000000005,,
286,4404,19th&livingstonn,,40.609659999999998,-75.503174999999999,,
287,4465,19th&livngstons,,40.609979000000003,-75.503332,,
288,4401,19th&tilghmann,,40.604860000000002,-75.500816999999998,,
289,4462,19th&tilghmans,,40.605165999999997,-75.501166999999995,,
290,4402,19th&washingtonn,,40.606516999999997,-75.501645999999994,,
291,4463,19th&washngtons,,40.606803999999997,-75.501896000000002,,
292,6089,1st&allenw,,40.646158999999997,-75.474772999999999,,
293,6055,1st&bridgenw,,40.645575000000001,-75.474388000000005,,
294,5582,1st&slt_blt_hgs,,40.867635,-75.206440999999998,,
296,5391,21st&butlern,,40.684559999999998,-75.242655999999997,,
297,4923,21st&butlers,,40.684075,-75.242814999999993,,
298,5392,Washngtn&21ste,,40.685586000000001,-75.242958000000002,,
299,4924,21th&washngtns,,40.685862999999998,-75.242852999999997,,
300,5983,22nd&allensw,,40.601756000000002,-75.506579000000002,,
301,6033,22nd&allennw,,40.602066999999998,-75.506620999999996,,
302,6030,22nd&chewse,,40.598132,-75.504904999999994,,
303,4926,22nd&fairviews,,40.687564999999999,-75.244951,,
304,5394,Lehigh&22ndw,,40.686687999999997,-75.244213999999999,,
305,5395,22nd&fairviewn,,40.687435000000001,-75.244753000000003,,
306,4928,22nd&ferrys,,40.688279000000001,-75.244951,,
307,5981,22nd&gordnnw,,40.599167999999999,-75.505279000000002,,
308,6031,22nd&gordnse,,40.599451000000002,-75.505517999999995,,
309,4088,Linden@bethlehmsqn,,40.674058000000002,-75.345061000000001,,
310,4090,Madison&hoover,,40.636187999999997,-75.500127000000006,,
311,5982,22nd&lbrtynw,,40.600566000000001,-75.505868000000007,,
312,6032,22nd&lbrtyse,,40.600721,-75.506062999999997,,
313,4927,22nd&lehighs,,40.686597999999996,-75.244812999999994,,
314,4089,21st@cvsw,,40.690556000000001,-75.50085,,
315,5396,22nd&nhamptonn,,40.688761999999997,-75.244816999999998,,
317,4091,Sullivan&forkstwpofficen,,40.715313999999999,-75.219931000000003,,
318,5984,22nd&tilghmnnw,,40.602981999999997,-75.507035000000002,,
319,5985,22nd&turnerse,,40.596770999999997,-75.504165999999998,,
320,4087,22nd&washingtons,,40.685825000000001,-75.244707000000005,,
323,4839,24th&elmn,,40.587572000000002,-75.504446000000002,,
324,4890,24th&elms,,40.587899999999998,-75.504756,,
325,4838,24th&fairviewn,,40.588774000000001,-75.505155999999999,,
326,4889,24th&fairviews,,40.589086999999999,-75.505346000000003,,
327,4841,24th&mossern,,40.585441000000003,-75.503450999999998,,
328,4840,24th&southn,,40.586469999999998,-75.503968999999998,,
329,4891,24th&souths,,40.586807999999998,-75.504514,,
330,4892,24th&texass,,40.584443,-75.503236999999999,,
331,4837,Union&24thw,,40.589925999999998,-75.505679000000001,,
339,4435,Walbrt&28thw,,40.616191999999998,-75.527171999999993,,
342,6075,2nd&centernw,,40.671464999999998,-75.489729999999994,,
343,6041,2nd&centerse,,40.671593000000001,-75.489996000000005,,
344,6073,2nd&chstnutnw,,40.674047999999999,-75.492670000000004,,
345,6144,2nd&churchse,,40.653371999999997,-75.472559000000004,,
347,6040,2nd&coplayse,,40.672913000000001,-75.491335000000007,,
350,6043,2nd&hokndqase,,40.668129999999998,-75.488692,,
354,6142,2nd&mulbryse,,40.651730000000001,-75.469759999999994,,
359,6140,2nd&racese,,40.649768999999999,-75.467225999999997,,
362,6042,2nd&schrberse,,40.669139999999999,-75.489268999999993,,
364,6143,2nd&unionse,,40.650677000000002,-75.468502999999998,,
365,6141,2nd&woodse,,40.652383999999998,-75.470828999999995,,
366,4170,33rd&bergerw,,40.555236999999998,-75.486536000000001,,
368,4171,33rd&lehighw,,40.555928999999999,-75.489125999999999,,
370,6052,3rd&americannw,,40.639859000000001,-75.472174999999993,,
371,6086,3rd&americanse,,40.640158999999997,-75.472416999999993,,
373,4706,3rd&chestnutn,,40.634076,-75.470522000000003,,
374,4755,3rd&chestnuts,,40.63458,-75.470697999999999,,
375,6050,3rd&ctasauquan,,40.637129000000002,-75.470859000000004,,
376,4189,Uhler&sullivan Trailne,,40.745148,-75.243215000000006,,
381,4191,3rd&harrisonw,,40.539777999999998,-75.496754999999993,,
382,6051,3rd&jeffrsonnw,,40.638283000000001,-75.471390999999997,,
383,6085,3rd&jeffrsonse,,40.638058000000001,-75.471333000000001,,
385,4186,3rd&mainw,,40.536157000000003,-75.490489999999994,,
386,4216,3rd&maine,,40.536031000000001,-75.490235999999996,,
387,5397,3rd&northamptonn,,40.691822999999999,-75.209093999999993,,
388,4188,3rd&northw,,40.537714999999999,-75.493212,,
389,4218,3rd&northe,,40.537863999999999,-75.493548000000004,,
390,6054,3rd&orchrdnw,,40.642707999999999,-75.473624999999998,,
391,6088,3rd&orchrdse,,40.642575000000001,-75.473716999999994,,
393,4756,3rd&parks,,40.632635999999998,-75.470384999999993,,
395,4187,3rd&ridgew,,40.536965000000002,-75.491793000000001,,
396,4217,3rd&ridgee,,40.537058999999999,-75.492031999999995,,
397,4190,3rd&seemw,,40.538957000000003,-75.495217999999994,,
398,4220,3rd&seeme,,40.538829,-75.495185000000006,,
399,4930,3rd&sp_gardenn,,40.694116000000001,-75.209265000000002,,
400,5398,3rd&spr_grdns,,40.693368,-75.209397999999993,,
401,6053,3rd&unionnw,,40.641148000000001,-75.472810999999993,,
402,6087,3rd&unionse,,40.641323999999997,-75.473039999999997,,
403,4985,Harlenhouses,,40.687559,-75.210925000000003,,
406,4581,4th&adamsw,,40.61054,-75.376909999999995,,
408,4489,4th&allenn,,40.612133,-75.469357000000002,,
409,4549,4th&allens,,40.612378,-75.469510999999997,,
410,4311,4th&archw,,40.659789000000004,-75.476617000000005,,
411,4268,4th&archs,,40.659863999999999,-75.476982000000007,,
414,4576,4th&broadheadw,,40.610413999999999,-75.381253000000001,,
415,4592,4th&buchanane,,40.610688000000003,-75.369164999999995,,
416,4591,4th&buchananw,,40.610576000000002,-75.368979999999993,,
417,4312,4th&buttonwoodw,,40.660696999999999,-75.477969999999999,,
418,4269,4th&buttonwoods,,40.660896000000001,-75.478514000000004,,
419,4310,4th&chapel_ctyw,,40.658856999999998,-75.475346000000002,,
420,4699,S4th&chapels,,40.587600999999999,-75.460060999999996,,
421,4201,S4th&chapeln,,40.587341000000002,-75.459916000000007,,
422,4267,4th&chapel_ctys,,40.658962000000002,-75.475806000000006,,
423,4313,4th&cypressw,,40.661712999999999,-75.479545000000002,,
424,4270,4th&cypresss,,40.662024000000002,-75.479947999999993,,
425,4603,4th&edwardw,,40.611418999999998,-75.357200000000006,,
426,4602,4th&edwarde,,40.611280000000001,-75.357284000000007,,
427,5668,4th&lynne,,40.611874999999998,-75.349406000000002,,
428,6186,4th&emeryw,,40.612236000000003,-75.346517000000006,,
433,4588,4th&filmorew,,40.610672000000001,-75.372157000000001,,
434,4587,4th&filmoree,,40.610585999999998,-75.371679,,
435,4491,4th&gordonn,,40.609512000000002,-75.467990999999998,,
436,4551,Sullivantrail&mecordn,,40.722538,-75.225080000000005,,
438,4244,4th&greenleafs,,40.616810999999998,-75.471687000000003,,
439,4314,4th&grovew,,40.662720999999998,-75.480813999999995,,
440,4271,4th&groves,,40.662889,-75.481102000000007,,
441,4595,4th&hayesw,,40.610745999999999,-75.366349,,
442,4594,4th&hayese,,40.610747000000003,-75.365907000000007,,
443,4599,4th&hille,,40.611054000000003,-75.362758999999997,,
444,4598,4th&hillw,,40.610950000000003,-75.362690999999998,,
445,4601,4th&hobartw,,40.611274000000002,-75.359533999999996,,
446,4600,4th&hobarte,,40.611196,-75.359358,,
447,4392,Kmart_mtville Main Ent,,40.585672000000002,-75.461845999999994,,
450,4697,Dixion&churchw,,40.580680000000001,-75.459345999999996,,
451,4152,Cherryvlle&helds,,40.697617000000001,-75.500093000000007,,
452,4490,4th&libertyn,,40.611044999999997,-75.468540000000004,,
453,4550,4th&libertys,,40.611004000000001,-75.468805000000003,,
454,4494,4th&lindenn,,40.605229999999999,-75.465943999999993,,
455,4554,4th&lindens,,40.605545999999997,-75.466245999999998,,
456,4652,4th&lynnw,,40.612065999999999,-75.350202999999993,,
458,4746,4th&montgomeryn,,40.583345000000001,-75.457956999999993,,
460,4199,4th&montgomerys,,40.583626000000002,-75.458331000000001,,
461,4153,4th&emausn,,40.578524999999999,-75.454685999999995,,
462,5887,4th&mountainn,,40.573622,-75.451714999999993,,
465,4265,4th&pines,,40.656934,-75.472787999999994,,
470,4488,4th&tilghmann,,40.613309000000001,-75.469915999999998,,
471,4548,4th&tilghmans,,40.613399999999999,-75.470009000000005,,
472,4493,4th&turnern,,40.606724999999997,-75.466649000000004,,
473,4553,4th&turners,,40.607017999999997,-75.466999000000001,,
474,4198,4th&wabashn,,40.582320000000003,-75.457133999999996,,
475,4309,4th&walnutw,,40.657364000000001,-75.473194000000007,,
476,4266,4th&walnuts,,40.657532000000003,-75.473664999999997,,
480,4644,4th&williamw,,40.611629999999998,-75.354862999999995,,
481,4604,4th&williame,,40.611488999999999,-75.354799,,
483,4290,5th&floridan,,40.622183,-75.473056,,
484,4247,5th&floridas,,40.622627000000001,-75.473128000000003,,
485,4243,Greenleaf&5ths,,40.616131000000003,-75.473893000000004,,
486,4203,5th&harrisons,,40.594825,-75.464364000000003,,
487,4289,5th&ny_aven,,40.621133999999998,-75.473121000000006,,
488,4246,5th&ny_aves,,40.621414999999999,-75.473245000000006,,
489,4028,Daly&minsitrails,,40.612839000000001,-75.356425000000002,,
492,1333,6th&gordonn,,40.608299000000002,-75.472468000000006,,
493,1337,6th&greenleafn,,40.615355000000001,-75.475801000000004,,
495,1341,6th&libertyn,,40.609608000000001,-75.473123999999999,,
496,4030,6th&lynns,,40.609920000000002,-75.349305999999999,,
497,1331,6th&macarthn,,40.619169999999997,-75.479408000000006,,
498,1339,6th&tilghmann,,40.612333999999997,-75.474346999999995,,
500,4026,6th&walnutw,,40.601301999999997,-75.469002000000003,,
501,1338,6th&washingtonn,,40.613771999999997,-75.475145999999995,,
502,4027,Daly&minsitrailn,,40.613211,-75.356806000000006,,
505,4034,7th&cresentw,,40.653343999999997,-75.496954000000002,,
507,4036,7th&ebrhrtw,,40.650706,-75.495597000000004,,
510,1335,7th&gordons,,40.607993,-75.474373,,
511,1345,7th&greenleafs,,40.615268,-75.477902,,
513,4033,7th&lehighw,,40.654789000000001,-75.497352000000006,,
514,1336,7th&libertys,,40.609237,-75.475204000000005,,
517,1344,7th&washingtons,,40.613236999999998,-75.476989000000003,,
518,5148,8th&bradfords,,40.635925,-75.395956999999996,,
519,5149,8th&bradfordn,,40.635359000000001,-75.395743999999993,,
520,5142,8th&broads,,40.623052000000001,-75.395053000000004,,
521,4394,8th&chewn,,40.605713999999999,-75.475656000000001,,
522,4689,8th&cumberlandn,,40.589483000000001,-75.467966000000004,,
523,4738,8th&cumberlands,,40.589812999999999,-75.468158000000003,,
524,5151,8th&martincts,,40.630026999999998,-75.395142000000007,,
526,5150,8th&eatonn,,40.633488999999997,-75.395410999999996,,
528,4395,8th&gordonn,,40.607126999999998,-75.476104000000007,,
530,4284,8th&hamiltonn,,40.601556000000002,-75.473482000000004,,
531,4691,8th&juniatan,,40.586575000000003,-75.467286000000001,,
532,4740,8th&juniatas,,40.587099000000002,-75.467303000000001,,
533,4240,8th&lehighn,,40.591963,-75.469247999999993,,
534,4396,8th&libertyn,,40.608535000000003,-75.476883999999998,,
537,5146,8th&martin_twrn,,40.631214999999997,-75.395037000000002,,
539,4282,8th&pittstons,,40.593063999999998,-75.469665000000006,,
542,6160,8th&eatons,,40.633031000000003,-75.395611000000002,,
544,4687,8th&st_johnn,,40.591363999999999,-75.468976999999995,,
545,4736,8th&st_johns,,40.591318999999999,-75.468970999999996,,
547,4739,8th&susqs,,40.588692999999999,-75.467648999999994,,
548,6210,8th&tilghmanse,,40.611178000000002,-75.478037,,
549,4285,8th&turnern,,40.604460000000003,-75.474834000000001,,
550,5143,8th&union_bthn,,40.624974000000002,-75.394897,,
551,5144,8th&unions,,40.625072000000003,-75.394974000000005,,
552,4686,8th&walnutn,,40.600112000000003,-75.472680999999994,,
554,4737,8th&wyomings,,40.590646,-75.468581999999998,,
555,4905,9th&allens,,40.609558999999997,-75.479479999999995,,
556,4486,9th&chews,,40.605567999999998,-75.477530999999999,,
557,4103,9th&courtw,,40.602356,-75.476004000000003,,
558,4485,9th&gordons,,40.607069000000003,-75.478354999999993,,
559,4484,9th&libertys,,40.608342,-75.478637000000006,,
561,4904,9th&tilghmans,,40.610892,-75.480063000000001,,
570,4123,Allen&10thw,,40.608902999999998,-75.481637000000006,,
571,4450,Allen&10the,,40.608707000000003,-75.481977999999998,,
572,4124,Allen&11thw,,40.608370000000001,-75.483586000000003,,
573,4451,Allen&11the,,40.608212999999999,-75.483861000000005,,
574,4125,Allen&12thw,,40.607838999999998,-75.485523000000001,,
575,4452,Allen&12the,,40.607661999999998,-75.485765000000001,,
576,4127,Allen&14thw,,40.606755999999997,-75.489660999999998,,
577,4454,Allen&14the,,40.606507000000001,-75.490110999999999,,
578,4128,Allen&15thw,,40.606194000000002,-75.491530999999995,,
579,4455,Allen&15the,,40.605899000000001,-75.492215000000002,,
580,4129,Allen&16thw,,40.60557,-75.493806000000006,,
581,4105,Allen&17thw,,40.604798000000002,-75.496067999999994,,
582,4995,Allen&7the,,40.610385999999998,-75.475865999999996,,
583,4994,Allen&8the,,40.609898000000001,-75.477673999999993,,
584,4122,Allen&9thw,,40.609549999999999,-75.479280000000003,,
585,4449,Allen&9the,,40.609395999999997,-75.479484999999997,,
592,5836,Ambasdr&hickryne,,40.598816999999997,-75.612675999999993,,
593,5794,Ambassadr&6950buildingw,,40.597205000000002,-75.616324000000006,,
594,5795,Ambassadr&hicksw,,40.599046000000001,-75.612742999999995,,
595,5793,Ambassadr&mlsw,,40.595894000000001,-75.619710999999995,,
596,4780,Ave_a&airport_re,,40.649518,-75.429475999999994,,
598,6131,Ave_a&ave_be,,40.650061000000001,-75.423846999999995,,
599,4782,Ave_a&bradcoe,,40.649636000000001,-75.427948000000001,,
600,4781,Ave_a&2255builde,,40.649797,-75.425454000000002,,
603,5176,Ave_c&city_linn,,40.652566999999998,-75.425915000000003,,
604,5177,Ave_c&rcn_cablesw,,40.655816999999999,-75.422550999999999,,
605,5222,Ave_c&rcn_cablne,,40.655735,-75.422572000000002,,
606,5224,Ave_c&schnrsvlne,,40.657060000000001,-75.419263999999998,,
621,5250,Berwick&coalw,,40.678691000000001,-75.218000000000004,,
622,5203,Berwick&coale,,40.678607,-75.217971000000006,,
623,5247,Berwick&davisw,,40.679181,-75.212334999999996,,
624,5200,Berwick&davisw,,40.679091999999997,-75.212591000000003,,
625,5248,Berwick&filbertw,,40.679088,-75.213892999999999,,
626,5201,Berwick&filbrte,,40.678972000000002,-75.214174999999997,,
628,5207,Berwick&ironw,,40.678069999999998,-75.224365000000006,,
629,5257,Packer&linclns,,40.676636999999999,-75.228362000000004,,
630,5319,Berwick&irone,,40.677954,-75.224314000000007,,
631,5255,Berwick&mckeenw,,40.677855000000001,-75.226466000000002,,
632,5256,Berwick&packerw,,40.677807999999999,-75.228363000000002,,
633,5251,Berwick&reynldsw,,40.678553999999998,-75.219431,,
634,5204,Berwick&reynlde,,40.678440000000002,-75.219723999999999,,
635,5249,Berwick&seitzw,,40.678922,-75.215636000000003,,
636,5202,Berwick&seitze,,40.678804,-75.215497999999997,,
637,5246,Berwick&st_johne,,40.679313999999998,-75.210463000000004,,
638,5253,Berwick&valleye,,40.678142999999999,-75.222790000000003,,
639,5206,Berwick&valleyw,,40.678210999999997,-75.222525000000005,,
640,5258,Packer&willmn,,40.673929999999999,-75.227946000000003,,
641,5570,Bl_valy&am_bgnw,,40.871310999999999,-75.232389999999995,,
642,4528,Brdwy&4ths,,40.610205999999998,-75.382959,,
645,4534,Brdwy&bergenw,,40.601581000000003,-75.395331999999996,,
646,4520,Brdwy&bergene,,40.601602,-75.395258999999996,,
647,4531,Brdwy&bishpthrps,,40.605224999999997,-75.390015000000005,,
648,4524,Brdwy&bshpthrpn,,40.604953999999999,-75.390135000000001,,
649,4532,Brdwy&clewells,,40.603631999999998,-75.391527999999994,,
650,4523,Brdwy&clewelln,,40.603442999999999,-75.391503,,
651,4538,Brdwy&dodsonw,,40.599446999999998,-75.402231999999998,,
653,4530,Brdwy&fiotsw,,40.606177000000002,-75.388749000000004,,
654,4525,Brdwy&fiotn,,40.606093999999999,-75.388627999999997,,
655,4536,Brdwy&greenew,,40.60078,-75.397998000000001,,
656,4518,Brdwy&greenee,,40.600678000000002,-75.398261000000005,,
659,4533,Brdwy&hoffertw,,40.602083,-75.393897999999993,,
660,4521,Brdwy&hofferte,,40.602105999999999,-75.393854000000005,,
663,4542,Brdwy&kid_peacew,,40.597709999999999,-75.407303999999996,,
664,4515,Brdwy&lechwekie,,40.599338000000003,-75.402265999999997,,
665,4535,Brdwy&lynnw,,40.601177999999997,-75.396792000000005,,
666,4519,Brdwy&lynne,,40.601022,-75.396951999999999,,
669,4543,Brdwy&parkw,,40.594700000000003,-75.415253000000007,,
671,4513,Brdwy&rosevelte,,40.598534000000001,-75.404511999999997,,
673,4537,Brdwy&wawae,,40.599738000000002,-75.401036000000005,,
674,4526,Brdwy&montclairn,,40.609850000000002,-75.383285999999998,,
675,4529,Brdwy&wyandottes,,40.608978,-75.385062000000005,,
676,6062,Bridge&2ndne,,40.654356999999997,-75.473375000000004,,
677,6094,Bridge&2ndsw,,40.654494,-75.473358000000005,,
678,6063,Bridge&3rdne,,40.654868999999998,-75.472036000000003,,
679,6095,Bridge&3rdsw,,40.655023,-75.472122999999996,,
680,6064,Bridge&4thsw,,40.655622000000001,-75.470856999999995,,
682,6056,Bridge&colmbiane,,40.646087999999999,-75.473117000000002,,
685,6057,Bridge&lehighne,,40.646518,-75.471035000000001,,
686,1134,Broad&10the,,40.622529,-75.397692000000006,,
687,1155,Broad&10thw,,40.622611999999997,-75.397327000000004,,
690,1132,Broad&12the,,40.622529999999998,-75.399850999999998,,
691,1153,Broad&12thw,,40.622660000000003,-75.400302999999994,,
694,1130,Broad&14the,,40.622610000000002,-75.403366000000005,,
695,1151,Broad&14thw,,40.622711000000002,-75.402928000000003,,
698,1128,Broad&16the,,40.622639999999997,-75.406085000000004,,
699,1149,Broad&16thw,,40.622615000000003,-75.404745000000005,,
700,1142,Broad&2nde,,40.622334000000002,-75.386623999999998,,
701,1143,Broad&2ndw,,40.622501,-75.387075999999993,,
704,1140,Broad&4the,,40.622449000000003,-75.389842000000002,,
705,1161,Broad&4thw,,40.622543,-75.389773000000005,,
708,1138,Broad&6the,,40.622371000000001,-75.392544000000001,,
709,1159,Broad&6thw,,40.622453999999998,-75.392617000000001,,
712,1136,Broad&8the,,40.622450999999998,-75.395140999999995,,
713,1157,Broad&8thw,,40.622593999999999,-75.394576000000001,,
716,1180,Broad&belvdres,,40.740344,-75.309641999999997,,
718,1125,Broad&cambridgee,,40.62368,-75.413805999999994,,
719,1146,Broad&cambridgw,,40.623761999999999,-75.414096999999998,,
720,1171,Broad&elmn,,40.622086000000003,-75.366585000000001,,
721,1172,Broad&elms,,40.622110999999997,-75.367104999999995,,
722,1123,Broad&grandviewe,,40.623831000000003,-75.418897000000001,,
723,1144,Broad&grandviww,,40.623942,-75.418430000000001,,
724,1176,Broad&highe,,40.622123000000002,-75.373233999999997,,
725,1127,Broad&highlande,,40.622993000000001,-75.408736000000005,,
726,1148,Broad&highlandw,,40.623216999999997,-75.408929999999998,,
727,1165,Broad&highw,,40.622230000000002,-75.373149999999995,,
728,1124,Broad&keystonee,,40.623838999999997,-75.416876999999999,,
729,1145,Broad&keystonew,,40.623815,-75.416554000000005,,
730,1177,Broad&lindene,,40.622112999999999,-75.370926999999995,,
731,1166,Broad&lindenw,,40.622204000000004,-75.371112999999994,,
734,1167,Broad&minsin,,40.622061000000002,-75.361492999999996,,
735,1168,Broad&minsis,,40.621921,-75.361299000000002,,
736,1163,Broad&newe,,40.622267999999998,-75.378871000000004,,
737,1126,Broad&pennae,,40.623361000000003,-75.410736,,
738,1147,Broad&pennaw,,40.623480000000001,-75.410567,,
739,1179,Broad&prospcts,,40.738339000000003,-75.309628000000004,,
740,1182,Broad&prospctn,,40.738483000000002,-75.309386000000003,,
741,1181,Broad&souths,,40.735312999999998,-75.309618999999998,,
743,1169,Broad&woodn,,40.622014999999998,-75.363408000000007,,
744,1170,Broad&woods,,40.622106000000002,-75.364222999999996,,
747,5468,Broadway&2ndne,,40.840494,-75.295192999999998,,
748,5553,Broadway&2ndsw,,40.840916,-75.295156000000006,,
749,5918,Broadway&37thne,,40.584895000000003,-75.534458000000001,,
750,5871,Broadway&37thw,,40.585306000000003,-75.532815999999997,,
751,5917,Broadway&38thne,,40.584297999999997,-75.536586,,
752,5870,Broadway&38thw,,40.584375999999999,-75.536770000000004,,
753,5469,Broadway&3rdne,,40.841312000000002,-75.294497000000007,,
754,5554,Broadway&3rdsw,,40.841634999999997,-75.294719000000001,,
755,5867,Broadway&40thw,,40.583348999999998,-75.540342999999993,,
756,5913,Broadway&41stse,,40.583792000000003,-75.543287000000007,,
757,5866,Broadway&41stw,,40.583849000000001,-75.542956000000004,,
758,5911,Broadway&42ndse,,40.585065,-75.546963000000005,,
759,5865,Broadway&42ndw,,40.585175999999997,-75.546527999999995,,
762,5471,Broadway&5thne,,40.842773999999999,-75.293593000000001,,
763,5556,Broadway&5ths,,40.842936000000002,-75.293801000000002,,
764,5557,Broadway&6ths,,40.844216000000003,-75.293094999999994,,
765,5552,Broadway&an,,40.836635000000001,-75.296481999999997,,
766,5912,Broadway&cdrbrkse,,40.584341999999999,-75.544754999999995,,
767,5473,Broadway&center,,40.848115,-75.292007999999996,,
768,5560,Broadway&centrs,,40.848381000000003,-75.292053999999993,,
769,5862,Broadway&cetrnase,,40.588009999999997,-75.556774000000004,,
770,5910,Broadway&chewse,,40.585728000000003,-75.548691000000005,,
771,5864,Broadway&cheww,,40.585894000000003,-75.548644999999993,,
772,5908,Broadway&ctrnanw,,40.588101000000002,-75.556858000000005,,
775,5467,Broadway&males,,40.837932000000002,-75.296473000000006,,
777,5909,Broadway&pkwyse,,40.586294000000002,-75.550414000000004,,
778,5863,Broadway&pkwyw,,40.586187000000002,-75.549621999999999,,
779,5868,Broadway&scencw,,40.583635999999998,-75.539420000000007,,
781,5558,Broadway&wsts,,40.845540999999997,-75.292706999999993,,
782,5914,Broadway&wstvwne,,40.583233999999997,-75.540373000000002,,
784,5425,Brodhd&2550_core,,40.679284000000003,-75.358289999999997,,
786,5645,Brodhd&4thn,,40.610474000000004,-75.381394,,
788,5518,Brodhd&chrisw,,40.680222999999998,-75.350847000000002,,
789,5516,Brodhd&fed_exsw,,40.679430000000004,-75.358102000000002,,
790,5429,Brodhd&fritche,,40.680782000000001,-75.344928999999993,,
791,5520,Brodhd&fritchw,,40.680979000000001,-75.344404999999995,,
792,5423,Brodhd&millere,,40.678280999999998,-75.366888000000003,,
793,5514,Brodhd&millerw,,40.678334,-75.366688999999994,,
794,5424,Brodhd&mowrere,,40.678561999999999,-75.363916000000003,,
795,5515,Brodhd&mowrw,,40.678750000000001,-75.364099999999993,,
796,5426,Brodhd&opuse,,40.680053000000001,-75.352214000000004,,
797,5517,Brodhd&opusw,,40.680073999999998,-75.352082999999993,,
798,5422,Brodhd&rabolde,,40.677967000000002,-75.369444999999999,,
799,5513,Brodhd&raboldw,,40.678091999999999,-75.369394999999997,,
800,5521,Brodhd&rt_191w,,40.681432000000001,-75.341871999999995,,
801,5419,Brodhd&scheldene,,40.676819000000002,-75.377741999999998,,
802,5510,Brodhd&scheldnsw,,40.676547999999997,-75.378630000000001,,
804,5519,Brodhd&tracyw,,40.680684999999997,-75.346770000000006,,
805,5512,Brodhd&twnspw,,40.677746999999997,-75.371639000000002,,
806,5421,Brodhd&twshp_lne,,40.677613000000001,-75.372478000000001,,
815,4937,Burke&cattelle,,40.703997999999999,-75.207999000000001,,
817,5690,Greenwood&groves,,40.675533000000001,-75.260060999999993,,
820,5693,Easton&farmersvillene,,40.666092999999996,-75.310642000000001,,
821,5692,4th&spruce_eastonn,,40.688870999999999,-75.210846000000004,,
822,5691,Greenwood&groven,,40.675638999999997,-75.259956000000003,,
824,5385,Sullivantrail&arielcts,,40.760550000000002,-75.269716000000003,,
825,5384,Sullivan&arieln,,40.760415000000002,-75.269467000000006,,
826,5383,13th&washingtonne,,40.686450000000001,-75.227822000000003,,
828,5381,Butler&14the,,40.685507999999999,-75.229804999999999,,
829,4982,Butler&14thw,,40.685606,-75.229606000000004,,
831,4981,Butler&15thw,,40.685568000000004,-75.231324999999998,,
832,5379,Butler&16the,,40.68526,-75.233457000000001,,
833,4980,Butler&16thw,,40.685375999999998,-75.233136999999999,,
834,5378,Butler&17the,,40.685096000000001,-75.234904999999998,,
835,4979,Freemansburg&butlerne,,40.684814000000003,-75.236331000000007,,
836,5390,Butler&22nde,,40.683776999999999,-75.242873000000003,,
840,5389,Butler&24thne,,40.682853000000001,-75.245632999999998,,
841,4921,Butler&24thw,,40.683045,-75.245434000000003,,
842,1411,Butler&25the,,40.682003000000002,-75.247699999999995,,
843,6238,Butler&25thw,,40.682245000000002,-75.247493000000006,,
844,5171,Catasqua&allwdnw,,40.64161,-75.417122000000006,,
845,5173,Catasqua&asterw,,40.642581,-75.423595000000006,,
846,5170,Catasqua&dahlanw,,40.641075000000001,-75.414922000000004,,
847,5172,Catasqua&grovenw,,40.641939000000001,-75.418527999999995,,
848,5169,Catasqua&klchnnw,,40.640554000000002,-75.412547000000004,,
849,5175,Catasqua&vallysw,,40.641390000000001,-75.430504999999997,,
850,5221,Catsqua&airportse,,40.640129999999999,-75.432974999999999,,
851,5218,Catsqua&astere,,40.642560000000003,-75.423957000000001,,
852,5215,Catsqua&dahliase,,40.641032000000003,-75.415295,,
853,5216,Catsqua&druryse,,40.641590999999998,-75.417576999999994,,
854,5214,Catsqua&klechnrse,,40.640394999999998,-75.412586000000005,,
855,5220,Catsqua&valleyne,,40.640701,-75.430487999999997,,
856,5217,Catsqua&wdmontse,,40.642091999999998,-75.419848999999999,,
857,5405,Cattell&burken,,40.703971000000003,-75.207752999999997,,
859,4931,Cattell&clntons,,40.698797999999996,-75.205060000000003,,
860,5401,Cattell&highnw,,40.700564999999997,-75.205937000000006,,
861,4933,Cattell&highs,,40.700634000000001,-75.206076999999993,,
863,5406,Cattell&lafyettn,,40.704956000000003,-75.208101999999997,,
864,5400,Cattell&marchnw,,40.699655,-75.205470000000005,,
865,4932,Cattell&marchs,,40.699703999999997,-75.205545999999998,,
866,5403,Cattell&monroen,,40.702317999999998,-75.206823,,
867,4935,Cattell&monroes,,40.702485000000003,-75.206856000000002,,
868,5402,Cattell&parsnsnw,,40.701535999999997,-75.206501000000003,,
870,5404,Cattell&piercen,,40.703228000000003,-75.207280999999995,,
872,5399,Cattell&terrcen,,40.698608999999998,-75.204922999999994,,
873,1314,Cdr_crest&apples,,40.613053000000001,-75.533219000000003,,
874,1320,Cdr_crest&edinbs,,40.607728999999999,-75.531133999999994,,
875,1315,Cdr_crest&fairn,,40.607807999999999,-75.530871000000005,,
876,1318,Cdr_crest&greens,,40.601095999999998,-75.529065000000003,,
877,1321,Cdr_crest&highls,,40.604478,-75.530096999999998,,
878,1316,Cdr_crest&penan,,40.606256999999999,-75.530420000000007,,
879,1317,Cdr_crest&trexrs,,40.602874999999997,-75.529696000000001,,
880,1319,Cdr_crest&washis,,40.599271999999999,-75.528546000000006,,
881,1322,Cedar Pt Sc & Tgife,,40.581958,-75.521360000000001,,
882,4025,Cdr_crst&kathns,,40.569178000000001,-75.519199,,
883,4024,Cdr_crst&lncolnn,,40.570084999999999,-75.519018000000003,,
884,4778,Cdr_crst&profe,,40.565761000000002,-75.515932000000006,,
886,5502,Center&1st_prs,,40.645029000000001,-75.376504999999995,,
887,5526,Center&bordr_hsw,,40.742623000000002,-75.318105000000003,,
888,5503,Center&br_paths,,40.650660000000002,-75.377284000000003,,
889,5434,Center&brdr_hse,,40.7425,-75.317976000000002,,
890,5436,Center&broad,,40.742443000000002,-75.309695000000005,,
891,5528,Center&broadw,,40.742542999999998,-75.309877999999998,,
892,5527,Center&churchw,,40.742655999999997,-75.314261000000002,,
893,5435,Center&churche,,40.742418999999998,-75.314653000000007,,
894,5501,Center&dewbrys,,40.640479999999997,-75.375878,,
895,5497,Center&elizabn,,40.630944,-75.375079999999997,,
896,6168,Center&elizbths,,40.631067999999999,-75.375273000000007,,
897,5495,Center&fairvwn,,40.627464000000003,-75.375102999999996,,
898,5494,Center&goeppn,,40.626255999999998,-75.375230999999999,,
899,5498,Center&greenwchn,,40.632285000000003,-75.374973999999995,,
900,5499,Center&greenwhs,,40.632379999999998,-75.375172000000006,,
901,5496,Center&laureln,,40.628635000000003,-75.375101000000001,,
902,5504,Center&macadas,,40.654102000000002,-75.377764999999997,,
903,5437,Broad&belvideren,,40.740775999999997,-75.309447000000006,,
905,5492,Center&northn,,40.623618999999998,-75.375264999999999,,
906,5493,Center&unionn,,40.624766000000001,-75.375221999999994,,
907,5500,Center&washngs,,40.635002999999998,-75.375138000000007,,
908,5343,Centre&canaln,,40.681716999999999,-75.221579000000006,,
917,4348,Cherryvle&24thw,,40.697448000000001,-75.499582000000004,,
919,4084,Chestnt&2nde,,40.674064999999999,-75.493227000000005,,
921,1391,Chestnut&10thn,,40.529456000000003,-75.504411000000005,,
922,1404,Chestnut&10ths,,40.529860999999997,-75.504078000000007,,
927,1385,Chestnut&4thn,,40.534992000000003,-75.492199999999997,,
928,1398,Chestnut&4ths,,40.535063000000001,-75.491456999999997,,
929,1386,Chestnut&5thn,,40.534343,-75.493544999999997,,
930,1399,Chestnut&5ths,,40.534343,-75.493753999999996,,
931,1387,Chestnut&6thn,,40.533160000000002,-75.496249000000006,,
932,1400,Chestnut&6ths,,40.533323000000003,-75.495846,,
933,1388,Chestnut&7thn,,40.531841,-75.499154000000004,,
934,1401,Chestnut&7ths,,40.532167000000001,-75.498677000000001,,
935,1389,Chestnut&8thn,,40.531168999999998,-75.500838999999999,,
936,1402,Chestnut&8ths,,40.531326999999997,-75.500518,,
938,1403,Chestnut&9ths,,40.530602999999999,-75.502184999999997,,
943,1285,Chew&10thw,,40.604745999999999,-75.480054999999993,,
944,1286,Chew&11thw,,40.604289999999999,-75.481700000000004,,
945,1287,Chew&12thw,,40.603805000000001,-75.483501000000004,,
946,1288,Chew&13thw,,40.603172000000001,-75.485628000000005,,
947,1289,Chew&14thw,,40.602576999999997,-75.487722000000005,,
948,1290,Chew&15thw,,40.602083999999998,-75.489817000000002,,
949,1291,Chew&16thw,,40.601407000000002,-75.491979000000001,,
950,1292,Chew&17th,,40.600946,-75.494005999999999,,
951,1293,Chew&18thw,,40.600147999999997,-75.496405999999993,,
952,1294,Chew&19thw,,40.599609000000001,-75.498459999999994,,
953,1295,Chew&20thw,,40.599026000000002,-75.500681999999998,,
954,1296,Chew&22ndw,,40.598013000000002,-75.504327000000004,,
955,1281,Chew&22ndw,,40.598013000000002,-75.504327000000004,,
958,1282,Chew&7thw,,40.606445000000001,-75.473558999999995,,
959,1283,Chew&8thw,,40.606023999999998,-75.475447000000003,,
960,1284,Chew&9thw,,40.605437999999999,-75.477170999999998,,
961,4076,Chsntnt&11the,,40.668331000000002,-75.501845000000003,,
964,4081,Chsntnt&5the,,40.672320999999997,-75.496110000000002,,
966,4079,Chsntnt&7the,,40.671081999999998,-75.497870000000006,,
968,4077,Chsntnt&9the,,40.669671999999998,-75.499999000000003,,
970,4066,Chstnt&11thw,,40.668362000000002,-75.501738000000003,,
971,4065,Rt_873&oakwoods,,40.705894000000001,-75.620705999999998,,
972,4073,Chstnt&3rdw,,40.673757000000002,-75.493863000000005,,
974,4071,Chstnt&5thw,,40.672142000000001,-75.496024000000006,,
976,4069,Chstnt&7thw,,40.670810000000003,-75.498086000000001,,
978,4067,Chstnt&9thw,,40.669448000000003,-75.500039999999998,,
979,1392,Chstnt&cdr_crst,,40.528379000000001,-75.507107000000005,,
983,5991,Church&chstnuts,,40.674351999999999,-75.525659000000005,,
986,5600,Eastonseniorcentern,,40.735591999999997,-75.235011,,
989,5209,Church&neww,,40.618727999999997,-75.378320000000002,,
991,4785,City_ln&airportw,,40.652168000000003,-75.429068000000001,,
992,4784,City_ln&ave_c,,40.652360000000002,-75.426554999999993,,
993,5989,Clmba&mcrth_wsw,,40.663801999999997,-75.513610999999997,,
994,6068,Colmbia&lmstnsw,,40.669853000000003,-75.507996000000006,,
995,6002,Coply&n_coplyse,,40.678379,-75.503308000000004,,
999,5937,Corp Pkwy @ 3701,,40.553629000000001,-75.422974999999994,,
1000,5938,Corp_pkwy&3773se,,40.551355000000001,-75.422245000000004,,
1001,5936,Corp_pkwy&olympw,,40.555362000000002,-75.420544000000007,,
1002,5417,Courtny&commrcen,,40.672446000000001,-75.376209000000003,,
1003,5508,Courtny&commrcs,,40.672418999999998,-75.376324999999994,,
1004,5416,Courtny&highlndn,,40.669438,-75.375567000000004,,
1005,5507,Courtny&highlns,,40.669449,-75.375748999999999,,
1006,5410,Ctr&1st_prsb_chn,,40.644801000000001,-75.376503,,
1007,5411,Ctr&brdl_pathn,,40.650641999999998,-75.377168999999995,,
1008,5409,Ctr&dewberryn,,40.64002,-75.375702000000004,,
1009,5413,Ctr&johnstons,,40.656371999999998,-75.378024999999994,,
1010,5412,Center&parkplacen,,40.661554000000002,-75.381995000000003,,
1011,5408,Ctr&washngtnn,,40.635449999999999,-75.375063999999995,,
1019,5282,Davis&old_philn,,40.676175999999998,-75.211976000000007,,
1021,5333,Davis&wiliamn,,40.675238,-75.211831000000004,,
1023,5138,Delaware&bergnsw,,40.602611000000003,-75.396807999999993,,
1025,5133,Delawre&clewllw,,40.605249999999998,-75.394351,,
1027,5136,Delawre&hoffrtsw,,40.603603999999997,-75.395870000000002,,
1028,5135,Delawre&kieffrsw,,40.604408999999997,-75.395156999999998,,
1034,5620,Divsn&clmbiase,,40.871113000000001,-75.212357999999995,,
1035,5619,Center&maine,,40.742539000000001,-75.311520000000002,,
1036,5621,Divsn&pennae,,40.869205999999998,-75.211854000000002,,
1037,4695,Dixion&5thw,,40.58061,-75.457783000000006,,
1039,4745,Dixon&5the,,40.580561000000003,-75.457870999999997,,
1040,4693,Dixon&7thw,,40.580730000000003,-75.462976999999995,,
1041,4743,Dixon&7the,,40.580679000000003,-75.463657999999995,,
1042,4744,Dixon&churche,,40.580578000000003,-75.459511000000006,,
1044,5457,Dnfrth&col_intrw,,40.733122000000002,-75.263739999999999,,
1046,5456,Dnfrth&map_easw,,40.733395000000002,-75.260473000000005,,
1048,6067,Downs&target,,40.638103999999998,-75.438592,,
1049,5062,East&barrettn,,40.659748999999998,-75.349502000000001,,
1051,5071,East&lewisn,,40.646130999999997,-75.349517000000006,,
1052,5060,East&chestern,,40.661845,-75.349639999999994,,
1053,5082,East&eastonn,,40.643878999999998,-75.348476000000005,,
1054,5081,East&eastons,,40.644243000000003,-75.348939000000001,,
1055,5059,East&garretts,,40.662275999999999,-75.349804000000006,,
1056,5066,East&hastingsn,,40.656114000000002,-75.349020999999993,,
1058,5064,East&johnstonn,,40.657536,-75.349183999999994,,
1059,5063,East&johnstons,,40.658062000000001,-75.349355000000003,,
1060,5074,East&northn,,40.648558999999999,-75.349855000000005,,
1061,5073,East&lansdales,,40.650261999999998,-75.350301999999999,,
1063,5079,East&lewiss,,40.646351000000003,-75.349773999999996,,
1064,5058,East&lindennw,,40.664090999999999,-75.350784000000004,,
1065,5057,East&lindense,,40.663936,-75.350848999999997,,
1066,5068,East&springgardenn,,40.647382999999998,-75.349692000000005,,
1067,5067,East&middles,,40.654780000000002,-75.349072000000007,,
1068,5076,East&lansdalen,,40.649948999999999,-75.350126000000003,,
1069,5075,East&norths,,40.648994000000002,-75.350173999999996,,
1071,5077,East&sprng_gars,,40.647606000000003,-75.349969000000002,,
1072,5061,East&thompsons,,40.660193999999997,-75.349778999999998,,
1073,1434,Easton&10the,,40.662413999999998,-75.324703999999997,,
1074,1432,Easton&7thn,,40.659256999999997,-75.330061999999998,,
1075,1483,Easton&7ths,,40.659433999999997,-75.329864999999998,,
1079,1410,Easton&beeche,,40.631791999999997,-75.368675999999994,,
1081,1422,Easton&boyde,,40.643245,-75.348483999999999,,
1083,1480,Easton&butztwns,,40.652070000000002,-75.336600000000004,,
1084,1417,Easton&carlislee,,40.639133999999999,-75.358558000000002,,
1085,1415,Easton&chestnute,,40.637230000000002,-75.363024999999993,,
1086,1476,Easton&stefkow,,40.644874999999999,-75.345444000000001,,
1087,1468,Easton&edgeborw,,40.637774999999998,-75.362723000000003,,
1088,1440,Easton&9thste,,40.660767,-75.327984999999998,,
1089,1490,Easton&farmvilw,,40.666423999999999,-75.309826000000001,,
1091,1500,Easton&hampshrw,,40.651144000000002,-75.337416000000005,,
1092,1485,Easton&harvardw,,40.662782,-75.324033,,
1093,1431,Easton&hecktowne,,40.657245000000003,-75.33193,,
1094,1482,Easton&hecktwnw,,40.657674,-75.331746999999993,,
1095,1471,Easton&hendrsnw,,40.640129000000002,-75.356368000000003,,
1096,1424,Easton&hg_pointe,,40.646267999999999,-75.343018999999998,,
1097,1477,Easton&hg_pontw,,40.646659,-75.342911999999998,,
1098,1413,Easton&beechw,,40.631962000000001,-75.368637000000007,,
1100,1416,Easton&jeningse,,40.638325999999999,-75.361018999999999,,
1101,1469,Easton&jeningsw,,40.638623000000003,-75.360642999999996,,
1102,1430,Easton&kelchnern,,40.654936999999997,-75.333972000000003,,
1103,1499,Easton&kelchners,,40.655074999999997,-75.333939000000001,,
1104,1474,Easton&lexngtnw,,40.642378999999998,-75.351089000000002,,
1105,1419,Easton&lincolne,,40.640681000000001,-75.354422,,
1106,1472,Easton&lincolnw,,40.641041999999999,-75.354022000000001,,
1107,1418,Easton&majore,,40.640082,-75.355892999999995,,
1108,1421,Easton&michaele,,40.642257000000001,-75.350815999999995,,
1109,1470,Easton&mntgmryw,,40.639338000000002,-75.358519999999999,,
1110,1425,Easton&nottnghme,,40.64828,-75.340469999999996,,
1111,1478,Easton&nttnghmw,,40.648856000000002,-75.339945,,
1112,1487,Easton&sheltonw,,40.660885,-75.327830000000006,,
1113,1438,Easton&reevee,,40.665801999999999,-75.312997999999993,,
1114,1489,Easton&reevew,,40.666097000000001,-75.312338999999994,,
1115,1420,Easton&renwicke,,40.641424999999998,-75.352723999999995,,
1117,1502,Easton&rogersw,,40.644058000000001,-75.347328000000005,,
1120,1484,Easton&reevedriveweste,,40.665025,-75.317128999999994,,
1121,1426,Easton&shop_ctrn,,40.651142,-75.337134000000006,,
1124,1436,Easton&washngtne,,40.664498000000002,-75.318578000000002,,
1125,1473,Easton&westw,,40.641764000000002,-75.352310000000003,,
1126,1429,Easton&willown,,40.653323,-75.335205999999999,,
1127,1481,Easton&willows,,40.653438000000001,-75.335255000000004,,
1128,1465,Easton&wodlawnw,,40.632868999999999,-75.367744999999999,,
1129,1412,Easton&woodlawne,,40.632809000000002,-75.367553000000001,,
1130,1467,Easton&wshngtnw,,40.635044000000001,-75.365544999999997,,
1131,1414,Easton&wshngtone,,40.634664000000001,-75.365740000000002,,
1133,6049,Ebrhrt&mcrthrsw,,40.649734000000002,-75.497551000000001,,
1134,4361,Elizabeth&centre,,40.630799000000003,-75.375343000000001,,
1135,4372,Elizabeth&centw,,40.630856000000001,-75.374780000000001,,
1136,4360,Elizabeth&chelse,,40.630847000000003,-75.376958000000002,,
1137,4371,Elizabeth&chelw,,40.631047000000002,-75.376778999999999,,
1138,4362,Elizabeth&highe,,40.630572000000001,-75.373580000000004,,
1139,4373,Elizabeth&highw,,40.630664000000003,-75.373104999999995,,
1142,5358,Elm St @ Barthlmw Hse,,40.620896000000002,-75.366797000000005,,
1145,6148,Emaus&30thne,,40.557760000000002,-75.481510999999998,,
1152,4162,Emmaus&12thn,,40.568750999999999,-75.471835999999996,,
1153,4205,Emaus&12ths,,40.569066999999997,-75.471653000000003,,
1154,4163,Emaus&26ths,,40.565759,-75.474759000000006,,
1155,4140,Emmaus&27thn,,40.561860000000003,-75.476916000000003,,
1157,4141,Emmaus&28thn,,40.560575,-75.477771000000004,,
1158,4165,Emaus&28thw,,40.561126999999999,-75.477535000000003,,
1160,4166,Emaus&29thsw,,40.558877000000003,-75.479996,,
1163,4167,Emaus&giantsw,,40.557501999999999,-75.482245000000006,,
1168,4197,Emmaus&lawne,,40.575988000000002,-75.458093000000005,,
1170,4156,Emaus&laww,,40.575966999999999,-75.458635999999998,,
1171,4135,Emmaus&8the,,40.573529999999998,-75.463588999999999,,
1172,4158,Emaus&8ths,,40.573782999999999,-75.463335999999998,,
1173,4136,Emmaus&9the,,40.572577000000003,-75.465935999999999,,
1174,4159,Emaus&9thw,,40.57273,-75.465774999999994,,
1177,4139,Emmaus&allenbrkn,,40.565350000000002,-75.474742000000006,,
1180,4138,Emaus&mack,,40.571171,-75.469223,,
1181,4161,Emaus&howard,,40.571052000000002,-75.469408000000001,,
1182,5373,Emrick@northmptncohss,,40.661279,-75.294280000000001,,
1183,4950,Emrick&baglyosn,,40.659486999999999,-75.293375999999995,,
1184,5375,Emrick&baglyss,,40.659486999999999,-75.293670000000006,,
1185,5376,Emrick&cooks,,40.657895000000003,-75.292687999999998,,
1187,5377,Emrick&dealtreys,,40.654035999999998,-75.291483999999997,,
1188,4952,Freemansburg&ohiow,,40.657471999999999,-75.279336000000001,,
1189,4953,Emrick&fburgn,,40.652413000000003,-75.291105999999999,,
1190,4248,Fairmont&5ths,,40.624161999999998,-75.473231999999996,,
1192,4249,Fairmont&6ths,,40.624293999999999,-75.474189999999993,,
1193,4293,Fairmont&vrgnaw,,40.624412,-75.476388,,
1195,4252,Fairmont&jordns,,40.624369000000002,-75.479558999999995,,
1196,4295,Fairmont&kays,,40.624741,-75.478192000000007,,
1197,4251,Fairmont&kays,,40.624645000000001,-75.478595999999996,,
1199,4250,Fairmont&vrgnas,,40.624361999999998,-75.476388,,
1200,5042,Fburg&10the,,40.642080999999997,-75.322642999999999,,
1201,5041,Fburg&10thw,,40.642245000000003,-75.322739999999996,,
1202,5044,Fburg&12the,,40.642499999999998,-75.320770999999993,,
1203,5043,Fburg&12thw,,40.642690000000002,-75.320884000000007,,
1205,4978,8th&main-Tatamyne,,40.740150999999997,-75.259206000000006,,
1206,4977,Fburg&20ths,,40.682586000000001,-75.239519999999999,,
1208,4976,Fburg&21sts,,40.681328999999998,-75.240780000000001,,
1210,4975,Fburg&23rdsts,,40.679347,-75.242204999999998,,
1211,5307,Fburg&24thne,,40.678418999999998,-75.242734999999996,,
1212,4971,Fburg&27thw,,40.674610000000001,-75.247236000000001,,
1213,5031,Fburg&2nde,,40.640537999999999,-75.331198000000001,,
1214,5032,Fburg&2ndw,,40.640701,-75.330931000000007,,
1217,5036,Fburg&4the,,40.641013000000001,-75.329305000000005,,
1218,5035,Fburg&4thw,,40.641202,-75.328802999999994,,
1219,5038,Fburg&6the,,40.641326999999997,-75.326976000000002,,
1220,5037,Fburg&6thw,,40.641489999999997,-75.327046999999993,,
1221,5040,Fburg&8the,,40.641630999999997,-75.324861999999996,,
1222,5039,Fburg&8thw,,40.641804,-75.324815000000001,,
1223,5303,Fburg&25th@aldine,,40.674461000000001,-75.247269000000003,,
1224,5306,Fburg&balatane,,40.677197,-75.244130999999996,,
1225,4974,Fburg&balataw,,40.677489999999999,-75.243852000000004,,
1229,5297,Fburg&grandviewne,,40.669477000000001,-75.256642999999997,,
1230,5310,Fburg&centerne,,40.681913999999999,-75.240116999999998,,
1233,5300,Fburg&dunklene,,40.671669999999999,-75.252587000000005,,
1234,4968,Fburg&dunklew,,40.672082000000003,-75.252109000000004,,
1235,4959,Fburg&eichlinw,,40.664738999999997,-75.266037999999995,,
1236,5049,Fburg&fmville,,40.647888000000002,-75.308132999999998,,
1237,5050,Fburg&fmvillw,,40.647888999999999,-75.308570000000003,,
1238,4965,Fburg&grenwodw,,40.669880999999997,-75.256309000000002,,
1239,4969,Fburg&hobsonw,,40.672789000000002,-75.250702000000004,,
1240,5284,Fburg&hopene,,40.65504,-75.283643999999995,,
1241,4954,Fburg&hopew,,40.654834999999999,-75.284400000000005,,
1242,5302,Fburg&keanene,,40.673206,-75.249705000000006,,
1243,4970,Fburg&keanew,,40.67342,-75.249581000000006,,
1244,5286,Fburg&kings_vwne,,40.659368999999998,-75.275103000000001,,
1245,4956,Fburg&kingw,,40.659897000000001,-75.274581999999995,,
1246,5299,Fburg&milfordne,,40.671022000000001,-75.253955000000005,,
1247,4967,Fburg&milfrdw,,40.671362999999999,-75.253506999999999,,
1248,5305,Greenwood&oregons,,40.670647000000002,-75.257302999999993,,
1250,5294,Fburg&mine_lnne,,40.666542,-75.262287999999998,,
1251,4962,Fburg&minew,,40.666884000000003,-75.261982000000003,,
1252,4966,Fburg&oakwdw,,40.670732999999998,-75.254812999999999,,
1254,5285,Fburg&old_orchrne,,40.658323000000003,-75.277167000000006,,
1255,5289,Fburg&old_or_drne,,40.664527,-75.266050000000007,,
1256,4955,Fburg&eichlinw,,40.658670999999998,-75.276827999999995,,
1259,5312,Fburg&ridgene,,40.683926999999997,-75.237534999999994,,
1260,5353,Fburg&ridgew,,40.684136000000002,-75.237476000000001,,
1261,5051,Fburg&schewpse,,40.648774000000003,-75.304894000000004,,
1263,4957,Fburg&sheridnw,,40.662264999999998,-75.270387999999997,,
1264,5052,Fburg&wagnere,,40.649279999999997,-75.299373000000003,,
1265,5053,Fburg&wagnerw,,40.649442999999998,-75.298795999999996,,
1269,4961,Fburg&whtnyw,,40.665863999999999,-75.263722000000001,,
1270,5048,Fburg&wshgtne,,40.645603999999999,-75.315161000000003,,
1271,5047,Fburg&wshgtnw,,40.645769000000001,-75.315310999999994,,
1273,5120,Fiot&cherokeenw,,40.606709000000002,-75.389976000000004,,
1274,5124,Fiot&delawarenw,,40.607627999999998,-75.391566999999995,,
1276,5122,Fiot&senecanw,,40.607143999999998,-75.390790999999993,,
1277,4847,Flexler&andrean,,40.579281999999999,-75.512214999999998,,
1278,4898,Flexler&belfrds,,40.579312000000002,-75.512345999999994,,
1279,4902,Flexler&cathrns,,40.572865999999998,-75.516150999999994,,
1281,4845,Flexler&colleges,,40.582605999999998,-75.510176000000001,,
1282,4849,Flexler&debbien,,40.576053000000002,-75.514409999999998,,
1283,4900,Flexler&debbies,,40.576483000000003,-75.514171000000005,,
1285,4897,Flexler&greens,,40.580646999999999,-75.511538000000002,,
1287,4851,Flexler&lndbergs,,40.573509999999999,-75.515998999999994,,
1288,4901,Flexler&lndbrgs,,40.573774999999998,-75.515798000000004,,
1291,4919,Fmvill&charlesn,,40.670513999999997,-75.307140000000004,,
1292,4920,Fmvill&eastonn,,40.666949000000002,-75.306636999999995,,
1293,4918,Fmvill&greenn,,40.677387000000003,-75.307818999999995,,
1297,5338,Grant&folks,,40.676749999999998,-75.207892000000001,,
1298,5275,Charles&eastlincolns,,40.678761999999999,-75.205549000000005,,
1299,5276,Charles&wilkesbars,,40.681151,-75.205844999999997,,
1300,5339,Charles&eastbirdn,,40.678386000000003,-75.205371999999997,,
1301,5277,Charles&nesquehoningn,,40.681846,-75.205916999999999,,
1302,5341,Charles&nesquehngs,,40.682006000000001,-75.205976000000007,,
1303,5340,Charles&wilkesbarn,,40.681012000000003,-75.205828999999994,,
1304,5372,Frmersvl&eastns,,40.667149999999999,-75.306865000000002,,
1305,5371,Frmersvl&kg_chas,,40.670760000000001,-75.307241000000005,,
1306,5370,Frmersvl&rexfrds,,40.674388999999998,-75.307799000000003,,
1311,4718,Front&allens,,40.614694999999998,-75.459560999999994,,
1312,4767,Front&allenn,,40.615208000000003,-75.459719000000007,,
1316,6045,Front&centrs,,40.665236999999998,-75.488569999999996,,
1317,6092,Front&churchnw,,40.652710999999996,-75.47354,,
1318,4769,Front&gordonn,,40.612144999999998,-75.458509000000006,,
1320,6046,Front&irons,,40.662075999999999,-75.488220999999996,,
1322,4768,Front&libertyn,,40.613602,-75.458977000000004,,
1323,6060,Front&mulbrynw,,40.650696000000003,-75.470737999999997,,
1325,6044,Front&norths,,40.666628000000003,-75.488619,,
1326,6058,Front&racenw,,40.649023999999997,-75.468523000000005,,
1328,6047,Front&souths,,40.661096000000001,-75.488168000000002,,
1329,4717,Front&tilghmans,,40.616601000000003,-75.460331999999994,,
1330,4766,Front&tilghmann,,40.616396000000002,-75.460376999999994,,
1331,6059,Front&unionnw,,40.649614999999997,-75.469202999999993,,
1332,6061,Front&woodnw,,40.651518000000003,-75.471975999999998,,
1334,4715,Fullerton&cataqn,,40.620173000000001,-75.462593999999996,,
1337,4759,Fullerton&frmts,,40.624803,-75.467667000000006,,
1338,4764,Fullerton&jrdns,,40.620018999999999,-75.462579000000005,,
1339,4711,Fullerton&kimetn,,40.626116000000003,-75.468889000000004,,
1340,4760,Fullerton&kmets,,40.626531999999997,-75.469531000000003,,
1342,4713,Fullerton&lnclnn,,40.622092000000002,-75.464573000000001,,
1343,4762,Fullerton&lncls,,40.622278000000001,-75.465028000000004,,
1344,4710,Fullerton&mundyn,,40.624659000000001,-75.467408000000006,,
1347,4700,Gape&jordane,,40.634326999999999,-75.478075000000004,,
1348,5616,Garbldi&chsts,,40.878917000000001,-75.214640000000003,,
1349,5615,Garbldi&clmbse,,40.880518000000002,-75.215796999999995,,
1350,5617,Garbldi&dewys,,40.876024999999998,-75.214179999999999,,
1351,5614,Garbldi&jewelse,,40.881151000000003,-75.216493999999997,,
1352,5613,Garbldi&washngse,,40.882365,-75.217392000000004,,
1353,5612,Garbldi&wbstrse,,40.883079000000002,-75.218125999999998,,
1355,5588,Rt 512 & Flory Stsw,,40.871172999999999,-75.241607999999999,,
1358,5586,Rt 512 & Flory Stne,,40.871035999999997,-75.241721999999996,,
1360,4942,Georg&indp_vils,,40.706220000000002,-75.223939999999999,,
1361,4940,George&applew,,40.709606000000001,-75.224699999999999,,
1362,4941,George&greens,,40.708105000000003,-75.224359000000007,,
1363,4944,George&chestnutridge,,40.702863999999998,-75.221028000000004,,
1364,4945,George&lafas,,40.702585999999997,-75.219830999999999,,
1365,4943,George&morisns,,40.703643999999997,-75.223260999999994,,
1366,5102,Goepp&centere,,40.626083999999999,-75.375468999999995,,
1367,5115,Goepp&centerw,,40.626187000000002,-75.375113999999996,,
1368,5103,Goepp&highe,,40.626094000000002,-75.373388000000006,,
1369,5116,Goepp&highw,,40.626195000000003,-75.372815000000003,,
1370,5104,Goepp&lindene,,40.626005999999997,-75.370602000000005,,
1371,5117,Goepp&lindenw,,40.626072000000001,-75.370028000000005,,
1372,5105,Goepp&maplee,,40.625926999999997,-75.369050000000001,,
1375,4722,Gordon&2nde,,40.611127000000003,-75.462610999999995,,
1378,4772,Gordon&4thw,,40.609645,-75.467907999999994,,
1379,4724,Gordon&5the,,40.608814000000002,-75.470625999999996,,
1382,4720,Gordon&fronts,,40.612205000000003,-75.458571000000006,,
1383,5369,Gr_pond&cambellne,,40.676409999999997,-75.313657000000006,,
1384,5368,Gr_pond&cty_mdwe,,40.675055999999998,-75.320925000000003,,
1385,5273,Grant&folk,,40.676661000000003,-75.207886999999999,,
1386,5337,Charles&grants,,40.677596999999999,-75.205416999999997,,
1387,5274,Grant&charlese,,40.677354999999999,-75.205354999999997,,
1388,5336,Grant&st_jhnw,,40.676670999999999,-75.209547000000001,,
1389,4705,Grape&4thw,,40.636125,-75.472086000000004,,
1390,4752,Grape&3rde,,40.636226999999998,-75.471170999999998,,
1392,4751,Grape&5the,,40.635733000000002,-75.473169999999996,,
1395,4702,Grape&6the,,40.635449000000001,-75.474322999999998,,
1396,4749,Grape&6thw,,40.635500999999998,-75.474412999999998,,
1398,4753,Grape&jordanw,,40.634852000000002,-75.476975999999993,,
1399,4917,Green&cambells,,40.676544999999997,-75.313693999999998,,
1400,4916,Green&countryw,,40.675013999999997,-75.319502,,
1401,4914,Green&hecktwnw,,40.674565999999999,-75.328120999999996,,
1402,4287,Greenleaf&4the,,40.616669999999999,-75.471687000000003,,
1403,4286,Greenleaf&5the,,40.615927999999997,-75.474220000000003,,
1404,4242,Greenleaf&6ths,,40.615566999999999,-75.475753999999995,,
1405,5773,Grim&schantznw,,40.564377999999998,-75.629559999999998,,
1406,5819,Boulder@bimbos,,40.569356999999997,-75.621861999999993,,
1407,5238,Grnwd&charlts,,40.681556,-75.261698999999993,,
1408,5236,Grnwd&hartlys,,40.679718000000001,-75.261510000000001,,
1412,5193,Tatamy&crests,,40.702415999999999,-75.253174000000001,,
1413,5191,Grnwood&hartleyn,,40.679304999999999,-75.261253999999994,,
1414,5195,Grnwood&nhamptns,,40.685077,-75.262091999999996,,
1416,5194,Grnwood&washngts,,40.684508999999998,-75.261904000000001,,
1417,1026,Hamiltion&4thw,,40.604107999999997,-75.465221,,
1418,1034,Hamilton&10the,,40.600375999999997,-75.478356000000005,,
1419,1035,Hamilton&11the,,40.599851000000001,-75.480215000000001,,
1420,1037,Hamilton&12the,,40.599530999999999,-75.481381999999996,,
1421,1036,Hamilton&12thw,,40.599550000000001,-75.481441000000004,,
1422,1039,Hamilton&13the,,40.598894000000001,-75.483722999999998,,
1423,1038,Hamilton&13thw,,40.599027,-75.483664000000005,,
1424,1041,Hamilton&14the,,40.598216000000001,-75.486187999999999,,
1425,1040,Hamilton&14thw,,40.598464999999997,-75.485867999999996,,
1426,1043,Hamilton&15the,,40.597486000000004,-75.488228000000007,,
1427,1042,Hamilton&15thw,,40.597821000000003,-75.487921999999998,,
1428,1063,Hamilton&16the,,40.597034999999998,-75.490264999999994,,
1429,1031,Hamilton&16ths,,40.597244000000003,-75.49006,,
1430,1064,Hamilton&17the,,40.596581,-75.491865000000004,,
1431,1030,Hamilton&17thw,,40.596685999999998,-75.492086999999998,,
1432,1065,Hamilton&18the,,40.596001000000001,-75.494551999999999,,
1433,1066,Hamilton&19the,,40.595222,-75.496627000000004,,
1434,1068,Hamilton&21ste,,40.594366000000001,-75.500193999999993,,
1435,1069,Hamilton&22nde,,40.593662000000002,-75.502791000000002,,
1436,1070,Hamilton&23rde,,40.593088999999999,-75.504951000000005,,
1437,1071,Hamilton&24the,,40.592551999999998,-75.506640000000004,,
1438,1072,Hamilton&25the,,40.591861999999999,-75.509116000000006,,
1440,1024,Hamilton&2nde,,40.605423000000002,-75.460134999999994,,
1441,1028,Hamilton&2ndw,,40.605516999999999,-75.460211999999999,,
1442,1023,Hamilton&3rde,,40.604812000000003,-75.462197000000003,,
1443,1022,Hamilton&4the,,40.603720000000003,-75.466192000000007,,
1444,1021,Hamilton&5the,,40.603248000000001,-75.468142,,
1445,1025,Hamilton&albertw,,40.607633,-75.451115000000001,,
1446,1077,Hamilton&atriume,,40.585521,-75.515665999999996,,
1447,1029,Hamilton&brdfdw,,40.607798000000003,-75.451119000000006,,
1448,1020,Hamilton&churche,,40.602435999999997,-75.470768000000007,,
1449,1076,Hamilton&colegee,,40.586540999999997,-75.514818000000005,,
1450,1062,Hamilton&fountne,,40.600938999999997,-75.476305999999994,,
1451,1080,Cedar Pt West & Office Depotne,,40.58099,-75.523650000000004,,
1452,1081,Hamilton&linclne,,40.574722999999999,-75.533455000000004,,
1454,1074,Hamilton&otte,,40.590204,-75.512271999999996,,
1455,1027,Hamilton&racew,,40.604694000000002,-75.462432000000007,,
1456,1078,Hamilton&vae,,40.583044999999998,-75.517859999999999,,
1463,1085,Hamltn&comf_stsne,,40.576141999999997,-75.530221999999995,,
1464,4001,Hamltn&grangee,,40.557934000000003,-75.573615000000004,,
1465,4004,Hamltn&grangw,,40.557850999999999,-75.574627000000007,,
1466,4006,Hamltn&kresslre,,40.568916000000002,-75.547285000000002,,
1467,4009,Hamltn&kresslrw,,40.569363000000003,-75.546767000000003,,
1468,4000,Hamltn&krockse,,40.560229999999997,-75.567875999999998,,
1469,4002,Hamltn&krockw,,40.562882000000002,-75.561919000000003,,
1470,4003,Hamltn&krck_ctw,,40.560465000000001,-75.567905999999994,,
1471,4008,Hamltn&minesite,,40.567495999999998,-75.550708,,
1473,4005,Hamltn&schantw,,40.567579000000002,-75.550932000000003,,
1474,1067,Hamtilton&20the,,40.594766,-75.498712999999995,,
1475,1089,Hanover&carlisee,,40.608911999999997,-75.448189999999997,,
1476,1112,Hanover&carlsew,,40.609639999999999,-75.448628999999997,,
1477,1091,Hanover&fenwicke,,40.612518000000001,-75.448291999999995,,
1478,1114,Hanover&quebece,,40.620440000000002,-75.429473000000002,,
1479,1111,Hanover&fenwckw,,40.614207,-75.446488000000002,,
1480,1092,Hanover&fenwicke,,40.614055999999998,-75.446619999999996,,
1481,1093,Hanover&grahame,,40.615301000000002,-75.445113000000006,,
1482,1110,Hanover&grahamw,,40.615262999999999,-75.445279999999997,,
1483,1109,Hanover&halstdw,,40.616751000000001,-75.442775999999995,,
1484,1094,Hanover&halstede,,40.616509000000001,-75.443115000000006,,
1485,1096,Hanover&jeromee,,40.617471000000002,-75.439747999999994,,
1486,1107,Hanover&jeromew,,40.617483999999997,-75.440262000000004,,
1487,1097,Hanover&kiowae,,40.618113000000001,-75.437321999999995,,
1488,1106,Hanover&kiowaw,,40.618310999999999,-75.437162000000001,,
1489,1090,Hanover&lindene,,40.611175000000003,-75.448294000000004,,
1490,1113,Hanover&lindenw,,40.611432000000001,-75.448499999999996,,
1491,1098,Hanover&maxwelle,,40.618383000000001,-75.434676999999994,,
1492,1105,Hanover&maxwelw,,40.618532000000002,-75.434882000000002,,
1493,1099,Hanover&oswegoe,,40.618831,-75.432834999999997,,
1494,1100,Hanover&plymothe,,40.619546999999997,-75.431307000000004,,
1495,1104,Hanover&plymotw,,40.619602999999998,-75.431426000000002,,
1496,1103,Hanover&quebecw,,40.620387999999998,-75.429856000000001,,
1497,1101,Hanover&shermane,,40.621324000000001,-75.427591000000007,,
1498,1102,Hanover&shermaw,,40.621594999999999,-75.427028000000007,,
1499,1118,Hanover&tacomaw,,40.621940000000002,-75.425718000000003,,
1500,1116,Hanover&trumpe,,40.622425999999997,-75.424231000000006,,
1501,1119,Hanover&ulsterw,,40.62238,-75.423867999999999,,
1502,1117,Hanover&wahnetae,,40.623314999999998,-75.421741999999995,,
1503,1120,Hanover&wahnetw,,40.623508999999999,-75.421858,,
1504,1121,Hanovr&randlphe,,40.620798000000001,-75.428854999999999,,
1505,1122,Hanovr&randlphw,,40.620801,-75.42877,,
1506,4226,Harison&bechwds,,40.546750000000003,-75.490492000000003,,
1507,4223,Harison&keystns,,40.542579000000003,-75.494444999999999,,
1508,4225,Harison&wenners,,40.544626000000001,-75.492513000000002,,
1509,4194,Harrison&1stn,,40.543714000000001,-75.493204000000006,,
1510,4224,Harrison&1sts,,40.543827,-75.493262999999999,,
1511,4192,Harrison&2ndn,,40.541004000000001,-75.495734999999996,,
1512,4222,Harrison&2nds,,40.541142000000001,-75.495823999999999,,
1513,4221,Harrison&3rds,,40.539985999999999,-75.496881999999999,,
1514,4196,Harrison&bechwdn,,40.546616999999998,-75.490465999999998,,
1515,4193,Harrison&keystnn,,40.542296999999998,-75.494387000000003,,
1516,4195,Harrison&wennern,,40.544598999999998,-75.492313999999993,,
1518,5362,Hecktown&chestrn,,40.662759999999999,-75.332618999999994,,
1519,5363,Hecktown&drtmthn,,40.665528999999999,-75.333073999999996,,
1520,5359,Hecktown&eastonn,,40.657949000000002,-75.331880999999996,,
1521,5360,Hecktown&ednan,,40.659908999999999,-75.332171000000002,,
1522,5361,Hecktown&lewisn,,40.661586,-75.332464000000002,,
1523,5364,Hecktown&oaklndn,,40.668013000000002,-75.332532999999998,,
1524,4913,Hecktwn&canbrys,,40.672898000000004,-75.32826,,
1525,4909,Hecktwn&chestrs,,40.662903,-75.332638000000003,,
1526,5365,Hecktwn&cntrbryn,,40.672426000000002,-75.328096000000002,,
1527,4910,Hecktwn&darts,,40.665489999999998,-75.333190000000002,,
1528,4906,Hecktwn&eastons,,40.657578999999998,-75.332136000000006,,
1529,4907,Hecktwn&ednas,,40.659708000000002,-75.332312000000002,,
1530,5366,Hecktwn&gr_pondn,,40.674272000000002,-75.328335999999993,,
1531,4908,Hecktwn&lewiss,,40.661731000000003,-75.332588000000001,,
1532,4911,Hecktwn&oaklnds,,40.666862000000002,-75.333385000000007,,
1533,4912,Hecktwn&oaknds,,40.668185000000001,-75.332460999999995,,
1535,4350,Held&cherryn,,40.697082000000002,-75.501203000000004,,
1537,4544,4th&gordons,,40.609600999999998,-75.468170999999998,,
1538,6188,Hellrtwn&comms,,40.609327,-75.339715999999996,,
1539,6189,Hellertown Rd & Silvex S,,40.598166999999997,-75.340710999999999,,
1540,6187,Hellrtwn&milsdsw,,40.610134000000002,-75.340719000000007,,
1541,5838,Hickry&mrngsdee,,40.597642999999998,-75.607856999999996,,
1542,5796,Hickry&snwdrfte,,40.597799000000002,-75.606982000000002,,
1545,4861,Highland&12the,,40.615372999999998,-75.489596000000006,,
1546,4813,Highland&13thw,,40.615020000000001,-75.491260999999994,,
1547,5506,Highland&burgsw,,40.668390000000002,-75.378974999999997,,
1548,5414,Highlnd&adlere,,40.667831999999997,-75.382481999999996,,
1549,5505,Highlnd&adlersw,,40.667915000000001,-75.382428000000004,,
1550,5415,Highlnd&burgesse,,40.668236999999998,-75.379337000000007,,
1551,5666,Hllrtwn&cmrcn,,40.603344,-75.341049999999996,,
1552,5665,Hllrtwn&crstn,,40.599482999999999,-75.340738999999999,,
1553,5667,Hllrtwn&mlsidsw,,40.603112000000003,-75.341245999999998,,
1555,6118,Hwrtwn&brdgnw,,40.656025999999997,-75.470304999999996,,
1556,6098,Hwrtwn&kurtznw,,40.657116000000002,-75.470619999999997,,
1557,6099,Hwrtwn&pinen,,40.658050000000003,-75.470985999999996,,
1558,6119,Hwrtwn&pines,,40.658473000000001,-75.471087999999995,,
1559,6100,Hwrtwn&walntn,,40.659114000000002,-75.471193,,
1560,5848,Imperl&windsr,,40.583913000000003,-75.623452999999998,,
1563,5822,Indust&brdgstne,,40.563654999999997,-75.617440999999999,,
1564,5774,Boulder&industse,,40.563192000000001,-75.622891999999993,,
1565,5820,Grim&industnw,,40.559401000000001,-75.626441999999997,,
1568,5824,Indust&kraftne2,,40.570956000000002,-75.609741999999997,,
1569,5825,Indust&kraftne,,40.572797999999999,-75.609605000000002,,
1571,5823,Indust&morrsne,,40.568618999999998,-75.610168000000002,,
1573,5826,Indust&nexussw,,40.575279000000002,-75.609329000000002,,
1574,5607,Indust&rt_191s,,40.757618000000001,-75.266240999999994,,
1577,4730,Irving&americas,,40.631160000000001,-75.445618999999994,,
1578,4729,Irving&cedarhilldr,,40.634951000000001,-75.446642999999995,,
1579,4795,Airportctrrd&irvinge,,40.636988000000002,-75.446321999999995,,
1580,4353,Jackson&8ths,,40.598880000000001,-75.472607999999994,,
1581,4228,Jeferson&12thn,,40.583092000000001,-75.478841000000003,,
1582,4235,Jeferson&12ths,,40.583216,-75.478987000000004,,
1583,4233,Jeferson&cmblds,,40.587066999999998,-75.479248999999996,,
1584,4230,Jeferson&cmbrldn,,40.586858999999997,-75.479077000000004,,
1585,4229,Jeferson&leh_pkyn,,40.584876000000001,-75.478701999999998,,
1586,4234,Jeferson&tiogas,,40.584474999999998,-75.478831999999997,,
1588,4823,Jordn&macarthw,,40.621628999999999,-75.481423000000007,,
1589,4870,Mickley&jordne,,40.621130999999998,-75.483665000000002,,
1597,5861,Kmart_pl&hausmw,,40.591340000000002,-75.557850000000002,,
1598,5407,Knox&senioraptsn,,40.706758999999998,-75.215438000000006,,
1600,5355,Knox&sullivann,,40.710334000000003,-75.217616000000007,,
1602,5601,Ksslrvl&uhlern,,40.750369999999997,-75.232562000000001,,
1603,5624,Greenwood@postoffices,,40.673777999999999,-75.259068999999997,,
1604,5598,Greenwood@postofficen,,40.673957999999999,-75.258983000000001,,
1605,5604,Uhlerrd&sullivan1sw,,40.746012,-75.241581999999994,,
1607,5606,Uhlerrd&sullivantrail2w,,40.744996999999998,-75.243750000000006,,
1608,5603,Uhler&conroyse,,40.749926000000002,-75.235149000000007,,
1609,5628,Kesslersvillerd&kueblerrdn,,40.739080000000001,-75.231061999999994,,
1610,4946,Lafa&colemne,,40.704079,-75.210999999999999,,
1611,4947,Lafa&mccarte,,40.704639999999998,-75.209512000000004,,
1621,4049,Lehigh&10the,,40.687562999999997,-75.222418000000005,,
1623,1376,Lehigh&12thn,,40.582082999999997,-75.477604999999997,,
1624,4047,Lehigh&12the,,40.687412000000002,-75.226185999999998,,
1625,1379,Lehigh&12ths,,40.582352,-75.477671999999998,,
1626,4046,Lehigh&11the,,40.687510000000003,-75.224245999999994,,
1627,4045,Lehigh&14the,,40.687325999999999,-75.230143999999996,,
1628,4044,Lehigh&13the,,40.687424999999998,-75.228134999999995,,
1629,4043,Lehigh&16the,,40.687018999999999,-75.233889000000005,,
1631,1362,Lehigh&29thw,,40.561050999999999,-75.486508999999998,,
1632,1368,Lehigh&29ths,,40.561508000000003,-75.486575999999999,,
1634,4054,Lehigh&2ndw,,40.658585000000002,-75.487869000000003,,
1635,1360,Lehigh&33rdw,,40.556269,-75.489048999999994,,
1637,4055,Lehigh&3rdw,,40.658062000000001,-75.489357999999996,,
1639,4056,Lehigh&4thw,,40.657383000000003,-75.491275999999999,,
1640,4063,Lehigh&5the,,40.656367000000003,-75.493727000000007,,
1641,4057,Lehigh&5thw,,40.656635000000001,-75.49324,,
1643,4058,Lehigh&6thw,,40.656080000000003,-75.494712000000007,,
1645,1372,Lehigh&9ths,,40.590775999999998,-75.471104999999994,,
1646,4050,Lehigh&9the,,40.687643000000001,-75.220935999999995,,
1647,1371,Lehigh&9ths,,40.590457999999998,-75.471481999999995,,
1648,5474,Lehigh&alphane,,40.852102000000002,-75.285253999999995,,
1649,5561,Lehigh&alphasw,,40.852358000000002,-75.285013000000006,,
1650,1358,Lehigh&bevinw,,40.551782000000003,-75.491361999999995,,
1652,1363,Lehigh&downyflkn,,40.571607999999998,-75.481020000000001,,
1653,1366,Lehigh&downyflw,,40.571930999999999,-75.481212999999997,,
1656,1375,Lehigh&juniatan,,40.585490999999998,-75.475426999999996,,
1657,1378,Lehigh&juniatas,,40.585599999999999,-75.475543000000002,,
1658,1367,Lehigh&kias,,40.569781999999996,-75.482196000000002,,
1659,1359,Lehigh&mal_exts,,40.556570999999998,-75.489231000000004,,
1660,1356,Lehigh&mlk_drs,,40.598143,-75.467811999999995,,
1661,1357,Lehigh&perkinsw,,40.553137,-75.491387000000003,,
1663,1364,Lehigh&vulteen,,40.575529000000003,-75.480723999999995,,
1664,1365,Lehigh&vultees,,40.575909000000003,-75.480959999999996,,
1665,1380,8th&wyomingn,,40.590530000000001,-75.468394000000004,,
1666,1382,Lehigh&wymngs,,40.589371,-75.473117999999999,,
1667,1370,Wyoming&lehighn,,40.589098,-75.473601000000002,,
1672,4131,Liberty&17thw,,40.603727999999997,-75.495270000000005,,
1673,4458,Liberty&17the,,40.603513999999997,-75.495787000000007,,
1674,4398,Liberty&18thw,,40.603109000000003,-75.497418999999994,,
1675,4459,Liberty&18the,,40.602924000000002,-75.497754999999998,,
1676,4399,Liberty&19thw,,40.602603999999999,-75.499457000000007,,
1677,4903,Lincoln&amercsw,,40.570780999999997,-75.517871999999997,,
1678,4852,Lincoln&amercuse,,40.570762999999999,-75.517657,,
1679,4111,Linden&10thw,,40.602029999999999,-75.478486000000004,,
1680,4112,Linden&11thw,,40.601452999999999,-75.480277000000001,,
1681,4113,Linden&12thw,,40.600969999999997,-75.482059000000007,,
1682,4114,Linden&13thw,,40.600275000000003,-75.484622000000002,,
1683,4115,Linden&14thw,,40.599800000000002,-75.486495000000005,,
1686,5929,873&oakn,,40.720306999999998,-75.621189999999999,,
1687,5883,Rt873&oakwoodln,,40.705903999999997,-75.620619000000005,,
1689,5881,873&shadynooks,,40.732913000000003,-75.617178999999993,,
1690,5927,309&ashleymotorss,,40.662500999999999,-75.603775999999996,,
1691,5880,309&orchard,,40.668126000000001,-75.607131999999993,,
1692,4801,Linden&5ths,,40.604827,-75.468697000000006,,
1693,4104,Linden&5thw,,40.604671000000003,-75.468829999999997,,
1695,4109,Linden&8thw,,40.603185000000003,-75.474100000000007,,
1696,4110,Linden&9thw,,40.602741999999999,-75.475812000000005,,
1697,5100,Linden&crsn_spnw,,40.671115,-75.346841999999995,,
1698,5101,Linden&falconnw,,40.666491000000001,-75.349992,,
1699,5099,Linden&falconne,,40.665940999999997,-75.350046000000006,,
1700,5114,Linden&oaklandnw,,40.6691,-75.348156000000003,,
1701,5098,Linden&santeemillrds,,40.667617,-75.349232999999998,,
1702,5879,Linden&ottw,,40.594180000000001,-75.513193999999999,,
1708,5265,Line&coalw,,40.673822000000001,-75.217535999999996,,
1709,5329,Line&coale,,40.673760999999999,-75.217409000000004,,
1710,5261,Line&ironw,,40.673366000000001,-75.223354999999998,,
1711,5325,Line&irone,,40.673298000000003,-75.223181999999994,,
1712,5266,Line&packerw,,40.673029999999997,-75.227157000000005,,
1713,5330,Line&philae,,40.673836000000001,-75.215905000000006,,
1715,5328,Line&reynolde,,40.673717000000003,-75.218763999999993,,
1716,5262,Line&valleyw,,40.673468999999997,-75.222015999999996,,
1717,5326,Line&valleye,,40.673383999999999,-75.221885,,
1718,5184,Lvhc_muhl&mains,,40.645242000000003,-75.410253999999995,,
1719,5183,Lvhc_muhl&rehabs,,40.643951000000001,-75.409987000000001,,
1721,5225,Lvhc_muhl&shltrn,,40.644894000000001,-75.410060000000001,,
1725,4605,Lynn&8ths,,40.608927999999999,-75.349266,,
1727,1348,Macarth&fairmntn,,40.624633000000003,-75.482146999999998,,
1728,1346,Macarth&farmnts,,40.623621999999997,-75.481913000000006,,
1729,1347,Macarth&jordans,,40.621819000000002,-75.481142000000006,,
1730,1351,Macrthr&micklys,,40.619666000000002,-75.480148,,
1731,4323,Main&10thn,,40.678412000000002,-75.488219999999998,,
1732,4279,Main&10ths,,40.678711999999997,-75.488591,,
1733,4326,Main&13thn,,40.681099000000003,-75.491577000000007,,
1734,4327,Main&13ths,,40.681004000000001,-75.491654999999994,,
1735,4328,Main&14thn,,40.682403000000001,-75.493022999999994,,
1736,4329,Main&14ths,,40.682588000000003,-75.493247999999994,,
1737,4330,Main&15thn,,40.683615000000003,-75.494140999999999,,
1738,4331,Main&15ths,,40.683520000000001,-75.494229000000004,,
1739,4332,Main&16thn,,40.684885000000001,-75.495431999999994,,
1740,4333,Main&16ths,,40.684786000000003,-75.495435000000001,,
1741,4334,Main&17thn,,40.685805999999999,-75.496236999999994,,
1742,4335,Main&17ths,,40.685778999999997,-75.496401000000006,,
1743,4336,Main&18thn,,40.687553000000001,-75.497545000000002,,
1744,4337,Main&18ths,,40.687556000000001,-75.497684000000007,,
1745,4338,Main&19thn,,40.688859999999998,-75.498338000000004,,
1746,4339,Main&19ths,,40.688769000000001,-75.498429999999999,,
1747,4317,Main&1stn,,40.667931000000003,-75.480790999999996,,
1748,4273,Main&1sts,,40.668211999999997,-75.480929000000003,,
1750,4341,Main&21sts,,40.690758000000002,-75.499465999999998,,
1751,4342,Main&22ndn,,40.692506000000002,-75.500169999999997,,
1752,4343,Main&22nds,,40.692746,-75.500214,,
1753,4344,Main&23rdn,,40.694398,-75.499831,,
1754,4345,Main&23rds,,40.694629999999997,-75.499791000000002,,
1755,4346,8th&millracedrn,,40.736094999999999,-75.258364999999998,,
1756,4347,Main&24ths,,40.696750000000002,-75.499199000000004,,
1757,4318,Main&2ndn,,40.669325000000001,-75.480909999999994,,
1758,4274,Main&2nds,,40.669400000000003,-75.481009,,
1760,4319,Main&4th_emmn,,40.672795999999998,-75.480975999999998,,
1761,5464,Main&7th_tatamyw,,40.741383999999996,-75.256967000000003,,
1762,4275,Main&4th_emms,,40.673161,-75.481189999999998,,
1763,5549,Main&4ths_tatw,,40.741964000000003,-75.252978999999996,,
1764,5463,8th & Commerce Lanes,,40.736033999999997,-75.258566000000002,,
1765,5548,8th&main_tatamys,,40.740158999999998,-75.259422000000001,,
1766,4321,Main&7thn,,40.674985,-75.485810000000001,,
1767,4277,Main&7ths,,40.674985999999997,-75.486028000000005,,
1768,4322,Main&9thn,,40.676878000000002,-75.487172999999999,,
1769,4278,Main&9ths,,40.677014,-75.487427999999994,,
1771,4119,Main&raspberryn,,40.623103,-75.381882000000004,,
1773,5943,Main&canale,,40.753418000000003,-75.600847000000002,,
1774,5895,Main&canalw,,40.753382999999999,-75.601089999999999,,
1775,5942,Main&cherryne,,40.754883999999997,-75.598089999999999,,
1776,5894,Main&cherrysw,,40.754527000000003,-75.598490999999996,,
1778,6198,Main&chestnts,,40.583185,-75.341224999999994,,
1781,6195,Main&clarkesw,,40.588059000000001,-75.341104999999999,,
1782,5660,Main&clarkn,,40.588220999999997,-75.340823,,
1783,6199,Main&depots,,40.581755000000001,-75.341105999999996,,
1784,5656,Main&depotn,,40.582042000000001,-75.341023000000007,,
1785,6200,Main&eastons,,40.579808,-75.341026999999997,,
1786,5655,Main&eastonn,,40.580613999999997,-75.340913999999998,,
1787,5994,Main&ednasw,,40.682642999999999,-75.526670999999993,,
1788,6206,Main&polkvalleyrd,,40.567410000000002,-75.339851999999993,,
1789,5998,Main&frniciarisw,,40.685493000000001,-75.516667999999996,,
1790,4315,Main&greenn,,40.665425999999997,-75.480827000000005,,
1791,4272,Main&greens,,40.665790999999999,-75.480996000000005,,
1793,6193,Main&highsw,,40.590276000000003,-75.340208000000004,,
1794,5662,Main&highn,,40.590643,-75.339886000000007,,
1796,6191,Main&kiernans,,40.593117999999997,-75.340244999999996,,
1797,4324,Main&laubachw,,40.679620999999997,-75.489791999999994,,
1798,4325,Main&laubache,,40.679423,-75.489570999999998,,
1801,5659,Main&lindenn,,40.586494000000002,-75.341446000000005,,
1803,6203,Main&magnolias,,40.575451999999999,-75.340618000000006,,
1807,4653,Main&norths,,40.623834000000002,-75.382000000000005,,
1808,6201,Main&penns,,40.577565999999997,-75.340731000000005,,
1809,5653,Main&pennn,,40.577866,-75.340717999999995,,
1810,6204,Main&pinesw,,40.574379,-75.340756999999996,,
1811,5650,Main&pinen,,40.574185,-75.340637999999998,,
1815,5481,Main&ridgene,,40.871319999999997,-75.248828000000003,,
1817,6192,Main&roths,,40.591819000000001,-75.339985999999996,,
1820,6202,Main&saucns,,40.576310999999997,-75.340706999999995,,
1821,5652,Main&sauconn,,40.576591000000001,-75.340622999999994,,
1822,5648,Main&shopsnw,,40.567359000000003,-75.339635999999999,,
1823,5996,Main&sprucesw,,40.683638999999999,-75.522829999999999,,
1824,6197,Main&thomass,,40.584806999999998,-75.341329999999999,,
1825,5658,Main&thomasn,,40.585096,-75.341273000000001,,
1826,5465,Main&bushkilldrw,,40.742167000000002,-75.251214000000004,,
1827,5663,Main&wagnern,,40.591942000000003,-75.339956999999998,,
1829,6205,Main&walnutsw,,40.572684000000002,-75.341288000000006,,
1831,5649,Main&walnutn,,40.572341000000002,-75.341375999999997,,
1832,4320,Main&washingtonw,,40.673473999999999,-75.483013,,
1833,4276,Main&washngtons,,40.673323000000003,-75.483677,,
1834,5654,Main&watern,,40.579462999999997,-75.340722999999997,,
1838,5661,Main&wilsonn,,40.589623000000003,-75.340293000000003,,
1841,4794,Postal Rd & Post Office,,40.645083999999997,-75.434910000000002,,
1842,4727,Marcon&irvingw,,40.639446999999997,-75.448151999999993,,
1844,4728,Marcon&roblew,,40.638964999999999,-75.451582000000002,,
1845,5483,Market&11the,,40.867696000000002,-75.219459000000001,,
1846,5571,Market&11thw,,40.867807999999997,-75.219323000000003,,
1847,5491,Market&2nde,,40.866936000000003,-75.207595999999995,,
1848,5579,Market&2ndw,,40.867078999999997,-75.207751999999999,,
1851,5489,Market&4the,,40.867130000000003,-75.209783999999999,,
1852,5577,Market&4thw,,40.867213999999997,-75.210009999999997,,
1856,5575,Market&6thw,,40.867384000000001,-75.212294999999997,,
1857,5486,Market&1ste,,40.866925999999999,-75.206646000000006,,
1858,5574,Sullivan Trail & Oak Tree Rds,,40.786951999999999,-75.281475,,
1859,5485,Market&8the,,40.867471000000002,-75.216031000000001,,
1860,5573,Market&8thw,,40.867578999999999,-75.215636000000003,,
1861,5484,Sullivan Trail & Oak Tree Rdn,,40.786852000000003,-75.281403999999995,,
1865,4948,Mccart&burkes,,40.703861000000003,-75.208821,,
1866,5544,Mcfadn&a_tech,,40.728858000000002,-75.267031000000003,,
1867,5459,Mcfadn&newmlinsmill,,40.727280999999998,-75.266834000000003,,
1868,5987,Mcrthr&pty_cty,,40.644488000000003,-75.495045000000005,,
1869,4253,Mickley&americs,,40.637948000000002,-75.485804999999999,,
1870,4822,Jordn&mickleys,,40.621183000000002,-75.483338000000003,,
1872,4254,Mickley&mckleys,,40.641154999999998,-75.485061000000002,,
1873,4299,Mickley&mickleyn,,40.640749,-75.485301000000007,,
1874,4300,Mickley&orchardn,,40.641952000000003,-75.484271000000007,,
1875,4255,Mickley&orchrds,,40.641992999999999,-75.484351000000004,,
1876,4301,Mickley&schadtn,,40.643242999999998,-75.483541000000002,,
1877,4256,Mickley&schadts,,40.643116999999997,-75.483805000000004,,
1878,4298,Mickley&unionn,,40.638196999999998,-75.485701000000006,,
1879,5832,Mill&ambassadrnw,,40.589401000000002,-75.615519000000006,,
1880,5790,Mill&ambassadse,,40.589835000000001,-75.616028999999997,,
1881,5835,Mill&ambassadnw,,40.595388999999997,-75.619636,,
1882,5792,Mill&americldse,,40.593575000000001,-75.618691999999996,,
1883,5834,Mill&cherrydlnw,,40.593812,-75.618572999999998,,
1884,5833,Mill&danielsnw,,40.591729000000001,-75.617076999999995,,
1885,5791,Mill&danielsse,,40.591707,-75.617304000000004,,
1887,5125,Mohican&delwarnw,,40.609343000000003,-75.390705999999994,,
1888,5185,Nazareth&jewelse,,40.691561999999998,-75.259197,,
1889,5186,Nazareth&kathrnse,,40.690643000000001,-75.257731000000007,,
1890,5230,Nazrth&aichrnw,,40.690995999999998,-75.257902999999999,,
1891,5716,Nazrth&crestse,,40.699648000000003,-75.266531000000001,,
1893,5229,Nazrth&jewelnw,,40.692137000000002,-75.259602000000001,,
1894,5444,Nazrth&kingstnnw,,40.706614000000002,-75.275915999999995,,
1895,5443,Nazrth&kingstnse,,40.706574000000003,-75.276122999999998,,
1896,5187,Nazrth&lawnhrstse,,40.689999999999998,-75.256692000000001,,
1897,5231,Nazrth&lwnhrsnw,,40.689794999999997,-75.255996999999994,,
1898,5442,Nazrth&nrthwdnw,,40.709206999999999,-75.278924000000004,,
1900,5537,Nazrth&nwd_surse,,40.710433000000002,-75.280837000000005,,
1901,5535,Nazrth&nwdse,,40.711249000000002,-75.281634999999994,,
1902,5536,Nazrth&nwoodnw,,40.711443000000003,-75.281334999999999,,
1906,5446,Nazrth&van_burnw,,40.704124999999998,-75.272437999999994,,
1907,5445,Nazrth&van_burse,,40.703994000000002,-75.272521999999995,,
1908,5681,Drylandway&wegmansdrse,,40.713045000000001,-75.286247000000003,,
1909,4984,Nesq&centrew,,40.680300000000003,-75.221114,,
1910,5278,Nesq&st_johnw,,40.681555000000003,-75.210301000000001,,
1911,5769,Nestle&555_bldge,,40.574137,-75.636341000000002,,
1912,5816,Nestle&555_bldw,,40.574376000000001,-75.636510000000001,,
1913,5770,Nestle&cdce,,40.572633000000003,-75.646372999999997,,
1914,5817,Nestle&cdcw,,40.573711000000003,-75.640236999999999,,
1915,5768,Nestle&dscse,,40.572788000000003,-75.633032999999998,,
1917,5767,Nestle&oldts,,40.567590000000003,-75.631884999999997,,
1918,5815,Nestle&perriernw,,40.570413000000002,-75.631805999999997,,
1919,5163,New&3rdn,,40.611714999999997,-75.378468999999996,,
1920,4354,New&broadn,,40.622616000000001,-75.378321999999997,,
1921,5161,New&churchs,,40.617995000000001,-75.379855000000006,,
1922,4359,New&elizabethn,,40.630918000000001,-75.378096999999997,,
1923,4370,New&elizabethw,,40.630701000000002,-75.378209999999996,,
1924,4357,New&fairviewn,,40.627381999999997,-75.378161000000006,,
1925,4368,New&fairviews,,40.627797000000001,-75.378353000000004,,
1926,4356,New&geoppn,,40.625959000000002,-75.378247000000002,,
1927,4367,New&geopps,,40.626401000000001,-75.378309999999999,,
1928,4358,New&laureln,,40.628782000000001,-75.378118999999998,,
1929,4369,New&laurels,,40.628962000000001,-75.378336000000004,,
1930,5160,New&markets,,40.620638999999997,-75.378536999999994,,
1931,5208,New&marketn,,40.620516000000002,-75.378417999999996,,
1932,4365,New&norths,,40.623832,-75.378426000000005,,
1933,4355,New&unionn,,40.624656000000002,-75.378200000000007,,
1934,4366,New&unions,,40.625261999999999,-75.378438000000003,,
1935,4013,Nhamptn&kathryne,,40.685899999999997,-75.258572999999998,,
1936,5534,Nhamptn_cr&dryl,,40.713118999999999,-75.286190000000005,,
1938,5532,Nhamptn_cr&sear,,40.716189,-75.282667000000004,,
1939,1212,Nhampton&10the,,40.690496000000003,-75.222601999999995,,
1940,1211,Nhampton&11the,,40.690584000000001,-75.224592999999999,,
1941,1210,Nhampton&12the,,40.690499000000003,-75.22645,,
1942,1209,Nhampton&13the,,40.690319000000002,-75.228564000000006,,
1943,1208,Nhampton&14the,,40.690244999999997,-75.230258000000006,,
1944,1207,Nhampton&15the,,40.690075999999998,-75.232257000000004,,
1945,1206,Nhampton&16the,,40.689852999999999,-75.234219999999993,,
1947,1204,Nhampton&18the,,40.689599000000001,-75.236870999999994,,
1948,1203,Nhampton&19the,,40.689352,-75.239069000000001,,
1949,1217,Nhampton&22nde,,40.688935000000001,-75.245169000000004,,
1951,1215,Nhampton&5the,,40.691015999999998,-75.213168999999994,,
1952,1214,Nhampton&7the,,40.690750999999999,-75.218287000000004,,
1953,1213,Nhampton&9the,,40.690632000000001,-75.221266,,
1954,4011,Nhampton&cmuntyn,,40.686345000000003,-75.255881000000002,,
1955,4014,Nhampton&ferrye,,40.688512000000003,-75.247378999999995,,
1956,4012,Nhampton&kthrynw,,40.686044000000003,-75.258930000000007,,
1957,4015,Nhampton&philpw,,40.686489999999999,-75.255894999999995,,
1962,1195,Nthpn&10thw,,40.690697,-75.222390000000004,,
1963,1194,Nthpn&11thw,,40.690550000000002,-75.224113000000003,,
1964,1193,Nthpn&12thw,,40.690503999999997,-75.226006999999996,,
1965,1192,Nthpn&13thw,,40.690412999999999,-75.227998999999997,,
1966,1191,Nthpn&14thw,,40.690331,-75.229821000000001,,
1967,1190,Nthpn&15thw,,40.690244,-75.231731999999994,,
1968,1189,Nthpn&16thw,,40.690092,-75.233723999999995,,
1970,1187,Nthpn&18thw,,40.68974,-75.236671999999999,,
1971,1186,Nthpn&19thw,,40.689484999999998,-75.238973000000001,,
1974,1199,Nthpn&5thw,,40.691096999999999,-75.213171000000003,,
1975,1198,Nthpn&6thw,,40.690981999999998,-75.214886000000007,,
1976,1197,Nthpn&7thw,,40.690904000000003,-75.217991999999995,,
1977,1196,Nthpn&9thw,,40.690738000000003,-75.220864000000006,,
1980,4482,Ofice_rd&walbertw,,40.615192,-75.529858000000004,,
1981,5356,Sullivan&rensselaern,,40.719664000000002,-75.223117000000002,,
1982,4939,Old_mil&margldw,,40.710298999999999,-75.223724000000004,,
1983,6166,Dollargeneral@forksplaza,,40.711796999999997,-75.219892999999999,,
1984,5682,Old_naz&swnsns,,40.697887000000001,-75.265601000000004,,
1985,5267,Philadelphia&seitzw,,40.674883000000001,-75.214608999999996,,
1986,5331,Old_ph&williame,,40.674979,-75.214436000000006,,
1989,5129,Ostrum&bshpthpsw,,40.607128000000003,-75.394103000000001,,
1991,5130,Ostrum&tomblersw,,40.606541999999997,-75.394602000000006,,
1992,4818,Overlk&corinthe,,40.620552000000004,-75.491898000000006,,
1993,4866,Overlk&corinthw,,40.620643000000001,-75.491904000000005,,
1994,4820,Overlk&foreste,,40.619808999999997,-75.488159999999993,,
1995,4868,Overlk&forestw,,40.619838999999999,-75.487801000000005,,
1996,4819,Overlk&marathone,,40.620133000000003,-75.489686000000006,,
1997,4821,Overlk&mickleyn,,40.621296000000001,-75.484988999999999,,
1998,4869,Overlk&mickleys,,40.621450000000003,-75.485034999999996,,
1999,4867,Overlk&olympicw,,40.620156000000001,-75.488981999999993,,
2002,5320,Packer&berwickn,,40.677549999999997,-75.228489999999994,,
2003,5321,Packer&lincolns,,40.676521999999999,-75.228322000000006,,
2004,5322,Packer&willmss,,40.673729000000002,-75.227906000000004,,
2006,5024,Pembrk&clrfelde,,40.629418999999999,-75.344451000000007,,
2007,5015,Pembrk&bethlehemdre,,40.628844000000001,-75.354664,,
2008,5016,Pembrk&fritzw,,40.628901999999997,-75.354326999999998,,
2009,5023,Pembrk&garfeldw,,40.629426000000002,-75.346384999999998,,
2010,5022,Pembrk&garfielde,,40.629285000000003,-75.347082,,
2011,5014,Pembrk&jeninge,,40.628619999999998,-75.357767999999993,,
2012,5025,Pembrk&lvngstnw,,40.629536999999999,-75.344223999999997,,
2013,5020,Pembrk&rosevlte,,40.629271000000003,-75.348333999999994,,
2014,5021,Pembrk&rosevltw,,40.629282000000003,-75.348184000000003,,
2015,5018,Pembroke & Win Drivee,,40.629015000000003,-75.352228999999994,,
2017,5642,Pembrke&elmne,,40.626334,-75.367097000000001,,
2019,5640,Pembrke&frnwdne,,40.627595999999997,-75.363342000000003,,
2020,5152,Pembrke&mnsi_tre,,40.628380999999997,-75.360898000000006,,
2021,5639,Pembrke&mnsiw,,40.628411,-75.361249000000001,,
2022,5641,Pembrke&woodne,,40.627321000000002,-75.364465999999993,,
2023,5155,Pembroke&elmne,,40.626699000000002,-75.366209999999995,,
2024,5154,Pembroke&woodne,,40.627279000000001,-75.364535000000004,,
2025,5784,Penn&7346_bldge,,40.578972,-75.613800999999995,,
2027,5782,Penn&basfe,,40.579839999999997,-75.609339000000006,,
2028,5828,Industrial&rt100w,,40.566388000000003,-75.611795999999998,,
2029,5785,Penn&keeblrw,,40.578631999999999,-75.617369999999994,,
2030,5786,Penn&rt_100w,,40.575901999999999,-75.619449000000003,,
2031,5783,Penn&williame,,40.579402000000002,-75.611948999999996,,
2033,5623,Penna&1sts,,40.869205000000001,-75.207104000000001,,
2034,4092,Main&rt_145s,,40.756594,-75.595370000000003,,
2035,4093,15th&walnuts,,40.596350000000001,-75.487397000000001,,
2036,4094,Ccpp@1245bldgs,,40.567062,-75.516413999999997,,
2037,4096,Union&15the,,40.595101999999997,-75.486958999999999,,
2038,4097,Ccpp@1245bldgn,,40.567238000000003,-75.516282000000004,,
2040,4099,6th&sumnern,,40.617569000000003,-75.477074999999999,,
2041,5622,Penna&4the,,40.869079999999997,-75.210116999999997,,
2042,5477,Penna&bne,,40.867744999999999,-75.258508000000006,,
2043,5564,Penna&bsw,,40.867918000000003,-75.257872000000006,,
2044,5476,Penna&cne,,40.867348,-75.259636999999998,,
2045,5563,Penna&csw,,40.867469999999997,-75.259546999999998,,
2046,5475,Penna&ene,,40.866472000000002,-75.263064,,
2048,5478,Penna&lobbne,,40.868155000000002,-75.257036999999997,,
2049,5565,Penna&lobbsw,,40.868302,-75.256286000000003,,
2053,5888,Pike&rockn,,40.561703999999999,-75.448187000000004,,
2054,5933,Pike&rocks,,40.562604,-75.448971999999998,,
2055,4305,Pine&1stn,,40.650689,-75.480028000000004,,
2057,4304,Pine&2ndn,,40.649256999999999,-75.480422000000004,,
2058,4306,Pine&2nd_2n,,40.655206999999997,-75.474405000000004,,
2059,4259,Pine&2nds,,40.649287999999999,-75.480463999999998,,
2060,4263,Pine&2nds_2,,40.655234999999998,-75.474603000000002,,
2061,4303,Pine&3rdn,,40.647823000000002,-75.480732000000003,,
2062,4307,Pine&3rd_2n,,40.656092999999998,-75.473438999999999,,
2063,4258,Pine&3rds,,40.647964000000002,-75.480742000000006,,
2064,4264,Pine&3rds_2,,40.656095999999998,-75.473484999999997,,
2065,4302,Pine&4thn,,40.646374000000002,-75.481347,,
2067,4257,Pine&4ths,,40.646569999999997,-75.481470000000002,,
2068,5925,Pkwy&27thne,,40.592955000000003,-75.514672000000004,,
2070,5924,Pkwy&28thne,,40.592151999999999,-75.516082999999995,,
2071,5877,Pkwy&28thw,,40.592419,-75.515949000000006,,
2072,5923,Pkwy&29thne,,40.591056000000002,-75.518393000000003,,
2073,5876,Pkwy&29thw,,40.591306000000003,-75.517971000000003,,
2074,5875,Pkwy&30thw,,40.590665000000001,-75.520098000000004,,
2075,5921,Pkwy&31stne,,40.589773999999998,-75.522508000000002,,
2076,5874,Pkwy&31stw,,40.589871000000002,-75.522431999999995,,
2077,5922,Pkwy&3othne,,40.590592999999998,-75.519839000000005,,
2078,5920,Pkwy&cdr_crstne,,40.589091000000003,-75.525873000000004,,
2079,5873,Pkwy&cdr_crstw,,40.589215000000003,-75.525801999999999,,
2081,1326,Pnd&spng_pro_ctn,,40.611981,-75.538670999999994,,
2084,1327,Pond&walbertn,,40.614254000000003,-75.538847000000004,,
2085,6066,Postal&fedexne,,40.642792,-75.448751999999999,,
2086,6065,Postal&fedexsw,,40.642892000000003,-75.448808999999997,,
2087,4790,Postal&hangare,,40.644029000000003,-75.446171000000007,,
2088,4725,Postal&hangarw,,40.644080000000002,-75.446310999999994,,
2089,4788,Postal&marcone,,40.645288999999998,-75.438957000000002,,
2090,4787,Postal&marconw,,40.645434999999999,-75.439248000000006,,
2091,4786,Postal&post_offw,,40.645184,-75.434910000000002,,
2092,4789,Postal&surefite,,40.644762999999998,-75.443613999999997,,
2094,6157,Pres&crnrstnse,,40.634605999999998,-75.491892000000007,,
2095,4876,Pres&eisenhwre,,40.635078,-75.495318999999995,,
2096,4874,Pres&hoovere,,40.635553999999999,-75.500480999999994,,
2097,4827,Pres&johnsonw,,40.635288000000003,-75.496797999999998,,
2099,6169,Pres&mickleye,,40.634416999999999,-75.489581999999999,,
2100,6156,Pres&mickleyse,,40.634433000000001,-75.489569000000003,,
2102,4873,Pres&peache,,40.635348999999998,-75.497609999999995,,
2104,4872,Pres&whithalle,,40.634762000000002,-75.493004999999997,,
2105,6211,Promenade&carmike,,40.561205000000001,-75.409739000000002,,
2112,6125,Race&14thne,,40.653345000000002,-75.457145999999995,,
2113,6106,Race&15thne,,40.653672,-75.456176999999997,,
2114,6126,Race&15thne,,40.653717,-75.456130999999999,,
2116,6109,Race&airgasne,,40.660829,-75.438573000000005,,
2117,6110,Race&cascadene,,40.661138000000001,-75.436001000000005,,
2118,6130,Race&cascadesw,,40.660989999999998,-75.438281000000003,,
2119,6108,Race&fashionne,,40.659312,-75.443495999999996,,
2120,6128,Race&fashionsw,,40.659574999999997,-75.443095999999997,,
2121,6091,Race&frontne,,40.648851999999998,-75.468273999999994,,
2123,6129,Race&uncl_frtsw,,40.660786999999999,-75.439605999999998,,
2124,6107,Race&willwburone,,40.658335000000001,-75.445588000000001,,
2125,6127,Race&wlw_brksw,,40.658425000000001,-75.445690999999997,,
2126,5814,Rt_873&oak_drs,,40.720514000000001,-75.621284000000003,,
2129,5610,Roseto&colmbn,,40.881397999999997,-75.213876999999997,,
