stop_id,stop_code,stop_name,stop_desc,stop_lat,stop_lon,zone_id,stop_url,location_type,parent_station,stop_timezone,wheelchair_boarding
30,4172,South Mall,,40.555284,-75.491539,,,,,,
1635,1360,Lehigh at 33rd NB,,40.5563180757091,-75.4890417987766,,,,,,
147,1361,Lehigh at 31st NB,,40.559269,-75.487496,,,,,,
1631,1362,Lehigh at 29th NB,,40.561098,-75.486524,,,,,,
2762,6298,Lehigh at 24th NB,,40.569974,-75.481875,,,,,,
1652,1363,Lehigh at Downyflake NB,,40.571565,-75.481049,,,,,,
1663,1364,Lehigh at Vultee NB,,40.575523,-75.480684,,,,,,
1623,1376,Lehigh at 12th NB - Allentown,,40.582083,-75.477605,,,,,,
1656,1375,Lehigh at Juniata NB,,40.585491,-75.475427,,,,,,
2689,60000,Allentown Garage,,40.586887,-75.477112,,,,,,
4,1000,ATC - Allentown Transportation Center,,40.604592,-75.471727,,,,,,
28,1003,LVM - Lehigh Valley Mall Transit Center,,40.631277,-75.47857573,,,,,,
1398,4753,Grape at Jordon EB,,40.634325,-75.477983,,,,,,
1396,4749,Grape at 6th EB,,40.635357,-75.474352,,,,,,
1392,4751,Grape at 5th,,40.635743,-75.473166,,,,,,
1390,4752,Grape at 3rd,,40.636232,-75.471102,,,,,,
375,6050,3rd at Catasauqua,,40.637129,-75.470859,,,,,,
382,6051,3rd at Jefferson NB,,40.638283,-75.471391,,,,,,
370,6052,3rd at American NB,,40.639859,-75.472175,,,,,,
401,6053,3rd at Union NB,,40.641148,-75.472811,,,,,,
390,6054,3rd at Orchard NB,,40.642708,-75.473625,,,,,,
293,6055,1st at Bridge,,40.645575,-75.474388,,,,,,
682,6056,Bridge at Columbia,,40.646088,-75.473117,,,,,,
685,6057,Bridge at Lehigh,,40.646518,-75.471035,,,,,,
2918,3186,Race at Front NB,,40.648798,-75.468229,,,,,,
2928,3196,Race at Pineapple NB,,40.649963,-75.466332,,,,,,
2930,3198,Race at 10th EB,,40.651036,-75.46368,,,,,,
2932,3200,Race at 11th EB,,40.652057,-75.460783,,,,,,
2934,3202,Race at 13th,,40.652922,-75.458311,,,,,,
2113,6106,Race at 15th NB,,40.653661,-75.456204,,,,,,
3014,6948,Fed Ex Willowbrook,,40.66935279,-75.45183301,,,,,,
3101,6949,Willowbrook at GEODIS,,40.66762,-75.456566,,,,,,
2119,6108,Race at Fashion EB,,40.659312,-75.443496,,,,,,
2116,6109,1701 Race,,40.660829,-75.438573,,,,,,
2853,3137,Schoenersville at Grove SB,,40.659886,-75.420877,,,,,,
2938,3206,Stoke Park at High Point EB,,40.658102,-75.416158,,,,,,
2940,3208,Stoke Park at Jacksonville EB,,40.659849,-75.397323,,,,,,
2942,3210,330 Stoke Park EB,,40.66073,-75.38941,,,,,,
2944,3212,Stoke Park at Wegmans NB,,40.665053,-75.387104,,,,,,
1548,5414,Highland at Adler EB,,40.667899,-75.382279,,,,,,
1550,5415,Highland at Burgess EB,,40.668228,-75.379329,,,,,,
1004,5416,Courtney at Highland NB,,40.669412,-75.375574,,,,,,
1002,5417,Commerce at Courtney WB,,40.673103,-75.377162,,,,,,
210,5418,Commerce at Brodhead NB,,40.673675,-75.382363,,,,,,
801,5419,Brodhead at Schelden EB,,40.676777,-75.377728,,,,,,
798,5422,Brodhead at Township Line EB,,40.677689,-75.371464,,,,,,
794,5424,Brodhead at Mowrere EB,,40.67861,-75.363602,,,,,,
796,5426,Brodhead at Opus EB,,40.679956,-75.352208,,,,,,
790,5429,Brodhead at Fritch EB,,40.680801,-75.344865,,,,,,
12,5055,Bethlehem Square,,40.674842,-75.342428,,,,,,
19,5127,Ostrum at Mohican,,40.609516,-75.391861,,,,,,
1989,5129,Ostrum at Bishopthorpe,,40.607089,-75.394151,,,,,,
1991,5130,Ostrum at Tombler,,40.606468,-75.394712,,,,,,
2423,5131,Tombler at Delaware,,40.605851,-75.393845,,,,,,
3123,5137,Delaware at Bishopthorpe NB,,40.606497,-75.392955,,,,,,
3122,5134,Delaware at Fiot NB,,40.607635,-75.391875,,,,,,
3124,5139,Delaware at Dakotah NB,,40.610392,-75.389414,,,,,,
3108,4580,3rd at 4th EB,,40.611258,-75.387479,,,,,,
3110,4582,4th at Wyandotte EB,,40.610216,-75.384796,,,,,,
3112,4586,4th at Broadway EB,,40.610286,-75.383051,,,,,,
786,5645,Brodhead at 4th,,40.610551,-75.381478,,,,,,
989,5209,Church at New,,40.618783,-75.378205,,,,,,
1931,5208,New at Walnut NB,,40.621439,-75.378398,,,,,,
1920,4354,New at Raspberry,,40.62284893,-75.37834236,,,,,,
9,1001,BTC - Bethlehem Transportation Center,,40.623094,-75.380611,,,,,,
736,1163,Broad at New EB,,40.6222060679811,-75.3785782281723,,,,,,
1933,4355,New at Union NB,,40.624825,-75.378259,,,,,,
1926,4356,New at Goepp NB,,40.626056,-75.378203,,,,,,
1366,5102,Goepp at Center EB,,40.626103,-75.375426,,,,,,
1368,5103,Goepp at High EB,,40.626067,-75.373301,,,,,,
1370,5104,Goepp at Linden EB,,40.626019,-75.370648,,,,,,
1372,5105,Goepp at Maple,,40.625995,-75.368951,,,,,,
2023,5155,Pembroke at Elm EB,,40.626342,-75.366933,,,,,,
2024,5154,Pembroke at Wood EB,,40.627247,-75.364366,,,,,,
2020,5152,Pembroke at Minsi Trail EB,,40.628316,-75.361192,,,,,,
2297,5085,Stefko at Washington NB,,40.629391,-75.357759,,,,,,
2286,5086,Stefko at Radclyffe NB,,40.631147,-75.355544,,,,,,
2294,5087,Stefko at Walters NB,,40.631954,-75.354514,,,,,,
2276,5088,Stefko at Crawford,,40.633167,-75.352972,,,,,,
207,6239,Stefko at Hilton NB,,40.633981,-75.351942,,,,,,
2273,5090,Stefko at Bayard NB,,40.635378,-75.350523,,,,,,
2281,5092,Stefko at Gresham NB,,40.638301,-75.348711,,,,,,
2283,5093,Stefko at Irene,,40.639768,-75.347839,,,,,,
2292,5094,Stefko at Stanhope NB,,40.641121,-75.347016,,,,,,
2277,5095,Stefko at Glenmere,,40.642013,-75.346479,,,,,,
2280,5096,Stefko at Glenwood NB,,40.643262,-75.345727,,,,,,
1086,1476,Easton at Stefko WB,,40.644875,-75.345444,,,,,,
1053,5082,East at Easton NB,,40.644031,-75.348625,,,,,,
1051,5071,East at Lewis NB,,40.646131,-75.349517,,,,,,
1066,5068,East at Spring Garden NB,,40.647424,-75.349692,,,,,,
1060,5074,East at North NB,,40.648625,-75.349873,,,,,,
1068,5076,East at Lansdale NB,,40.650001,-75.350082,,,,,,
204,5070,East at Butztown NB,,40.653168,-75.348586,,,,,,
1056,5066,East at Hasting,,40.656157,-75.349023,,,,,,
1058,5064,East at Johnston NB,,40.657633,-75.349161,,,,,,
1049,5062,East at Barrett NB,,40.659782,-75.349503,,,,,,
1052,5060,East at Chester NB,,40.661891,-75.349598,,,,,,
1064,5058,East at Linden WB,,40.664123,-75.350933,,,,,,
1698,5101,Linden at Falcon NB,,40.666011,-75.350038,,,,,,
1700,5114,Linden at Oakland,,40.668546,-75.348457,,,,,,
1697,5100,Nazareth Pike at Christian Spring,,40.671215,-75.346761,,,,,,
309,4088,3859 Nazareth Pike NB,,40.674091,-75.345045,,,,,,
2912,3180,Cumberland at Ellsworth,,40.592475,-75.44286,,,,,,
2915,3183,Cumberland at Dauphin,,40.592691,-75.444849,,,,,,
2916,3184,Cumberland at Carlisle,,40.592198,-75.446877,,,,,,
2313,4499,Susquehanna at Bradford WB,,40.591019,-75.448771,,,,,,
2311,4498,Susquehanna at Albert WB,,40.590889,-75.450637,,,,,,
2329,4497,Susquehanna at Front WB,,40.590753,-75.452597,,,,,,
2307,4496,Susquehanna at 2nd WB,,40.590537,-75.455618,,,,,,
2337,4495,Susquehanna at Race WB,,40.590366,-75.457752,,,,,,
61,4202,5th at Wyoming NB,,40.592802,-75.463233,,,,,,
486,4203,5th at Harrison,,40.594874,-75.464266,,,,,,
2777,6376,Lehigh at MLK NB,,40.598061,-75.467634,,,,,,
500,4026,6th at Walnut,,40.601264,-75.468969,,,,,,
1695,4109,Linden at 8th,,40.603223,-75.474154,,,,,,
549,4285,8th at Turner,,40.604399,-75.474842,,,,,,
521,4394,8th at Chew,,40.605851,-75.475484,,,,,,
528,4395,8th at Gordon,,40.607237,-75.476128,,,,,,
534,4396,8th at Liberty,,40.608529,-75.476757,,,,,,
132,4121,Allen at 8th WB,,40.609875,-75.478109,,,,,,
584,4122,Allen at 9th WB,,40.609551,-75.479289,,,,,,
570,4123,Allen at 10th WB,,40.608911,-75.481633,,,,,,
572,4124,Allen at 11th WB,,40.608363,-75.483675,,,,,,
574,4125,Allen at 12th WB,,40.607846,-75.48556,,,,,,
176,4126,Allen at 13th WB,,40.607272,-75.487643,,,,,,
576,4127,Allen at 14th WB,,40.606721,-75.489648,,,,,,
578,4128,Allen at 15th WB,,40.606131,-75.491778,,,,,,
580,4129,Allen at 16th,,40.605528,-75.493974,,,,,,
62,4130,Liberty at 16th WB,,40.604031,-75.494138,,,,,,
1672,4131,Liberty at 17th WB,,40.603708,-75.495315,,,,,,
1674,4398,Liberty at 18th WB,,40.603126,-75.497425,,,,,,
1676,4399,Liberty at 19th,,40.602575,-75.499434,,,,,,
276,4400,19th at Allen NB,,40.603631,-75.500247,,,,,,
288,4401,19th at Tilghman NB,,40.604877,-75.500841,,,,,,
290,4402,19th at Washington NB,,40.606556,-75.501633,,,,,,
280,4403,19th at Greenleaf NB,,40.608229,-75.502408,,,,,,
286,4404,19th at Livingston NB,,40.609755,-75.503148,,,,,,
283,4405,19th at Highland NB,,40.611336,-75.503894,,,,,,
227,4406,19th at Pennsylvania NB,,40.612894,-75.504638,,,,,,
278,4407,19th at Fairmont NB,,40.614582,-75.505439,,,,,,
2527,4408,Walbert at 19th WB,,40.616269,-75.506549,,,,,,
2542,4409,Walbert at Columbia,,40.616837,-75.507753,,,,,,
2529,4410,Walbert at 21st WB,,40.617066,-75.511243,,,,,,
2531,4411,Walbert at 22nd,,40.617111,-75.513801,,,,,,
2545,4412,Walbert at Whitehall WB,,40.61713,-75.515257,,,,,,
2533,4431,Walbert at 24th WB,,40.616891,-75.518471,,,,,,
2535,4432,Walbert at 25th WB,,40.616698,-75.520881,,,,,,
2537,4433,Walbert at 26th WB,,40.61654,-75.522757,,,,,,
2539,4434,Walbert at 27th WB,,40.616381,-75.524878,,,,,,
339,4435,Walbert at 28th WB,,40.616207,-75.527424,,,,,,
2907,3175,Walbert at Cedar Crest WB,,40.615629,-75.533833,,,,,,
2925,3193,Walbert at Pond WB,,40.614741,-75.538949,,,,,,
2905,3173,Walbert at Ridgeview WB,,40.611542,-75.562235,,,,,,
2170,5979,Walbert at 309 WB,,40.611441,-75.568804,,,,,,
2142,5978,Rt 309 at Chapmans WB,,40.612664,-75.571629,,,,,,
2152,5977,Rt 309 at Huckleberry NB,,40.620188,-75.580582,,,,,,
96,5976,Rt 309 at Lime Kiln NB,,40.628998,-75.582354,,,,,,
2153,5975,Rt 309 at Kernsville NB,,40.634817,-75.584567,,,,,,
2172,5974,Rt 309 at Wolfs Crossing NB,,40.641138,-75.588726,,,,,,
2144,5973,Rt 309 at Boxwood NB,,40.644308,-75.591583,,,,,,
2165,5972,Rt 309 at Shankweiler NB,,40.645931,-75.593296,,,,,,
2147,5971,Rt 309 at View NB,,40.648032,-75.595353,,,,,,
2150,5970,Rt 309 at Golden NB,,40.650281,-75.597803,,,,,,
2155,5969,Rt 309 at Levans NB,,40.654716,-75.599895,,,,,,
2160,5968,Rt 309 at Pennsylvania NB,,40.65762,-75.601001,,,,,,
2163,5967,Rt 309 at Ritter NB,,40.659331,-75.601714,,,,,,
2985,3253,Rt 309 at Elberta NB,,40.663585,-75.604361,,,,,,
97,5966,LCCC Main Entrance,,40.663875,-75.609963,,,,,,
958,1282,Chew at 7th,,40.606551,-75.473547,,,,,,
959,1283,Chew at 8th,,40.606011,-75.475507,,,,,,
960,1284,Chew at 9th,,40.605502,-75.477343,,,,,,
943,1285,Chew at 10th,,40.604746,-75.480104,,,,,,
944,1286,Chew at 11th,,40.604288,-75.481779,,,,,,
945,1287,Chew at 12th,,40.603771,-75.483621,,,,,,
946,1288,Chew at 13th,,40.603203,-75.485682,,,,,,
947,1289,Chew at 14th,,40.602626,-75.487784,,,,,,
948,1290,Chew at 15th,,40.602041,-75.489959,,,,,,
949,1291,Chew at 16th,,40.601456,-75.492026,,,,,,
950,1292,Chew at 17th WB,,40.600921,-75.493974,,,,,,
951,1293,Chew at 18th WB,,40.600195,-75.496601,,,,,,
952,1294,Chew at 19th WB,,40.599665,-75.498516,,,,,,
954,1296,Chew at 22nd WB,,40.598013,-75.504327,,,,,,
3031,6965,Chew at Circle WB,,40.596812,-75.508864,,,,,,
1702,5879,Ott at Parkway SB,,40.593881,-75.513591,,,,,,
2071,5877,Parkway at 28th WB,,40.592265,-75.516189,,,,,,
2073,5876,Parkway at 29th WB,,40.591281,-75.518091,,,,,,
2074,5875,Parkway at 30th WB,,40.590661,-75.520127,,,,,,
2076,5874,Parkway at 31st WB,,40.589836,-75.522407,,,,,,
2079,5873,Broadway at Cedar Crest WB,,40.589265,-75.525735,,,,,,
750,5871,Broadway at 37th WB,,40.585082,-75.534124,,,,,,
752,5870,Broadway at 38th WB,,40.584351,-75.536839,,,,,,
106,5869,Broadway at 39th WB,,40.583854,-75.538621,,,,,,
757,5866,Broadway at 41st WB,,40.583875,-75.543076,,,,,,
759,5865,Broadway at 42nd WB,,40.585145,-75.546548,,,,,,
771,5864,Broadway at Chew WB,,40.585901,-75.548673,,,,,,
3012,6946,St Luke's West End WB,,40.585764,-75.555991,,,,,,
3105,6916,Tilghman at Towne Center,,40.589332,-75.559213,,,,,,
2399,1251,Tilghman at Westfield WB,,40.589888,-75.563149,,,,,,
2389,1250,5100 Tilghman WB,,40.590791,-75.566901,,,,,,
2393,1249,5151 Tilghman WB,,40.591314,-75.569045,,,,,,
2394,1248,Tilghman at Werley WB,,40.593168,-75.576383,,,,,,
2386,1246,Tilghman at Blue Barn WB,,40.591964,-75.589835,,,,,,
2397,1244,Tilghman at Ruppsville WB,,40.589277,-75.603746,,,,,,
109,5843,Windsor at Tilghman SB,,40.586248,-75.613824,,,,,,
2772,6369,7200 Windsor SB,,40.584277,-75.613115,,,,,,
2600,5844,7350 Windsor WB,,40.583668,-75.616752,,,,,,
2604,5845,7450 Windsor WB,,40.583276,-75.618731,,,,,,
2602,5846,7540 Windsor WB,,40.582933,-75.620749,,,,,,
2606,5847,Windsor at Imperial NB,,40.583937,-75.62304575,,,,,,
2345,5765,Sycamore at Adrienne,,40.576291,-75.622611,,,,,,
111,5766,Sycamore at Penn,,40.575285,-75.621781,,,,,,
1917,5767,Nestle at Oldt,,40.567341,-75.631801,,,,,,
2751,5818,405 Nestle Way NB,,40.572265,-75.632421,,,,,,
2897,3156,7880 Nestle Way Entrance,,40.573991,-75.633707,,,,,,
1912,5816,700 Nestle Way WB,,40.573077,-75.643281,,,,,,
1914,5817,861 Nestle Way WB,,40.571592,-75.649693,,,,,,
112,6220,860 Nestle Way EB,,40.571032,-75.651161,,,,,,
1913,5770,861 Nestle Way EB,,40.572638,-75.646368,,,,,,
1911,5769,700 Nestle Way EB,,40.572927,-75.643256,,,,,,
1915,5768,405 Nestle Way SB,,40.572703,-75.632973,,,,,,
1918,5815,Nestle at T478,,40.570409,-75.631908,,,,,,
1406,5819,150 Boulder,,40.569368,-75.621881,,,,,,
1564,5774,400 Boulder,,40.562395,-75.622352,,,,,,
2712,8000,650 Boulder,,40.557441,-75.619026,,,,,,
76,5440,Northampton Crossings - Walmart,,40.715209,-75.282111,,,,,,
1938,5532,3750 Northampton Crossing,,40.716302,-75.282421,,,,,,
1908,5681,Dryland at Wegmans,,40.713043,-75.286255,,,,,,
3149,6612,Newburg at Northwood SB,,40.703806,-75.28811,,,,,,
3150,6613,LVHN Hecktown Oaks SB,,40.69684,-75.280765,,,,,,
3152,6615,Hecktown at Phillips EB,,40.695635,-75.278687,,,,,,
3154,6617,Hecktown at Fischer EB,,40.695881,-75.275219,,,,,,
3155,6618,Fischer at Eldridge EB,,40.694641,-75.270797,,,,,,
3142,6476,Seip at Old Nazareth EB,,40.694516,-75.263711,,,,,,
73,1004,Palmer Park Mall,,40.696339,-75.258976,,,,,,
1888,5185,Nazareth at Jewel SB,,40.691579,-75.259227,,,,,,
1889,5186,Nazareth at Kathryn SB,,40.690663,-75.257769,,,,,,
1896,5187,Nazareth at Lawnherst SB,,40.689955,-75.256639,,,,,,
3023,6957,Nazareth at Sales,,40.687495,-75.253048,,,,,,
3166,6629,25th at Easton Area HS SB,,40.684065,-75.250035,,,,,,
842,1411,Butler at 25th EB,,40.682008,-75.247649,,,,,,
836,5390,Butler at 22nd EB,,40.683413,-75.24411,,,,,,
3157,6620,Butler at 21st EB,,40.684147,-75.241149,,,,,,
3159,6622,Butler at 18th EB,,40.684786,-75.236822,,,,,,
216,5314,17th at Washington,,40.686012,-75.235132,,,,,,
79,6240,17th at Lehigh,,40.686741,-75.235231,,,,,,
1629,4043,Lehigh at 16th,,40.687032,-75.233766,,,,,,
2823,4042,Lehigh at 15th,,40.687125,-75.231851,,,,,,
1627,4045,Lehigh at 14th,,40.687206,-75.229984,,,,,,
1628,4044,Lehigh at 13th,,40.687301,-75.228088,,,,,,
1624,4047,Lehigh at 12th - Easton,,40.687391,-75.226185,,,,,,
1626,4046,Lehigh at 11th,,40.687484,-75.224267,,,,,,
1621,4049,Lehigh at 10th,,40.687569,-75.222381,,,,,,
1646,4050,Lehigh at 9th - Easton,,40.687641,-75.220904,,,,,,
2552,5316,Walnut at 7th EB - Easton,,40.688305,-75.218186,,,,,,
2559,5317,Walnut at Ferry NB,,40.689237,-75.216768,,,,,,
2550,5318,Walnut at 6th EB,,40.690696,-75.214569,,,,,,
2952,3220,Northampton at 5th EB,,40.690965,-75.213203,,,,,,
2872,3000,EITC - Easton Intermodal Transit Center,,40.688964,-75.209638,,,,,,
113,5821,8014 Industrial Blvd,,40.562486,-75.620106,,,,,,
1563,5822,8001 Industrial EB,,40.563561,-75.617415,,,,,,
2028,5828,Industrial at Rt 100,,40.566358,-75.611812,,,,,,
1571,5823,Industrial at Morris,,40.568625,-75.610146,,,,,,
1568,5824,7350 Industrial EB 2,,40.570907,-75.609768,,,,,,
1569,5825,7350 Industrial EB,,40.572811,-75.609519,,,,,,
1573,5826,2248 Industrial,,40.575235,-75.609234,,,,,,
114,5827,Olin at Penn,,40.579496,-75.608243,,,,,,
2031,5783,Penn at William,,40.579579,-75.611153,,,,,,
2025,5784,7346 Penn,,40.579091,-75.613776,,,,,,
2029,5785,Penn at Keebler,,40.578591,-75.617365,,,,,,
2030,5786,Penn at Star,,40.575926,-75.619457,,,,,,
1560,5848,Imperial at Windsor,,40.583911,-75.623471,,,,,,
2603,5857,7540 Windsor EB,,40.582928,-75.621753,,,,,,
2605,5856,7450 Windsor EB,,40.583095,-75.618977,,,,,,
2601,5855,7350 Windsor EB,,40.583412,-75.617401,,,,,,
2230,5853,7200 Windsor NB,,40.584711,-75.613084,,,,,,
189,5854,Windsor at Tilghman NB,,40.586359,-75.613692,,,,,,
2396,1239,Tilghman at Ruppsville EB,,40.589139,-75.603311,,,,,,
2385,1241,Tilghman at Blue Barn EB,,40.591739,-75.589723,,,,,,
2359,1242,Tilghman at Werley EB,,40.592904,-75.576909,,,,,,
2392,1252,5151 Tilghman EB,,40.591253,-75.569597,,,,,,
2388,1253,5100 Tilghman EB,,40.590771,-75.567655,,,,,,
2398,1254,Tilghman at Westfield EB,,40.589962,-75.564256,,,,,,
3059,6993,Broadway at Tilghman,,40.588786,-75.559608,,,,,,
777,5909,Broadway at Parkway,,40.586315,-75.550469,,,,,,
770,5910,Broadway at Chew EB,,40.585793,-75.548843,,,,,,
758,5911,Broadway at 42nd EB,,40.585117,-75.546943,,,,,,
766,5912,Broadway at Cedarbrook EB,,40.584329,-75.544725,,,,,,
756,5913,Broadway at 41st EB,,40.583837,-75.543279,,,,,,
187,5916,Broadway at 39th EB,,40.583741,-75.538452,,,,,,
751,5917,Broadway at 38th EB,,40.584261,-75.536586,,,,,,
749,5918,Broadway at 37th EB,,40.584864,-75.534349,,,,,,
2078,5920,Broadway at Cedar Crest EB,,40.589026,-75.525863,,,,,,
2075,5921,Parkway at 31st EB,,40.589675,-75.522517,,,,,,
2077,5922,Parkway at 30th EB,,40.590581,-75.519764,,,,,,
2072,5923,Parkway at 29th EB,,40.591068,-75.518307,,,,,,
2070,5924,Parkway at 28th EB,,40.592176,-75.516042,,,,,,
2068,5925,Ott at Parkway NB,,40.594221,-75.513592,,,,,,
3030,6964,Chew at Circle EB,,40.596312,-75.510274,,,,,,
3036,6970,Chew at 22nd EB,,40.597819,-75.504805,,,,,,
2435,1309,Turner at 22nd,,40.596662,-75.503267,,,,,,
2434,1310,Turner at 20th,,40.597726,-75.499409,,,,,,
2433,1311,Turner at 19th,,40.598136,-75.497929,,,,,,
2432,1312,Turner at 18th,,40.598714,-75.495808,,,,,,
2431,1313,Turner at 17th,,40.599297,-75.493691,,,,,,
2430,1299,Turner at 16th,,40.599868,-75.491574,,,,,,
2429,1300,Turner at 15th,,40.600454,-75.489491,,,,,,
2428,1301,Turner at 14th,,40.601029,-75.48741,,,,,,
2439,1302,Turner at 13th,,40.601622,-75.485273,,,,,,
2427,1303,Turner at 12th,,40.602197,-75.483167,,,,,,
2426,1304,Turner at 11th,,40.602711,-75.481336,,,,,,
2425,1305,Turner at 10th,,40.603251,-75.479363,,,,,,
2438,1306,Turner at 9th,,40.603928,-75.476913,,,,,,
2437,1307,Turner at 8th,,40.604435,-75.475088,,,,,,
179,4227,Jefferson at Lehigh NB,,40.579445,-75.480688,,,,,,
1581,4228,Jefferson at 12th NB,,40.583099,-75.478796,,,,,,
1585,4229,Jefferson at Lehigh Parkway NB,,40.584844,-75.478711,,,,,,
1584,4230,Jefferson at Cumberland NB,,40.586921,-75.479029,,,,,,
175,4231,Jefferson at Wyoming NB,,40.588427,-75.479258,,,,,,
2663,4280,Wyoming at 12th EB,,40.588641,-75.478333,,,,,,
2661,4146,Wyoming at 11th EB,,40.588842,-75.476071,,,,,,
1667,1370,Wyoming at 10th EB,,40.589061,-75.473841,,,,,,
1647,1371,Lehigh at 9th EB - Allentown,,40.590468,-75.471463,,,,,,
539,4282,8th at Pittston NB,,40.593071,-75.469596,,,,,,
162,4283,8th at Jackson,,40.599057,-75.472238,,,,,,
552,4686,8th at Walnut,,40.600132,-75.472745,,,,,,
2553,6209,Walnut at 7th - Allentown,,40.600701,-75.471182,,,,,,
1448,1020,Hamilton at Church,,40.602436,-75.470768,,,,,,
1444,1021,Hamilton at 5th,,40.603226,-75.467929,,,,,,
1443,1022,Hamilton at 4th EB,,40.603654,-75.466195,,,,,,
2764,6353,American at Linden,,40.606397,-75.462041,,,,,,
2760,6295,Gordon at 3rd WB,,40.610683,-75.463758,,,,,,
1375,4722,Gordon at 2nd EB,,40.611011,-75.462561,,,,,,
56,4721,Gordon at Ridge EB,,40.611536,-75.460641,,,,,,
1382,4720,Gordon at Front EB,,40.612111,-75.458571,,,,,,
2759,6294,Front at Liberty NB,,40.613546,-75.459004,,,,,,
1311,4718,Front at Allen NB,,40.614751,-75.459518,,,,,,
1329,4717,Front at Tilghman NB,,40.616539,-75.460323,,,,,,
1334,4715,Fullerton at Cherry,,40.620677,-75.463075,,,,,,
1342,4713,Fullerton at Lincoln NB,,40.622177,-75.464679,,,,,,
1344,4710,Fullerton at Fairmont NB,,40.625001,-75.467652,,,,,,
1339,4711,Fullerton at Kimmett NB,,40.626207,-75.468949,,,,,,
225,4708,Fullerton at Pershing NB,,40.629196,-75.469796,,,,,,
373,4706,3rd at Chestnut NB,,40.634102,-75.470548,,,,,,
1389,4705,Grape at 4th,,40.636135,-75.472108,,,,,,
1395,4702,Grape at 6th WB,,40.635573,-75.474034,,,,,,
1347,4700,Grape at Jordan WB,,40.634622,-75.477614,,,,,,
2599,1323,Winchester at Cedar Crest,,40.610953,-75.534475,,,,,,
1,1325,Winchester at Pond,,40.610906,-75.538633,,,,,,
2081,1326,1575 Pond Road,,40.613117,-75.538537,,,,,,
2084,1327,Pond at Walbert,,40.614229,-75.538708,,,,,,
2544,4547,Walbert at Office Center,,40.615888,-75.530094,,,,,,
1980,4482,Office Center at Walbert,,40.615178,-75.529861,,,,,,
65,4546,1605 Office Center,,40.614249,-75.531607,,,,,,
873,1314,Cedar Crest at Office Center,,40.613089,-75.533241,,,,,,
874,1320,Cedar Crest at Edinburgh SB,,40.607749,-75.531065,,,,,,
2691,6241,Cedar Crest at Oxford SB,,40.605641,-75.530458,,,,,,
879,1317,Cedar Crest at Livingston SB,,40.602822,-75.529587,,,,,,
876,1318,Cedar Crest at Greenleaf SB,,40.601097,-75.529052,,,,,,
880,1319,Cedar Crest at Washington SB,,40.599213,-75.528467,,,,,,
2,4086,Village West,,40.596959,-75.524726,,,,,,
2913,3181,Tilghman at Village West,,40.598163,-75.525602,,,,,,
2668,1221,Tilghman at 30th EB,,40.59857915,-75.52416736,,,,,,
2686,1222,Tilghman at 29th EB,,40.59913791,-75.52213307,,,,,,
2687,1223,Tilghman at 28th EB,,40.599739,-75.51997,,,,,,
2378,1224,Tilghman at Ott EB,,40.600619,-75.516842,,,,,,
2372,1225,Tilghman at 25th EB,,40.601485,-75.513695,,,,,,
2371,1226,Tilghman at 24th EB,,40.602066,-75.511603,,,,,,
2370,1227,Tilghman at 23rd EB,,40.602648,-75.509489,,,,,,
2381,1279,Tilghman at 22nd EB,,40.603222,-75.507411,,,,,,
2367,1229,Tilghman at 21st EB,,40.603762,-75.505452,,,,,,
2365,1230,Tilghman at 20th EB,,40.604385,-75.503194,,,,,,
2361,1232,Tilghman at 19th EB,,40.605159,-75.500388,,,,,,
2360,1233,Tilghman at 17th,,40.605951,-75.497496,,,,,,
271,4100,17th at Allen SB,,40.604947,-75.496285,,,,,,
272,4101,17th at Liberty SB,,40.603754,-75.495713,,,,,,
3,4102,17th at Chew,,40.601289,-75.494546,,,,,,
1442,1023,Hamilton at American Parkway EB,,40.604768,-75.462177,,,,,,
1440,1024,Hamilton at 2nd EB,,40.605382,-75.460074,,,,,,
1445,1025,Hamilton at Albert EB,,40.607585,-75.451207,,,,,,
1475,1089,Hanover at Carlisle EB,,40.60912029,-75.4486135,,,,,,
1489,1090,Hanover at Linden NB,,40.611182,-75.448294,,,,,,
1477,1091,Hanover at Fenwick EB,,40.614021,-75.446548,,,,,,
1481,1093,Hanover at Graham EB,,40.615491,-75.444744,,,,,,
5,1095,Hanover at Irving EB,,40.616819,-75.441908,,,,,,
1485,1096,Hanover at Jasper EB,,40.617471,-75.439748,,,,,,
1487,1097,Hanover at Kiowa EB,,40.618128,-75.437322,,,,,,
1491,1098,Hanover at Maxwell EB,,40.618395,-75.434621,,,,,,
1494,1100,Hanover at Plymouth EB,,40.619545,-75.431227,,,,,,
1478,1114,Hanover at Quebec EB,,40.620449,-75.429334,,,,,,
1497,1101,Hanover at Sherman EB,,40.621333,-75.427588,,,,,,
152,1115,Hanover at Tacoma EB,,40.621883,-75.425746,,,,,,
1500,1116,Hanover at Ulster EB,,40.622282,-75.424132,,,,,,
1502,1117,Hanover at Wahneta EB,,40.623329,-75.421749,,,,,,
722,1123,Broad at Grandview EB,,40.623831,-75.418876,,,,,,
728,1124,Broad at Keystone EB,,40.623772,-75.416865,,,,,,
718,1125,Broad at Cambridge EB,,40.623653,-75.413765,,,,,,
737,1126,Broad at Market EB,,40.623335,-75.410574,,,,,,
725,1127,Broad at Highland EB,,40.623015,-75.408727,,,,,,
698,1128,Broad at 16th EB,,40.622621,-75.406055,,,,,,
694,1130,Broad at 14th EB,,40.622586,-75.403454,,,,,,
690,1132,Broad at 12th EB,,40.622541,-75.400737,,,,,,
686,1134,Broad at 10th EB,,40.622504,-75.397655,,,,,,
712,1136,Broad at 8th EB,,40.622466,-75.395148,,,,,,
708,1138,Broad at 6th EB,,40.622426,-75.392474,,,,,,
704,1140,Broad at 4th EB,,40.622386,-75.389776,,,,,,
700,1142,Broad at 2nd EB,,40.622341,-75.386936,,,,,,
1771,4119,Main at North NB,,40.623166,-75.381818,,,,,,
2710,6259,LVHN Cedar Crest West Lot,,40.567355,-75.527058,,,,,,
34,1005,LVHN Cedar Crest 1240 Building,,40.566485,-75.520602,,,,,,
1452,1081,Hamilton at Lincoln,,40.574723,-75.533457,,,,,,
1463,1085,Hamilton at Dorney Park EB,,40.576161,-75.530105,,,,,,
2744,6360,Hamilton at Birch EB,,40.57701382,-75.52802874,,,,,,
1451,1080,Cedar Point West,,40.580996,-75.523566,,,,,,
881,1322,Cedar Point East Entrance,,40.582014,-75.521269,,,,,,
143,4776,Cedar Point East Hamilton Exit,,40.582552,-75.519586,,,,,,
1456,1078,Hamilton at VA,,40.58314693,-75.51764804,,,,,,
1446,1077,Hamilton at Reading EB,,40.58555644,-75.5156151,,,,,,
1449,1076,Hamilton at College EB,,40.586579,-75.514831,,,,,,
1454,1074,Hamilton at Ott,,40.590234,-75.512103,,,,,,
1438,1072,Hamilton at 25th EB,,40.591845,-75.50909,,,,,,
1437,1071,Hamilton at 24th EB,,40.592555,-75.506603,,,,,,
1436,1070,Hamilton at 23rd EB,,40.592944,-75.504919,,,,,,
1435,1069,Hamilton at 22nd EB,,40.59358,-75.502786,,,,,,
1434,1068,Hamilton at 21st EB,,40.594294,-75.500223,,,,,,
1474,1067,Hamilton at 20th EB,,40.594728,-75.498643,,,,,,
1433,1066,Hamilton at 19th EB,,40.595283,-75.496551,,,,,,
2768,6358,Hamilton at 18th EB,,40.595871,-75.494568,,,,,,
1430,1064,Hamilton at 17th EB,,40.59662851,-75.49184614,,,,,,
1428,1063,Hamilton at 16th EB,,40.597052,-75.490217,,,,,,
1426,1043,Hamilton at 15th EB,,40.597589,-75.488237,,,,,,
1424,1041,Hamilton at 14th EB,,40.598184,-75.486106,,,,,,
1422,1039,Hamilton at 13th EB,,40.598886,-75.483568,,,,,,
1420,1037,Hamilton at 12th EB,,40.599502,-75.481348,,,,,,
1419,1035,Hamilton at 11th,,40.600016,-75.479495,,,,,,
1418,1034,Hamilton at 10th,,40.600417,-75.478013,,,,,,
1450,1062,Hamilton at Fountain,,40.60091715,-75.4762179,,,,,,
454,4494,4th at Linden NB,,40.605176,-75.465879,,,,,,
472,4493,4th at Turner NB,,40.606644,-75.466599,,,,,,
48,4492,4th at Chew NB,,40.608111,-75.467311,,,,,,
435,4491,4th at Gordon NB,,40.60942,-75.467937,,,,,,
452,4490,4th at Liberty NB,,40.610877,-75.468635,,,,,,
408,4489,4th at Allen NB,,40.612181,-75.469252,,,,,,
470,4488,4th at Tilghman NB,,40.613371,-75.469848,,,,,,
2376,4017,Tilghman at Jordan EB,,40.613813,-75.46891,,,,,,
2379,4018,Tilghman at Ridge EB,,40.615529,-75.462622,,,,,,
2374,4019,Tilghman at Front EB,,40.616145,-75.460345,,,,,,
2483,4642,Union at Ellsworth NB,,40.620345,-75.452892,,,,,,
2478,4643,Union at Home Run NB,,40.622517,-75.45087,,,,,,
2486,4635,Union at Fenwick EB,,40.623752,-75.44953,,,,,,
2488,4637,Union at Godfrey EB,,40.623966,-75.446071,,,,,,
151,4638,Union at Irving,,40.623957,-75.444033,,,,,,
2495,4639,Union at Jerome EB,,40.624277,-75.440156,,,,,,
2497,4633,Union at Kiowa EB,,40.624481,-75.437941,,,,,,
2503,4632,Union at Maxwell EB,,40.624721,-75.43539,,,,,,
2509,4631,Union at Plymouth EB,,40.624965,-75.432812,,,,,,
2511,4630,Union at Quebec EB,,40.625142,-75.430869,,,,,,
2517,4629,Union at Sherman EB,,40.625392,-75.428092,,,,,,
2520,4628,Union at Tacoma EB,,40.625553,-75.426384,,,,,,
2522,4627,Union at Van Buren EB,,40.625826,-75.423475,,,,,,
2481,4626,Union at Club EB,,40.626175,-75.420199,,,,,,
220,4625,Union at Pennsylvania EB,,40.627349,-75.415234,,,,,,
2479,4624,Union at Beverly EB,,40.627818,-75.412057,,,,,,
2508,4623,Union at Paul,,40.627098,-75.409783,,,,,,
2492,4622,Union at Highland EB,,40.62572736,-75.40876236,,,,,,
2506,4621,Union at Mt Airy EB,,40.625415,-75.406776,,,,,,
2451,4619,Union at 15th EB - Bethlehem,,40.625364,-75.404654,,,,,,
2449,4618,Union at 14th EB,,40.625352,-75.40329,,,,,,
2445,4616,Union at 12th EB,,40.625324,-75.400589,,,,,,
2441,4614,Union at 10th EB,,40.62527,-75.397558,,,,,,
2477,4613,Union at 8th EB,,40.625219,-75.394373,,,,,,
2472,4659,Union at 6th EB,,40.625191,-75.392416,,,,,,
2468,4657,Union at 4th EB,,40.625152,-75.389744,,,,,,
2466,4656,Union at 3rd EB,,40.625126,-75.388236,,,,,,
2507,4655,Union at Monocacy EB,,40.625107,-75.38368,,,,,,
2501,4606,Union at Main,,40.625058,-75.382041,,,,,,
1807,4653,Main at North SB,,40.623916,-75.382019,,,,,,
1930,5160,New at Walnut SB,,40.621537,-75.378711,,,,,,
1921,5161,New at Church,,40.617917,-75.379965,,,,,,
2720,6267,2nd at Northampton,,40.612865,-75.378734,,,,,,
2713,6260,Polk at 2nd NB,,40.612945,-75.373091,,,,,,
2715,6262,2nd at Founders Way EB,,40.613195,-75.368131,,,,,,
2717,6264,3rd at Hayes EB,,40.612261,-75.366736,,,,,,
2817,6371,Daly at Sands EB,,40.613202,-75.362308,,,,,,
161,5725,Wind Creek Casino,,40.61394822,-75.35793833,,,,,,
2951,3219,Northampton at 5th WB,,40.691127,-75.212951,,,,,,
2562,5387,Walnut at 6th WB,,40.690775,-75.214643,,,,,,
2560,5345,Walnut at Ferry SB,,40.689181,-75.217035,,,,,,
2554,5346,Walnut at 7th WB - Easton,,40.688726,-75.21776,,,,,,
2570,4989,Washington at 9th,,40.686933,-75.221024,,,,,,
2551,4987,Washington at 10th,,40.686889,-75.221947,,,,,,
2568,4991,Washington at 11th,,40.686801,-75.223916,,,,,,
2569,4992,Washington at 12th,,40.686688,-75.226249,,,,,,
2578,5347,Washington at 13th,,40.686609,-75.227741,,,,,,
2579,5348,Washington at 14th,,40.686517,-75.229701,,,,,,
2580,5349,Washington at 15th,,40.686434,-75.231542,,,,,,
2581,5350,Washington at 16th,,40.686356,-75.233238,,,,,,
155,5351,Washington at 17th,,40.686277,-75.234985,,,,,,
275,5352,18th at Butler,,40.685276,-75.236474,,,,,,
3158,6621,Butler at 20th WB,,40.684385,-75.24049,,,,,,
840,5389,Butler at 22nd WB,,40.683615,-75.243891,,,,,,
843,6238,Butler at 25th WB,,40.682247,-75.247432,,,,,,
3165,6628,25th at Easton Area HS NB,,40.683271,-75.249206,,,,,,
3126,5233,25th at Northampton NB,,40.686825,-75.25201,,,,,,
72,5232,25th St Shopping Center,,40.68856,-75.254018,,,,,,
1897,5231,Nazareth at Lawnherst NB,,40.689784,-75.255969,,,,,,
1890,5230,Nazareth at Kathryn NB,,40.691016,-75.257906,,,,,,
1893,5229,Nazareth at Jewel NB,,40.692137,-75.259613,,,,,,
3141,6475,Old Nazareth at Seip NB,,40.694558,-75.263474,,,,,,
3156,6619,Fischer at Eldridge WB,,40.69458,-75.270663,,,,,,
3153,6616,Hecktown at Fischer WB,,40.69601,-75.274978,,,,,,
3151,6614,LVHN Hecktown Oaks NB,,40.695929,-75.28069,,,,,,
3148,6611,Newburg at Northwood NB,,40.703995,-75.288447,,,,,,
3140,6474,Corriere at Nazareth Pike EB,,40.712225,-75.28276,,,,,,
2997,6931,Corriere at Nazareth,,40.712991,-75.280531,,,,,,
2139,5531,Rt 248 at Prologis NB,,40.720465,-75.292229,,,,,,
3147,6610,Prologis at BMW EB,,40.722381,-75.290093,,,,,,
3139,6473,Hollo at Lulu EB,,40.727178,-75.280591,,,,,,
232,5545,2320 Newlins Mill,,40.725944,-75.269839,,,,,,
1867,5459,McFadden at Newlins Mill NB,,40.727378,-75.266733,,,,,,
1866,5544,14 McFadden,,40.728857,-75.266928,,,,,,
125,5543,McFadden at Danforth NB,,40.731494,-75.265096,,,,,,
3091,5458,McFadden at Carson NB,,40.734794,-75.265493,,,,,,
3095,6462,Commerce at McFadden EB,,40.736071,-75.263906,,,,,,
3093,6460,Trolley Line at Chrin Commerce Center NB,,40.737949,-75.262637,,,,,,
2992,6926,1520 Van Buren,,40.743409,-75.273425,,,,,,
2879,3151,Van Buren at Main,,40.740699,-75.276272,,,,,,
2880,3152,Van Buren at Hollo SB,,40.730871,-75.276365,,,,,,
3058,6992,Van Buren at Hollo NB,,40.728777,-75.276033,,,,,,
3137,6470,Van Buren at Corriere SB,,40.719408,-75.274492,,,,,,
3134,6467,Corriere at Palmer View WB,,40.712932,-75.275653,,,,,,
3133,6466,Corriere at Walmart WB,,40.713179,-75.280095,,,,,,
211,1175,Broad at Center EB,,40.622158,-75.375139,,,,,,
724,1176,Broad at High EB,,40.622123,-75.373026,,,,,,
730,1177,Broad at Linden EB,,40.622084,-75.370214,,,,,,
720,1171,Broad at Elm EB,,40.622022,-75.367062,,,,,,
743,1169,Broad at Wood EB,,40.621968,-75.363989,,,,,,
735,1168,Broad at Stefko EB,,40.621902,-75.360695,,,,,,
252,5685,Stefko at Broad,,40.62257,-75.360131,,,,,,
138,5097,Stefko at Easton,,40.644677,-75.344871,,,,,,
1096,1424,Easton at High Point EB,,40.646861,-75.342362,,,,,,
1110,1425,Easton at Nottingham EB,,40.648255,-75.340476,,,,,,
1121,1426,Easton at 3050 Shopping Center NB,,40.651154,-75.337149,,,,,,
1126,1429,Easton at Willow Park NB,,40.653321,-75.335273,,,,,,
1102,1430,Easton at Kelchner,,40.654972,-75.333919,,,,,,
1093,1431,Easton at Hecktown EB,,40.657306,-75.331926,,,,,,
1074,1432,Easton at 7th EB,,40.659233,-75.329956,,,,,,
1088,1440,Easton at 9th EB,,40.660743,-75.328002,,,,,,
1073,1434,Easton at 10th EB,,40.662409,-75.324727,,,,,,
1124,1436,Easton at Redwood EB,,40.664552,-75.318624,,,,,,
1120,1484,Easton at Oakland EB,,40.665041,-75.317068,,,,,,
1113,1438,Easton at Reeve EB,,40.665834,-75.312957,,,,,,
820,5693,Easton at Farmersville EB,,40.666197,-75.310606,,,,,,
2637,1442,Easton at Falmer,,40.666476,-75.307521,,,,,,
2615,1506,William Penn at William Penn EB,,40.666833,-75.298129,,,,,,
2641,1456,William Penn at Emrick EB,,40.666879,-75.295272,,,,,,
2629,1443,William Penn at Hope EB,,40.66632414,-75.28854609,,,,,,
2633,1446,William Penn at Chipman EB,,40.666693,-75.283675,,,,,,
2627,1450,William Penn at Bethman EB,,40.667668,-75.277818,,,,,,
2639,1452,William Penn at Sheridan EB,,40.668693,-75.274763,,,,,,
2620,1454,William Penn at Edamy EB,,40.669528,-75.272441,,,,,,
2780,6456,William Penn at Stones Crossing EB,,40.670682,-75.269926,,,,,,
2623,1458,William Penn at Filbar EB,,40.67215862,-75.26697137,,,,,,
2643,1463,William Penn at Kingwood EB,,40.67608,-75.262,,,,,,
2632,1507,William Penn at Hartley EB,,40.678223,-75.259277,,,,,,
2634,1508,William Penn at North EB,,40.68092054,-75.25394668,,,,,,
2616,1509,William Penn at 27th EB,,40.681231,-75.251398,,,,,,
36,5393,21st at Lehigh NB,,40.686486,-75.242842,,,,,,
304,5394,Lehigh at 22nd,,40.686651,-75.244225,,,,,,
305,5395,22nd at Fairview NB,,40.687371,-75.244764,,,,,,
315,5396,22nd at Northampton,,40.688709,-75.244867,,,,,,
171,1581,Northampton at 21st EB,,40.689118,-75.242827,,,,,,
1948,1203,Northampton at 19th EB,,40.689406,-75.238971,,,,,,
1947,1204,Northampton at 18th EB,,40.689597,-75.236859,,,,,,
1945,1206,Northampton at 16th EB,,40.689872,-75.234196,,,,,,
1944,1207,Northampton at 15th EB,,40.690065,-75.232211,,,,,,
1943,1208,Northampton at 14th EB,,40.690162,-75.230227,,,,,,
1942,1209,Northampton at 13th EB,,40.690247,-75.228537,,,,,,
1941,1210,Northampton at 12th EB,,40.690345,-75.226421,,,,,,
1940,1211,Northampton at 11th EB,,40.690434,-75.224544,,,,,,
1939,1212,Northampton at 10th EB,,40.690524,-75.222673,,,,,,
1953,1213,Northampton at 9th EB,,40.690581,-75.221317,,,,,,
1952,1214,Northampton at 7th EB,,40.690735,-75.218391,,,,,,
2774,6373,Northampton at 6th EB,,40.690907,-75.214779,,,,,,
1657,1378,Lehigh at Juniata SB,,40.5856,-75.475543,,,,,,
1625,1379,Lehigh at 12th SB - Allentown,,40.582352,-75.477672,,,,,,
1664,1365,Lehigh at Vultee SB,,40.575891,-75.480898,,,,,,
1653,1366,Lehigh at Downyflake SB,,40.571926,-75.481159,,,,,,
1658,1367,Lehigh at 24th SB,,40.569773,-75.482244,,,,,,
1632,1368,Lehigh at 29th SB,,40.561471,-75.486595,,,,,,
149,1369,Lehigh at 31st SB,,40.558986,-75.487897,,,,,,
1659,1359,Lehigh at 33rd SB,,40.556591,-75.489211,,,,,,
117,5748,Trexler Mall,,40.550034,-75.591755,,,,,,
3026,6960,Hamilton at Mill Creek EB,,40.554578,-75.584011,,,,,,
3024,6958,Mill Creek Plaza EB - Trexlertown,,40.554481,-75.580115,,,,,,
2767,6357,Commercial Center at Hamilton EB,,40.55617815,-75.57635712,,,,,,
1464,4001,Hamilton at Grange EB,,40.557934,-75.573615,,,,,,
1468,4000,Hamilton at Krocks EB,,40.56023,-75.567876,,,,,,
2923,3191,Hamilton Crossing East,,40.564172,-75.565236,,,,,,
2921,3189,Hamilton Crossing at Krocks EB,,40.564627,-75.560652,,,,,,
2919,3187,Hamilton Crossing West EB,,40.565863,-75.557036,,,,,,
194,4010,Hamilton at Brookside EB,,40.566093,-75.554135,,,,,,
1471,4008,Hamilton at Schantz EB,,40.567496,-75.550708,,,,,,
1466,4006,Hamilton at Kressler EB,,40.568916,-75.547285,,,,,,
2773,6372,Dorney Park at Lincoln WB,,40.576433,-75.53755,,,,,,
54,6214,Cedar Village Apartments,,40.575796,-75.542115,,,,,,
3063,6997,Dorney Park at Lincoln EB,,40.576604,-75.537194,,,,,,
3034,6968,Ott at Honochick NB,,40.591447,-75.512268,,,,,,
3037,6971,Chew at 20th EB,,40.598972,-75.500594,,,,,,
3038,6972,Chew at 19th EB,,40.599554,-75.498505,,,,,,
3039,6973,Chew at 18th EB,,40.600132,-75.496414,,,,,,
3040,6974,Chew at 17th EB,,40.600665,-75.494467,,,,,,
3041,6975,17th at Turner SB,,40.599468,-75.493693,,,,,,
148,4133,17th at Linden SB,,40.598067,-75.493053,,,,,,
145,6213,Hamilton at Hall,,40.601942,-75.472516,,,,,,
33,4779,1251 Professional Park NB,,40.565124,-75.516714,,,,,,
884,4778,1255 Professional Park NB,,40.565821,-75.515885,,,,,,
2038,4097,1245 Professional Park NB,,40.567244,-75.516301,,,,,,
883,4024,Cedar Crest at Columbus NB,,40.570275,-75.518991,,,,,,
1678,4852,Lincoln at Americus EB,,40.570746,-75.517732,,,,,,
1287,4851,Flexler at Lindberg SB,,40.573501,-75.515919,,,,,,
1282,4849,Flexler at Debbie NB,,40.576081,-75.514267,,,,,,
1277,4847,Flexler at Andrea NB,,40.579301,-75.512157,,,,,,
1281,4845,Flexler at College NB,,40.582591,-75.510081,,,,,,
2356,4844,Texas at Ott EB,,40.583055,-75.508765,,,,,,
2351,4842,Texas at 25th EB,,40.583812,-75.504919,,,,,,
327,4841,24th at Mosser,,40.585475,-75.503517,,,,,,
328,4840,24th at South NB,,40.586482,-75.503995,,,,,,
323,4839,24th at Elm NB,,40.587611,-75.504521,,,,,,
325,4838,24th at Fairview NB,,40.588777,-75.505079,,,,,,
331,4837,24th at Union,,40.589883,-75.505601,,,,,,
2463,4836,Union at 23rd EB,,40.590481,-75.503771,,,,,,
2461,4835,Union at 22nd EB,,40.591068,-75.501638,,,,,,
2484,4833,Union at St Elmo EB,,40.591926,-75.498505,,,,,,
2515,4832,Union at Lafayette EB,,40.592647,-75.495879,,,,,,
2457,4831,Union at 18th EB,,40.593382,-75.493208,,,,,,
2455,4830,Union at 17th EB,,40.593944,-75.491172,,,,,,
2453,4829,Union at 16th EB,,40.594535,-75.489031,,,,,,
2037,4096,Union at 15th - Allentown,,40.595096,-75.487009,,,,,,
66,4143,15th at Walnut NB,,40.596211,-75.487236,,,,,,
134,1032,15th at Hamilton NB,,40.597627,-75.487913,,,,,,
2856,4397,8th at Allen,,40.609909,-75.477386,,,,,,
548,6210,8th at Tilghman,,40.611238,-75.478031,,,,,,
2576,4804,Washington at 9th WB,,40.612424,-75.480991,,,,,,
2571,4805,Washingotn at 10th WB,,40.611834,-75.483144,,,,,,
2573,4806,Washington at 11th WB,,40.611305,-75.485073,,,,,,
2575,4807,Washington at 12th WB,,40.610788,-75.486951,,,,,,
2966,3236,Roth at Sumner NB,,40.610747,-75.489352,,,,,,
2967,3237,14th at Highland,,40.614273,-75.493428,,,,,,
1546,4813,Highland at 13th,,40.614837,-75.491521,,,,,,
256,4815,13th at Pennsylvania NB,,40.616406,-75.492059,,,,,,
249,4816,13th at Fairmont NB,,40.618014,-75.492825,,,,,,
68,4817,13th at Overlook NB,,40.620602,-75.493362,,,,,,
1992,4818,Overlook at Corinth EB,,40.620521,-75.491887,,,,,,
1996,4819,Overlook at Marathon,,40.620106,-75.489751,,,,,,
1994,4820,Overlook at Forest EB,,40.619816,-75.488271,,,,,,
1997,4821,Overlook at Mickley NB,,40.621279,-75.484961,,,,,,
1589,4870,Mickley at Jordan,,40.621089,-75.483702,,,,,,
1588,4823,Jordan at MacArthur,,40.621516,-75.481651,,,,,,
1727,1348,MacArthur at Fairmont NB,,40.624621,-75.482169,,,,,,
38,6207,Creekside Shopping Center,,40.562966,-75.340591,,,,,,
1822,5648,Main at Polk Valley NB,,40.567384,-75.339648,,,,,,
1831,5649,Main at Walnut NB,,40.572307,-75.341336,,,,,,
1811,5650,Main at Pine NB,,40.574253,-75.340712,,,,,,
1821,5652,Main at Saucon NB,,40.576238,-75.340534,,,,,,
1809,5653,Main at Penn NB,,40.578024,-75.340651,,,,,,
1834,5654,Main at Water,,40.579541,-75.340778,,,,,,
1786,5655,Main at Warren NB,,40.580739,-75.340884,,,,,,
1784,5656,Main at Depot NB,,40.582077,-75.340989,,,,,,
1825,5658,Main at Thomas NB,,40.585171,-75.341238,,,,,,
1801,5659,Main at Linden,,40.586588,-75.341326,,,,,,
1782,5660,Main at Clark NB,,40.588301,-75.340834,,,,,,
1838,5661,Main at Wilson,,40.589622,-75.340296,,,,,,
1794,5662,Main at High NB,,40.590644,-75.339898,,,,,,
1827,5663,Main at Wagner NB,,40.591761,-75.339891,,,,,,
1777,5664,Main at Kichline NB,,40.593053,-75.340029,,,,,,
1552,5665,Hellertown at Crest,,40.600866,-75.340579,,,,,,
1551,5666,Hellertown and Commerce NB,,40.604222,-75.340867,,,,,,
1540,6187,Hellertown at Shimersville NB,,40.610191,-75.340571,,,,,,
2993,6927,Spillman at Emery WB,,40.613352,-75.346591,,,,,,
2994,6928,Spillman at Lynn WB,,40.613309,-75.349472,,,,,,
2995,6929,1555 Spillman,,40.614909,-75.352234,,,,,,
2738,6351,Spillman at Lynn EB,,40.613133,-75.349212,,,,,,
2815,6352,Spillman at Emery EB,,40.613203,-75.346448,,,,,,
428,6186,4th at Emery WB,,40.612236,-75.346517,,,,,,
480,4644,4th at William WB,,40.61163,-75.354863,,,,,,
425,4603,4th at Edward WB,,40.611451,-75.357253,,,,,,
445,4601,4th at Hobart WB,,40.611298,-75.359557,,,,,,
443,4599,4th at Hill WB,,40.611045,-75.362752,,,,,,
441,4595,4th at Hayes WB,,40.610847,-75.366531,,,,,,
415,4592,4th at Buchanan WB,,40.610767,-75.36918,,,,,,
433,4588,4th at Filmore WB,,40.610688,-75.372138,,,,,,
40,4584,4th at Taylor WB,,40.610611,-75.374768,,,,,,
52,4579,4th at New WB,,40.610522,-75.378237,,,,,,
1919,5163,New at 3rd,,40.611866,-75.378463,,,,,,
2502,4654,Union at Monocacy WB,,40.625225,-75.383853,,,,,,
2467,4608,Union at 3rd WB,,40.625259,-75.387697,,,,,,
2469,4609,Union at 4th WB,,40.625283,-75.389404,,,,,,
2473,4611,Union at 6th WB,,40.625328,-75.392128,,,,,,
2476,4661,Union at 8th WB,,40.625367,-75.394649,,,,,,
537,5146,8th at Martin Tower NB,,40.631239,-75.395052,,,,,,
526,5150,8th at Eaton NB,,40.633588,-75.395412,,,,,,
519,5149,8th at Bradford NB,,40.635415,-75.395692,,,,,,
2223,5164,Schoenersville at Illicks Mill NB,,40.638322,-75.397429,,,,,,
2659,5166,Westgate at LVHN WB,,40.643097,-75.406941,,,,,,
3019,6953,LVHN Muhlenberg Westgate Entrance WB,,40.64384,-75.407472,,,,,,
2658,5167,Westgate at Bathgate SB,,40.641884,-75.408076,,,,,,
2655,5168,Westgate at Catasauqua SB,,40.640261,-75.407467,,,,,,
848,5169,Catasauqua at Kelchner WB,,40.640547,-75.412644,,,,,,
844,5171,Catasauqua at Allwood WB,,40.641598,-75.417148,,,,,,
847,5172,Catasauqua at Grove,,40.641939,-75.418528,,,,,,
845,5173,Catasauqua at Aster WB,,40.642579,-75.423411,,,,,,
219,5174,Catasauqua at Pennsylvania WB,,40.642617,-75.426001,,,,,,
849,5175,Catasauqua at Valley Plaza Entrance SB,,40.641381,-75.430454,,,,,,
31,1405,Weis Emmaus,,40.527096,-75.50841,,,,,,
979,1392,Chestnut at Cedar Crest,,40.528361,-75.507081,,,,,,
921,1391,Chestnut at 10th EB - Emmaus,,40.529541,-75.504409,,,,,,
935,1389,Chestnut at 8th EB - Emmaus,,40.531179,-75.500685,,,,,,
933,1388,Chestnut at 7th EB - Emmaus,,40.531795,-75.499275,,,,,,
931,1387,Chestnut at 6th EB - Emmaus,,40.533134,-75.496195,,,,,,
929,1386,Chestnut at 5th EB - Emmaus,,40.534338,-75.493426,,,,,,
927,1385,Chestnut at 4th EB - Emmaus,,40.534887,-75.492209,,,,,,
385,4186,3rd at Main WB,,40.536144,-75.490373,,,,,,
395,4187,3rd at Ridge WB,,40.536961,-75.491806,,,,,,
388,4188,3rd at North,,40.537738,-75.493151,,,,,,
397,4190,3rd at Seem WB,,40.538962,-75.495288,,,,,,
381,4191,3rd at Harrison NB,,40.539834,-75.496801,,,,,,
1511,4192,Harrison at 2nd NB,,40.541021,-75.495701,,,,,,
1515,4193,Harrison at Keystone NB,,40.542342,-75.494412,,,,,,
1509,4194,Harrison at 1st NB,,40.543711,-75.493165,,,,,,
1516,4195,Harrison at Wenner NB,,40.544603,-75.492347,,,,,,
1514,4196,Harrison at Beechwood NB,,40.546651,-75.490476,,,,,,
2272,1353,State at Harrison NB,,40.548785,-75.490229,,,,,,
2270,1354,Lehigh at Bevin NB,,40.550542,-75.491204,,,,,,
2775,6374,33rd at Berger EB,,40.555179,-75.486754,,,,,,
1145,6148,Emaus at 30th NB,,40.557761,-75.481507,,,,,,
2776,6375,Emaus at 29th NB,,40.558851,-75.479751,,,,,,
1157,4141,Emaus at 28th NB,,40.560638,-75.477715,,,,,,
1177,4139,Emaus at 26th NB,,40.565292,-75.474817,,,,,,
1152,4162,Emaus at 12th NB,,40.568368,-75.472041,,,,,,
1181,4161,Emaus at Howard NB,,40.571139,-75.469151,,,,,,
1173,4136,Emaus at 9th NB,,40.572554,-75.465971,,,,,,
1171,4135,Emaus at 8th NB,,40.573548,-75.463675,,,,,,
200,4134,Emaus at Church NB,,40.575056,-75.460289,,,,,,
1168,4197,Emaus at Law NB,,40.575959,-75.458168,,,,,,
461,4153,4th at Baker NB,,40.578545,-75.454721,,,,,,
2858,3004,4th at Cooper,,40.579928,-75.455566,,,,,,
474,4198,4th at Wabash,,40.582308,-75.457105,,,,,,
458,4746,4th at Montgomery NB,,40.583376,-75.457952,,,,,,
3043,6977,4th at Lexington NB,,40.585951,-75.459695,,,,,,
421,4201,4th at Chapel NB,,40.587315,-75.459918,,,,,,
136,1342,6th at Chew,,40.606875,-75.471653,,,,,,
492,1333,6th at Gordon,,40.608297,-75.472324,,,,,,
495,1341,6th at Liberty,,40.609677,-75.472979,,,,,,
2747,1340,6th at Allen,,40.610956,-75.473591,,,,,,
498,1339,6th at Tilghman,,40.612311,-75.474237,,,,,,
2861,3007,Washington at 7th,,40.613561,-75.476891,,,,,,
2778,6377,7th at Greenleaf NB,,40.614956,-75.477628,,,,,,
2895,3015,7th at Sumner,,40.617717,-75.478925,,,,,,
497,1331,6th at MacArthur,,40.620144,-75.480057,,,,,,
2699,6249,MacArthur at Jordan NB,,40.621668,-75.480777,,,,,,
247,4993,13th at Butler,,40.685783,-75.227926,,,,,,
829,4982,Butler at 14th WB,,40.685636,-75.229621,,,,,,
831,4981,Butler at 15th,,40.685561,-75.231337,,,,,,
833,4980,Butler at 16th WB,,40.685408,-75.233187,,,,,,
834,5378,Butler at 17th,,40.685046,-75.235615,,,,,,
1260,5353,Freemansburg at Ridge WB,,40.684108,-75.237483,,,,,,
1206,4977,Freemansburg at 20th,,40.682672,-75.239411,,,,,,
1208,4976,Freemansburg at 21st,,40.681261,-75.240841,,,,,,
1210,4975,Freemansburg at 23rd,,40.679428,-75.242113,,,,,,
1225,4974,Freemansburg at Balata WB,,40.677505,-75.243925,,,,,,
78,4972,Freemansburg at 25th WB,,40.675593,-75.245911,,,,,,
1212,4971,Freemansburg at 27th WB,,40.674587,-75.247361,,,,,,
1243,4970,Freemansburg at Keane WB,,40.673382,-75.249633,,,,,,
1239,4969,Freemansburg at Hobson WB,,40.672701,-75.250855,,,,,,
1234,4968,Freemansburg at Dunkle WB,,40.672051,-75.252131,,,,,,
1247,4967,Freemansburg at Milford WB,,40.671331,-75.253571,,,,,,
1252,4966,Freemansburg at Oakwood,,40.670644,-75.254979,,,,,,
1238,4965,Freemansburg at Grandview WB,,40.669901,-75.256347,,,,,,
2722,6271,Freemansburg at Berks WB,,40.669108,-75.257752,,,,,,
1251,4962,Freemansburg at Mine Lane WB,,40.666846,-75.26197,,,,,,
1269,4961,Freemansburg at Whitney,,40.665877,-75.263759,,,,,,
1235,4959,Freemansburg at Eichlin WB,,40.664601,-75.266159,,,,,,
21,4958,Freemansburg at Stones Crossing WB,,40.663523,-75.268127,,,,,,
1263,4957,Freemansburg at Sheridan,,40.662203,-75.270284,,,,,,
1245,4956,Freemansburg at Kingview WB,,40.659808,-75.274682,,,,,,
1256,4955,Freemansburg at Orchard WB,,40.658631,-75.276881,,,,,,
1188,4952,Freemansburg at Ohio WB,,40.657491,-75.279302,,,,,,
1241,4954,Freemansburg at Hope WB,,40.654796,-75.284461,,,,,,
2884,3157,Freemansburg Madison Farms,,40.650575,-75.293097,,,,,,
2736,9500,St Luke's Anderson,,40.649448,-75.289959,,,,,,
1189,4953,Emrick at Freemansburg NB,,40.653089,-75.291113,,,,,,
1185,5376,Emrick at Cook,,40.657581,-75.292641,,,,,,
1183,4950,Emrick at Baglyos NB,,40.659137,-75.293414,,,,,,
2827,6655,2710 Emrick NB,,40.661541,-75.294278,,,,,,
75,5259,Emrick at William Penn NB,,40.665431,-75.295237,,,,,,
2644,1492,William Penn at William Penn WB,,40.667007,-75.297751,,,,,,
2610,1512,William Penn at Church,,40.666871,-75.304104,,,,,,
2748,1491,Easton at Farmersville WB 2,,40.666696,-75.306433,,,,,,
1089,1490,Easton at Farmersville WB,,40.666439,-75.309814,,,,,,
1114,1489,Easton at Reeve WB,,40.666097,-75.312393,,,,,,
10,1488,Easton at Oakland WB,,40.665608,-75.315212,,,,,,
2998,6932,Oakland at Brandeis NB,,40.668021,-75.319643,,,,,,
2721,6270,NCC Penn Hall,,40.671747,-75.323943,,,,,,
2999,6933,Oakland at Brandeis SB,,40.667788,-75.319387,,,,,,
2779,6378,Easton at Redwood WB,,40.664835,-75.318266,,,,,,
1092,1485,Easton at 10th WB,,40.662723,-75.324223,,,,,,
1112,1487,Easton at 9th WB,,40.660974,-75.327971,,,,,,
1075,1483,Easton at 7th WB,,40.659105,-75.330335,,,,,,
1094,1482,Easton at Hecktown WB,,40.657807,-75.331608,,,,,,
1127,1481,Easton at Willlow Park SB,,40.653424,-75.335381,,,,,,
1091,1500,Easton at 3050 Shopping Center SB,,40.651093,-75.337446,,,,,,
1111,1478,Easton at Nottingham WB,,40.647988,-75.341101,,,,,,
1097,1477,Easton at High Point WB,,40.646559,-75.343002,,,,,,
24,1475,Easton at East WB,,40.64363611,-75.3481218,,,,,,
1104,1474,Easton at Lexington WB,,40.6423037,-75.35117751,,,,,,
1125,1473,Easton at Renwick WB,,40.64180063,-75.35229391,,,,,,
1106,1472,Easton at Lincoln WB,,40.64106032,-75.35405687,,,,,,
1095,1471,Easton at Henderson WB,,40.64013511,-75.35623925,,,,,,
1109,1470,Easton at Carlisle WB,,40.63928101,-75.35852268,,,,,,
1101,1469,Easton at Jennings WB,,40.63855787,-75.36060008,,,,,,
1087,1468,Easton at Edgeboro WB,,40.63772615,-75.36268545,,,,,,
1130,1467,Easton at Washington WB,,40.63503179,-75.36551013,,,,,,
1128,1465,Easton at Woodlawn WB,,40.63282218,-75.36770208,,,,,,
1098,1413,Easton at Beech WB,,40.631962,-75.368637,,,,,,
37,4375,Elizabeth at Madison WB,,40.63054507,-75.37111327,,,,,,
1139,4373,Elizabeth at High WB,,40.63068232,-75.373105,,,,,,
1135,4372,Elizabeth at Center WB,,40.630856,-75.37478,,,,,,
1137,4371,Elizabeth at Chelsea WB,,40.630971,-75.376756,,,,,,
1923,4370,New at Elizabeth SB,,40.630276,-75.378247,,,,,,
1929,4369,New at Laurel SB,,40.629103,-75.378316,,,,,,
1925,4368,New at Fairview SB,,40.62778,-75.378341,,,,,,
1927,4367,New at Goepp SB,,40.626373,-75.378407,,,,,,
1934,4366,New at Union SB,,40.625237,-75.378441,,,,,,
1932,4365,New at North,,40.623739,-75.378509,,,,,,
701,1143,Broad at 2nd WB,,40.622519,-75.387055,,,,,,
705,1161,Broad at 4th WB,,40.622559,-75.389791,,,,,,
709,1159,Broad at 6th WB,,40.622602,-75.392604,,,,,,
713,1157,Broad at 8th WB,,40.622645,-75.395324,,,,,,
687,1155,Broad at 10th WB,,40.622681,-75.397281,,,,,,
691,1153,Broad at 12th WB,,40.622722,-75.400281,,,,,,
695,1151,Broad at 14th WB,,40.622761,-75.402962,,,,,,
699,1149,Broad at 16th WB,,40.622805,-75.405747,,,,,,
726,1148,Broad at Highland WB,,40.623221,-75.408901,,,,,,
738,1147,Broad at Market WB,,40.623519,-75.410608,,,,,,
719,1146,Broad at Cambridge WB,,40.623796,-75.414125,,,,,,
729,1145,Broad at Keystone WB,,40.623892,-75.416591,,,,,,
723,1144,Broad at Grandview WB,,40.623941,-75.418151,,,,,,
1503,1120,Hanover at Wahneta WB,,40.623469,-75.421873,,,,,,
1501,1119,Hanover at Ulster WB,,40.622516,-75.423903,,,,,,
1499,1118,Hanover at Tacoma WB,,40.62194,-75.425718,,,,,,
1498,1102,Hanover at Sherman WB,,40.621587,-75.427241,,,,,,
1496,1103,Hanover at Quebec WB,,40.620403,-75.429787,,,,,,
1495,1104,Hanover at Plymouth WB,,40.619619,-75.431453,,,,,,
1492,1105,Hanover at Maxwell WB,,40.618545,-75.434863,,,,,,
1488,1106,Hanover at Kiowa WB,,40.618324,-75.437154,,,,,,
1486,1107,Hanover at Jasper WB,,40.617606,-75.439861,,,,,,
177,1108,Hanover at Irving WB,,40.617108,-75.441631,,,,,,
1482,1110,Hanover at Graham WB,,40.615272,-75.445295,,,,,,
1479,1111,Hanover at Fenwick WB,,40.614229,-75.446565,,,,,,
1490,1113,Hanover at Linden SB,,40.611053,-75.448499,,,,,,
1476,1112,Hanover at Carlisle WB,,40.609604,-75.448611,,,,,,
1447,1029,Hamilton at Albert WB,,40.607779,-75.451105,,,,,,
1441,1028,Hamilton at 2nd WB,,40.605511,-75.460168,,,,,,
1455,1027,Hamilton at American Parkway WB,,40.604896,-75.462416,,,,,,
1417,1026,Hamilton at 4th,,40.604116,-75.465204,,,,,,
1693,4104,Linden at 5th,,40.604671,-75.46883,,,,,,
164,4107,17th at Gordon - LVHN ER Entrance,,40.601849,-75.494655,,,,,,
273,4106,17th at Liberty NB,,40.603501,-75.495444,,,,,,
581,4105,17th at Allen NB,,40.604788,-75.496045,,,,,,
2362,1237,Tilghman at 18th,,40.605716,-75.498786,,,,,,
2364,1236,Tilghman at 19th WB,,40.605276,-75.500423,,,,,,
2366,1235,Tilghman at 20th WB,,40.604556,-75.503024,,,,,,
2368,1234,Tilghman at 21st WB,,40.603987,-75.505073,,,,,,
2369,1228,Tilghman at 22nd WB,,40.603441,-75.507062,,,,,,
2400,1262,Tilghman at 23rd WB,,40.602834,-75.509242,,,,,,
2401,1263,Tilghman at 24th WB,,40.602241,-75.511411,,,,,,
2402,1264,Tilghman at 25th WB,,40.601666,-75.513482,,,,,,
2416,1266,Tilghman at Ott WB,,40.600801,-75.516635,,,,,,
2407,1268,Tilghman at 28th WB,,40.599934,-75.519832,,,,,,
2408,1269,Tilghman at 29th WB,,40.599377,-75.521895,,,,,,
2409,1270,Tilghman at 30th WB,,40.598782,-75.524012,,,,,,
2414,1261,Tilghman at Cedar Crest WB,,40.598046,-75.526765,,,,,,
2822,6380,Cedar Crest at Washington NB,,40.599241,-75.528301,,,,,,
2819,6301,Cedar Crest at Greenleaf NB,,40.601095,-75.528876,,,,,,
2820,6306,Cedar Crest at Livingston NB,,40.602811,-75.529402,,,,,,
2821,6316,Cedar Crest at Highland NB,,40.604408,-75.529888,,,,,,
878,1316,Cedar Crest Oxford NB,,40.605893,-75.530344,,,,,,
875,1315,Cedar Crest at Edinburgh NB,,40.607921,-75.530941,,,,,,
2867,3141,St Luke's West End EB,,40.585631,-75.555994,,,,,,
88,5551,Wind Gap Plaza,,40.839532,-75.299934,,,,,,
747,5468,Broadway at 2nd NB,,40.840509,-75.295229,,,,,,
753,5469,Broadway at 3rd NB,,40.841232,-75.294743,,,,,,
762,5471,Broadway at 5th NB,,40.842802,-75.293697,,,,,,
767,5473,Broadway at Center NB,,40.848151,-75.291829,,,,,,
1648,5474,Lehigh at Alpha EB,,40.852117,-75.285101,,,,,,
2805,6589,Penn at Sanders NB,,40.858991,-75.273856,,,,,,
2795,6525,Pennsylvania at George EB,,40.863874,-75.266533,,,,,,
2044,5476,Pennsylvania at C EB,,40.867271,-75.259731,,,,,,
2042,5477,Pennsylvania at B EB,,40.867608,-75.258476,,,,,,
2048,5478,Pennsylvania at Lobb WB,,40.868073,-75.256786,,,,,,
214,5479,Pennsylvania at Robinson EB,,40.868612,-75.254729,,,,,,
1358,5586,Rt 512 at Park EB,,40.871018,-75.241714,,,,,,
86,5569,Bangor Plaza,,40.874302,-75.235211,,,,,,
2174,5482,Blue Valley at American Bangor EB,,40.871608,-75.233453,,,,,,
1845,5483,Market at 11th WB,,40.867733,-75.219475,,,,,,
1859,5485,Market at 8th EB,,40.867494,-75.215821,,,,,,
1851,5489,Market at 4th WB,,40.867103,-75.209811,,,,,,
1847,5491,Market at 2nd EB,,40.866972,-75.207708,,,,,,
1857,5486,Market at 1st,,40.866906,-75.206746,,,,,,
2129,5610,Roseto at Jewel,,40.881353,-75.213785,,,,,,
85,5611,Garibaldi at North,,40.884444,-75.219185,,,,,,
2422,5132,3859 Nazareth Pike SB,,40.674032,-75.345355,,,,,,
1701,5098,Linden at Santee Mill,,40.667617,-75.349233,,,,,,
1699,5099,Linden at Falcon SB,,40.666567,-75.349908,,,,,,
1065,5057,East at Linden EB,,40.663909,-75.350889,,,,,,
1055,5059,East at Chester SB,,40.662174,-75.349831,,,,,,
1072,5061,East at Barrett SB,,40.660144,-75.349758,,,,,,
1059,5063,East at Johnston SB,,40.657988,-75.349439,,,,,,
1067,5067,East at Middle,,40.654754,-75.349063,,,,,,
13,5069,East at Butztown SB,,40.653451,-75.348838,,,,,,
1061,5073,East at Lansdale SB,,40.650263,-75.350323,,,,,,
1069,5075,East at North SB,,40.648922,-75.350121,,,,,,
1071,5077,East at Spring Garden SB,,40.647631,-75.349941,,,,,,
1063,5079,East at Lewis SB,,40.646303,-75.349752,,,,,,
1054,5081,East at Easton SB,,40.644124,-75.348934,,,,,,
217,1503,Easton at Stefko EB,,40.644222,-75.346284,,,,,,
2278,5083,Stefko at Glenwood SB,,40.64364058,-75.34572699,,,,,,
2293,5113,Stefko at Stanhope SB,,40.640943,-75.347401,,,,,,
2282,5112,Stefko at Gresham SB,,40.638751,-75.348727,,,,,,
2274,5110,Stefko at Bayard SB,,40.635826,-75.350488,,,,,,
2825,6379,Stefko at Hilton SB,,40.633914,-75.352324,,,,,,
14,5109,Stefko at Walters SB,,40.632643,-75.353942,,,,,,
2291,5107,Stefko at Radclyffe SB,,40.631525,-75.355371,,,,,,
2296,5106,Stefko at Washington SB,,40.629739,-75.357662,,,,,,
2021,5639,Pembroke at Minsi Trail WB,,40.628482,-75.360973,,,,,,
2019,5640,Pembroke at Fernwood,,40.627844,-75.362976,,,,,,
2022,5641,Pembroke at Wood WB,,40.627135,-75.365048,,,,,,
2017,5642,Pembroke at Elm WB,,40.626317,-75.367331,,,,,,
1371,5117,Goepp at Linden WB,,40.626149,-75.370293,,,,,,
1369,5116,Goepp at High WB,,40.626195,-75.372958,,,,,,
1367,5115,Goepp at Center WB,,40.626246,-75.375115,,,,,,
169,5009,3rd at Banana Factory,,40.611973,-75.380241,,,,,,
3111,4585,4th at Wyandotte WB,,40.610306,-75.384445,,,,,,
3109,4581,4th at 3rd WB,,40.611227,-75.387028,,,,,,
1887,5125,Mohican at Delaware,,40.609352,-75.390686,,,,,,
3099,6359,4th at Spruce,,40.68879,-75.211023,,,,,,
3100,4985,4th at Larry Holmes,,40.687568,-75.210938,,,,,,
2261,5197,St John at Nesquehoning SB,,40.681648,-75.210607,,,,,,
2258,5245,St John at Wilkes Barre SB,,40.680786,-75.210484,,,,,,
2259,5199,St John at Berwick,,40.679535,-75.210316,,,,,,
623,5247,Berwick at Davis WB,,40.679248,-75.212372,,,,,,
625,5248,Berwick at Filbert WB,,40.679101,-75.213907,,,,,,
635,5249,Berwick at Seitz WB,,40.678938,-75.215632,,,,,,
621,5250,Berwick at Coal WB,,40.678704,-75.218006,,,,,,
633,5251,Berwick at Reynolds WB,,40.678566000000004,-75.219453,,,,,,
80,5205,Berwick at Centre WB,,40.678433,-75.220951,,,,,,
908,5343,Centre at Canal,,40.681798,-75.221557,,,,,,
81,5342,Thomas Bright at Holt,,40.680701,-75.220018,,,,,,
1909,4984,Nesquehoning at Centre,,40.680357,-75.221225,,,,,,
3125,5207,Berwick at Iron WB,,40.678139,-75.223978,,,,,,
3127,5256,Berwick at Packer WB,,40.677737,-75.228389,,,,,,
3128,5257,Packer at Williams SB,,40.673674,-75.227953,,,,,,
3129,5325,Line at Iron EB,,40.673269,-75.223291,,,,,,
1715,5328,Line at Reynolds,,40.673687,-75.218668,,,,,,
1709,5329,Line at Coal EB,,40.673786,-75.217477,,,,,,
1713,5330,Philadelphia at Line,,40.674244,-75.215229,,,,,,
1986,5331,Philadelphia at Williams NB,,40.674921,-75.214348,,,,,,
2597,5332,Williams at Davis EB,,40.675303,-75.212155,,,,,,
74,5269,Easton Food Market,,40.673308,-75.211102,,,,,,
2262,5270,St John at Palmer NB,,40.675063,-75.209351,,,,,,
2264,5271,St John at Rock NB,,40.675944,-75.209494,,,,,,
2260,5272,St John at Grant,,40.676421,-75.209577,,,,,,
1385,5273,Grant at Folk WB,,40.676681,-75.207861,,,,,,
1387,5274,Grant at Charles,,40.677289,-75.205391,,,,,,
1300,5339,Charles at Bird NB,,40.678331,-75.205381,,,,,,
2727,6276,Charles at Kleinhans NB,,40.680187,-75.205641,,,,,,
1303,5340,Charles at Wilkes Barre NB,,40.680997,-75.205756,,,,,,
1301,5277,Charles at Nesquehoning NB,,40.681884,-75.205884,,,,,,
2726,6275,Nesquehoning at Folk,,40.681735,-75.208335,,,,,,
1910,5278,Nesquehoning at St John,,40.681555,-75.210301,,,,,,
2269,5279,St John at St Joseph,,40.682303,-75.210443,,,,,,
387,5397,3rd at Northampton,,40.691843,-75.209091,,,,,,
399,4930,3rd at Bushkill,,40.694108,-75.209269,,,,,,
872,5399,Cattell at Clinton NB,,40.698681,-75.204932,,,,,,
864,5400,Cattell at March NB,,40.699572,-75.205383,,,,,,
860,5401,Cattell at High NB,,40.700679,-75.20595900000001,,,,,,
868,5402,Cattell at Parsons,,40.701625,-75.206442,,,,,,
866,5403,Cattell at Monroe NB,,40.702316,-75.206794,,,,,,
870,5404,Cattell at Pierce NB,,40.703228,-75.207281,,,,,,
857,5405,Cattell at Burke NB,,40.704039,-75.207671,,,,,,
863,5406,Cattell at Lafayette,,40.705017,-75.208023,,,,,,
1598,5407,Knox at Fairfield,,40.706777,-75.215438,,,,,,
1600,5355,Knox at Sullivan Trail NB,,40.711061,-75.217735,,,,,,
35,4938,Forks Plaza North,,40.713208,-75.221856,,,,,,
1983,6166,Forks Plaza South,,40.711738,-75.219998,,,,,,
1696,4110,Linden at 9th,,40.602717,-75.476001,,,,,,
1679,4111,Linden at 10th,,40.602047,-75.478444,,,,,,
233,4775,11th at Hamilton,,40.600107,-75.479956,,,,,,
1421,1036,Hamilton at 12th WB,,40.5996,-75.481553,,,,,,
1423,1038,Hamilton at 13th WB,,40.598999,-75.483763,,,,,,
1425,1040,Hamilton at 14th WB,,40.598407,-75.485876,,,,,,
1427,1042,Hamilton at 15th WB,,40.59786,-75.487898,,,,,,
1429,1031,Hamilton at 16th WB,,40.597265,-75.490075,,,,,,
1431,1030,Hamilton at 17th WB,,40.596695,-75.492116,,,,,,
274,4997,17th at Linden NB,,40.597771,-75.492726,,,,,,
142,6222,17th at Turner NB,,40.599236,-75.493425,,,,,,
953,1295,Chew at 20th WB,,40.599087,-75.500609,,,,,,
3035,6969,Ott at Honochick SB,,40.590697,-75.512084,,,,,,
2681,1620,Hamilton at College WB,,40.58697,-75.514811,,,,,,
2682,1621,Hamilton at Reading WB,,40.585696,-75.515775,,,,,,
2683,1622,Cedar Point East Hamilton Entrance,,40.583235,-75.52028,,,,,,
193,4777,Cedar Point East Exit,,40.582216,-75.521449,,,,,,
2745,6361,Haines Mill at Hamilton,,40.580411,-75.524332,,,,,,
55,1079,Hamilton at Birch WB,,40.57731,-75.528,,,,,,
2685,1624,Hamilton at Dorney Park WB,,40.576175,-75.530792,,,,,,
1467,4009,Hamilton at Kressler WB,,40.56894,-75.547661,,,,,,
1473,4005,Hamilton at Schantz WB,,40.5675627,-75.55087031,,,,,,
115,4007,Hamilton at Brookside WB,,40.566598,-75.553249,,,,,,
2920,3188,Hamilton Crossing West WB,,40.56579702,-75.55765723,,,,,,
2922,3190,Hamilton Crossing at Krocks WB,,40.56484692,-75.56028944,,,,,,
1470,4003,Hamilton at Krocks WB,,40.560465,-75.567906,,,,,,
1465,4004,Hamilton at Grange WB,,40.557851,-75.574627,,,,,,
2871,3145,Commercial Center at Hamilton WB,,40.55617765,-75.57683554,,,,,,
3025,6959,Mill Creek Plaza WB - Trexlertown,,40.554599,-75.580331,,,,,,
3027,6961,Hamilton at Mill Creek WB,,40.554884,-75.58372,,,,,,
196,6230,Hamilton at Trexlertown WB,,40.548264,-75.605047,,,,,,
3061,6995,Trexlertown at Cross Creen NB,,40.555946,-75.607828,,,,,,
3050,6984,8001 Industrial WB,,40.563178,-75.618774,,,,,,
2242,5760,Willard at Grim,,40.553732,-75.626161,,,,,,
3052,6986,Fed Ex Willard,,40.55258,-75.631347,,,,,,
3053,6987,Willard at Industrial,,40.556557,-75.634123,,,,,,
3106,5829,8400 Industrial Blvd,,40.559209,-75.628677,,,,,,
1565,5820,8250 Industrial Blvd,,40.560759,-75.624698,,,,,,
1728,1346,MacArthur at Fairmont SB,,40.623574,-75.481946,,,,,,
1729,1347,MacArthur at Jordan SB,,40.621903,-75.481164,,,,,,
1730,1351,MacArthur at Mickley SB,,40.619679,-75.480112,,,,,,
511,1345,7th at Greenleaf SB,,40.615129,-75.477921,,,,,,
517,1344,7th at Washington,,40.613294,-75.477013,,,,,,
71,1343,7th at Allen,,40.610609,-75.475764,,,,,,
514,1336,7th at Liberty,,40.609345,-75.475181,,,,,,
510,1335,7th at Gordon,,40.607904,-75.474485,,,,,,
2763,6300,7th at Walnut,,40.600951,-75.471173,,,,,,
1660,1356,Lehigh at MLK SB,,40.598047,-75.467801,,,,,,
182,4150,6th at St John,,40.59289,-75.465555,,,,,,
2665,4151,Wyoming at 5th,,40.592068,-75.463166,,,,,,
420,4699,4th at Chapel SB,,40.587601,-75.460061,,,,,,
3044,6978,4th at Lexington SB,,40.585643,-75.459711,,,,,,
460,4199,4th at Montgomery SB,,40.583579,-75.458291,,,,,,
2859,3005,4th at Dixon,,40.580154,-75.455876,,,,,,
2860,3006,4th at Baker SB,,40.578607,-75.454911,,,,,,
158,4438,Emaus at 4th SB,,40.577509,-75.455076,,,,,,
1170,4156,Emaus at Law SB,,40.575903,-75.458565,,,,,,
141,4157,Emaus at Church SB,,40.574952,-75.460811,,,,,,
1172,4158,Emaus at 8th SB,,40.573786,-75.463428,,,,,,
1174,4159,Emaus at 9th SB,,40.572741,-75.465801,,,,,,
1180,4138,Emaus at Howard SB,,40.571036,-75.469678,,,,,,
1153,4205,Emaus at 12th SB,,40.568994,-75.471771,,,,,,
1154,4163,Emaus at 26th SB,,40.565677,-75.474787,,,,,,
1158,4165,Emaus at 28th SB,,40.561109,-75.477592,,,,,,
1160,4166,Emaus at 29th SB,,40.558881,-75.479958,,,,,,
1163,4167,Emaus at 30th SB,,40.557426,-75.482306,,,,,,
366,4170,33rd at Berger WB,,40.555241,-75.486541,,,,,,
368,4171,33rd at Lehigh,,40.555889,-75.489123,,,,,,
1661,1357,Lehigh at Regent,,40.553142,-75.491385,,,,,,
1650,1358,Lehigh at Bevin SB,,40.551785,-75.491505,,,,,,
2271,1352,State at Harrison SB,,40.547786,-75.489723,,,,,,
1506,4226,Harrison at Beechwood SB,,40.546717,-75.490581,,,,,,
1508,4225,Harrison at Wenner SB,,40.544604,-75.492511,,,,,,
1510,4224,Harrison at 1st SB,,40.543737,-75.493304,,,,,,
1507,4223,Harrison at Keystone SB,,40.542552,-75.494419,,,,,,
1512,4222,Harrison at 2nd SB,,40.541003,-75.495871,,,,,,
1513,4221,Harrison at 3rd SB,,40.539986,-75.496891,,,,,,
398,4220,3rd at Seem EB,,40.538812,-75.495242,,,,,,
396,4217,3rd at Ridge EB,,40.536998,-75.492058,,,,,,
386,4216,3rd at Main EB,,40.535992,-75.490341,,,,,,
928,1398,Chestnut at 4th WB - Emmaus,,40.535212,-75.491502,,,,,,
930,1399,Chestnut at 5th WB - Emmaus,,40.53439,-75.493588,,,,,,
932,1400,Chestnut at 6th WB - Emmaus,,40.533386,-75.495888,,,,,,
934,1401,Chestnut at 7th WB - Emmaus,,40.532156,-75.498701,,,,,,
936,1402,Chestnut at 8th WB - Emmaus,,40.531388,-75.500484,,,,,,
938,1403,Chestnut at 9th - Emmaus,,40.530611,-75.502263,,,,,,
922,1404,Chestnut at 10th WB - Emmaus,,40.529814,-75.504067,,,,,,
2955,3223,Chestnut at 11th - Emmaus,,40.529086,-75.505752,,,,,,
1975,1198,Northampton at 6th WB,,40.691041,-75.214757,,,,,,
1976,1197,Northampton at 7th WB,,40.690894,-75.218058,,,,,,
1977,1196,Northampton at 9th WB,,40.690751,-75.220921,,,,,,
1962,1195,Northampton at 10th WB,,40.690675,-75.222218,,,,,,
1963,1194,Northampton at 11th WB,,40.690599,-75.224229,,,,,,
1964,1193,Northampton at 12th WB,,40.690507,-75.226183,,,,,,
1965,1192,Northampton at 13th WB,,40.690422,-75.227961,,,,,,
1966,1191,Northampton at 14th WB,,40.690321,-75.230017,,,,,,
1967,1190,Northampton at 15th WB,,40.690232,-75.231994,,,,,,
1968,1189,Northampton at 16th WB,,40.690043,-75.233941,,,,,,
1970,1187,Northampton at 18th WB,,40.689751,-75.236787,,,,,,
1971,1186,Northampton at 19th WB,,40.689538,-75.238928,,,,,,
139,1184,Northampton at 21st WB,,40.689259,-75.242761,,,,,,
306,4928,22nd at Ferry,,40.688498,-75.244978,,,,,,
303,4926,22nd at Fairview SB,,40.687577,-75.244891,,,,,,
313,4927,22nd at Lehigh,,40.686673,-75.244825,,,,,,
230,4925,21st at Lehigh SB,,40.686592,-75.243032,,,,,,
298,5392,21st at Washington,,40.685819,-75.242912,,,,,,
2608,1498,William Penn at 27th WB,,40.68139,-75.251164,,,,,,
2612,1497,William Penn at North WB,,40.680964,-75.254265,,,,,,
2611,1496,William Penn at Hartley WB,,40.678364,-75.259345,,,,,,
2631,1464,William Penn at Kingwood WB,,40.676162,-75.262234,,,,,,
2624,1459,William Penn at Filbar WB,,40.672643,-75.266622,,,,,,
2642,1457,William Penn at Stones Crossing WB,,40.670917,-75.269631,,,,,,
2621,1455,William Penn at Edamy WB,,40.669758,-75.272069,,,,,,
2640,1453,William Penn at Sheridan WB,,40.669039,-75.274305,,,,,,
2628,1451,William Penn at Bethman WB,,40.668237,-75.276542,,,,,,
2618,1447,William Penn at Chipman WB,,40.66676007,-75.28311078,,,,,,
2630,1495,William Penn at Hope WB,,40.66644452,-75.28864904,,,,,,
2619,1494,William Penn at Country Club,,40.6664749,-75.28988641,,,,,,
2622,1493,William Penn at Emrick WB,,40.66710734,-75.29522614,,,,,,
734,1167,Broad at Stefko WB,,40.622091,-75.360869,,,,,,
744,1170,Broad at Wood WB,,40.622139,-75.363662,,,,,,
721,1172,Broad at Elm WB,,40.622191,-75.366621,,,,,,
731,1166,Broad at Linden WB,,40.622259,-75.370821,,,,,,
727,1165,Broad at High WB,,40.622299,-75.373047,,,,,,
90,1164,Broad at Center WB,,40.622328,-75.375633,,,,,,
642,4528,Broadway at 4th,,40.610181,-75.383054,,,,,,
675,4529,Broadway at Wyandotte SB,,40.608951,-75.385101,,,,,,
653,4530,Broadway at Fiot SB,,40.606153,-75.388789,,,,,,
647,4531,Broadway at Bishopthorpe SB,,40.605205,-75.390052,,,,,,
649,4532,Broadway at Clewell SB,,40.603583,-75.391604,,,,,,
659,4533,Broadway at Hoffert WB,,40.602117,-75.393998,,,,,,
645,4534,Broadway at Bergen WB,,40.601641,-75.395478,,,,,,
665,4535,Broadway at Lynn WB,,40.601198,-75.396843,,,,,,
655,4536,Broadway at Green WB,,40.600777,-75.398141,,,,,,
673,4537,Broadway at Springer,,40.599795,-75.401117,,,,,,
651,4538,Broadway at Dodson WB,,40.599424,-75.402277,,,,,,
663,4542,Broadway at Kids Peace WB,,40.597619,-75.407341,,,,,,
669,4543,Susquehanna at Center WB,,40.594678,-75.415225,,,,,,
2316,4512,Susquehanna at Brook WB,,40.594411,-75.417799,,,,,,
2315,4511,Susquehanna at Forest WB,,40.593969,-75.420364,,,,,,
2325,4510,Susquehanna at Fairview WB,,40.593496,-75.422607,,,,,,
2334,4507,Susquehanna at Hillside WB,,40.592702,-75.429686,,,,,,
2339,4505,Susquehanna at Tweed WB,,40.592849,-75.433572,,,,,,
2331,4504,Susquehanna at Halstead WB,,40.592402,-75.43686,,,,,,
51,4503,Susquehanna at Gilmore WB,,40.591923,-75.438747,,,,,,
2322,4502,Susquehanna at Ellsworth WB,,40.591454,-75.442728,,,,,,
2321,4501,Susquehanna at Dauphin,,40.591277,-75.445119,,,,,,
2318,4500,Susquehanna at Carlisle WB,,40.591158,-75.446744,,,,,,
1037,4695,Dixon at 5th WB,,40.580669,-75.457925,,,,,,
450,4697,Dixon at Church WB,,40.580697,-75.459588,,,,,,
1040,4693,Dixon at 7th WB,,40.580774,-75.462965,,,,,,
49,4692,Dixon at Mack WB,,40.580857,-75.467098,,,,,,
531,4691,8th at Juniata NB,,40.586618,-75.467292,,,,,,
522,4689,8th at Cumberland NB,,40.589467,-75.467958,,,,,,
544,4687,8th at St John NB,,40.591448,-75.468922,,,,,,
530,4284,8th at Hamilton,,40.601569,-75.473466,,,,,,
2926,3194,8th at Linden,,40.603049,-75.474149,,,,,,
501,1338,6th at Washington,,40.613913,-75.474994,,,,,,
493,1337,6th at Greenleaf,,40.615512,-75.475763,,,,,,
1403,4286,Greenleaf at 5th EB,,40.616011,-75.474101,,,,,,
1402,4287,Greenleaf at 4th,,40.616671,-75.471699,,,,,,
487,4289,5th at New York NB,,40.621168,-75.473113,,,,,,
483,4290,5th at Florida NB,,40.622274,-75.473031,,,,,,
1192,4249,Fairmont at 6th,,40.624316,-75.473947,,,,,,
1193,4293,Fairmont at Virginia WB,,40.624424,-75.475997,,,,,,
1196,4295,Fairmont at Kay WB,,40.624784,-75.478248,,,,,,
2770,6362,Fairmont at MacArthur WB,,40.624319,-75.48146,,,,,,
27,4120,Whitehall Mall,,40.634427,-75.483843,,,,,,
1878,4298,MacArthur at American NB,,40.637483,-75.485701,,,,,,
1873,4299,Mickley at Mickley NB,,40.640757,-75.485279,,,,,,
1874,4300,MacArthur at Wolf NB,,40.641926,-75.484191,,,,,,
1876,4301,Mickley at Schadt NB,,40.643205,-75.483571,,,,,,
2065,4302,Pine at 4th NB,,40.646392,-75.481269,,,,,,
2061,4303,Pine at 3rd NB - Whitehall,,40.647917,-75.480652,,,,,,
2057,4304,Pine at 2nd NB - Whitehall,,40.64941,-75.480313,,,,,,
178,4262,Pine at Front NB,,40.654391,-75.475422,,,,,,
2058,4306,Pine at 2nd NB - Catasauqua,,40.655201,-75.474439,,,,,,
2062,4307,Pine at 3rd NB - Catasauqua,,40.655831,-75.473688,,,,,,
475,4309,4th at Walnut,,40.657361,-75.473208,,,,,,
419,4310,4th at Chapel WB,,40.658866,-75.475348,,,,,,
410,4311,4th at Arch WB,,40.659738,-75.476603,,,,,,
417,4312,4th at Buttonwood WB,,40.660755,-75.478033,,,,,,
423,4313,4th at Cypress WB,,40.661776,-75.479502,,,,,,
439,4314,4th at Grove NB,,40.662753,-75.480907,,,,,,
1790,4315,Main at Green NB,,40.665474,-75.480846,,,,,,
1747,4317,Main at 1st NB,,40.668021,-75.480814,,,,,,
1757,4318,Main at 2nd NB - Northampton,,40.669352,-75.480868,,,,,,
1760,4319,Main at 4th NB,,40.672772,-75.480971,,,,,,
1832,4320,Main at Washington WB,,40.673499,-75.483039,,,,,,
1766,4321,Main at 7th NB - Northampton,,40.674967,-75.485825,,,,,,
1768,4322,Main at 9th NB,,40.676848,-75.487149,,,,,,
1731,4323,Main at 10th NB,,40.678391,-75.488261,,,,,,
1797,4324,Main at Laubach WB,,40.679599,-75.489805,,,,,,
1733,4326,Main at 13th NB,,40.681047,-75.491593,,,,,,
1735,4328,Main at 14th NB,,40.682449,-75.492982,,,,,,
1737,4330,Main at 15th NB,,40.683658,-75.494173,,,,,,
1739,4332,Main at 16th NB,,40.684812,-75.495336,,,,,,
1741,4334,Main at 17th NB,,40.685811,-75.49632,,,,,,
1743,4336,Main at 18th NB,,40.687553,-75.497651,,,,,,
1745,4338,Main at 19th NB,,40.688902,-75.498356,,,,,,
1751,4342,Main at 22nd NB,,40.692541,-75.500084,,,,,,
1753,4344,Main at 23rd NB,,40.694386,-75.499726,,,,,,
917,4348,Cherryville at Main EB,,40.697402,-75.499496,,,,,,
1535,4350,Held at Cherryville SB,,40.697087,-75.501268,,,,,,
3042,6976,Held at 26th,,40.697423,-75.505798,,,,,,
25,4351,Held at Cherryville NB,,40.697271,-75.500876,,,,,,
3060,6994,Broadway at Cetronia,,40.588227,-75.557198,,,,,,
1901,5535,3756 Nazareth Road,,40.711234,-75.281571,,,,,,
1900,5537,3701 Nazareth Road SB,,40.710557,-75.280821,,,,,,
1895,5443,Nazareth at Kingston SB,,40.706524,-75.276088,,,,,,
1907,5445,Nazareth at Van Buren EB,,40.704019,-75.272539,,,,,,
127,5448,Nazareth at Northgate SB,,40.70144,-75.269313,,,,,,
1984,5682,Old Nazareth at Swanson,,40.698167,-75.265831,,,,,,
129,5683,Old Nazareth at Seip,,40.694719,-75.263858,,,,,,
3164,6627,Northampton at Sales WB,,40.686992,-75.253334,,,,,,
1957,4015,Northampton at Communty WB,,40.686447,-75.256326,,,,,,
1956,4012,Northampton at Kathryn WB,,40.685974,-75.258871,,,,,,
1414,5195,Greenwood at Northampton SB,,40.684932,-75.262077,,,,,,
1407,5238,Greenwood at Charlotte,,40.681472,-75.261675,,,,,,
1408,5236,Greenwood at Hartley SB,,40.679667,-75.261439,,,,,,
2723,6272,William Penn Plaza EB,,40.677603,-75.261723,,,,,,
3013,6947,William Penn Plaza WB,,40.677541,-75.262725,,,,,,
817,5690,Greenwood at Grove SB,,40.675748,-75.260163,,,,,,
1603,5624,Greenwood at Division SB,,40.673691,-75.259017,,,,,,
1248,5305,Greenwood at Oregon,,40.670196,-75.257067,,,,,,
1246,5299,Freemansburg at Milford EB,,40.671053,-75.253819,,,,,,
1233,5300,Freemansburg at Dunkle EB,,40.671945,-75.252042,,,,,,
215,5301,Freemansburg at Hobson EB,,40.672386,-75.251203,,,,,,
1242,5302,Freemansburg at Keane EB,,40.673305,-75.249496,,,,,,
1223,5303,Freemansburg at 27th EB,,40.674438,-75.247218,,,,,,
3160,6623,25th at Dearborn NB,,40.676594,-75.246385,,,,,,
3161,6624,25th at Lennox NB,,40.677956,-75.246692,,,,,,
3162,6625,25th at Birch NB,,40.680012,-75.247134,,,,,,
3163,6626,25th at William Penn NB,,40.681701,-75.247879,,,,,,
2650,5196,Wood at 25th EB,,40.685828,-75.250465,,,,,,
1955,4014,Northampton at Ferry EB,,40.687886,-75.248587,,,,,,
1949,1217,Northampton at 22nd EB,,40.688916,-75.245124,,,,,,
1690,5927,Rt 309 at Elberta SB,,40.66259,-75.603914,,,,,,
2164,6016,Rt 309 at Ritters SB,,40.659652,-75.602118,,,,,,
2158,6017,Rt 309 at Pennsylvania SB,,40.656825,-75.601031,,,,,,
2156,6018,Rt 309 at Levans SB,,40.654171,-75.599999,,,,,,
2151,6019,Rt 309 at Golden SB,,40.650221,-75.597957,,,,,,
2148,6020,Rt 309 at View SB,,40.647561,-75.595082,,,,,,
2166,6021,Rt 309 at Shankweiler SB,,40.645736,-75.593317,,,,,,
2145,6022,Rt 309 at Boxwood SB,,40.64422,-75.59176,,,,,,
2171,6023,Rt 309 at Wolfs Crossing SB,,40.641121,-75.58896,,,,,,
2154,6024,Rt 309 at Kernsville SB,,40.635357,-75.585125,,,,,,
2157,6025,Rt 309 at Lime Kiln SB,,40.628238,-75.58243,,,,,,
2149,6026,Rt 309 at Huckleberry SB,,40.619461,-75.580742,,,,,,
2143,6027,Rt 309 at Chapmans EB,,40.612335,-75.571549,,,,,,
2146,6028,Walbert at 309 EB,,40.611525,-75.567771,,,,,,
2906,3174,Walbert at Ridgeview EB,,40.611433,-75.562923,,,,,,
2924,3192,Walbert at Pond EB,,40.614555,-75.53914,,,,,,
2526,4085,Walbert at Cedar Crest EB,,40.615311,-75.535158,,,,,,
2541,4477,Walbert at 28th EB,,40.616062,-75.527741,,,,,,
2540,4476,Walbert at 27th EB,,40.616207,-75.525475,,,,,,
2538,4475,Walbert at 26th EB,,40.616394,-75.523205,,,,,,
2536,4474,Walbert at 25th EB,,40.616574,-75.520922,,,,,,
2534,4473,Walbert at 24th EB,,40.616758,-75.518724,,,,,,
2543,4470,Walbert at Whitehall EB,,40.616991,-75.515779,,,,,,
2530,4471,Walbert at 21st EB,,40.616958,-75.5113,,,,,,
2528,4469,Walbert at 19th EB,,40.616244,-75.50686,,,,,,
279,4468,19th at Fairmont SB,,40.61476,-75.505692,,,,,,
63,4467,19th at Pennsylvania SB,,40.613129,-75.504912,,,,,,
284,4466,19th at Highland SB,,40.611575,-75.504179,,,,,,
287,4465,19th at Livingston SB,,40.609954,-75.503427,,,,,,
281,4464,19th at Greenleaf SB,,40.608359,-75.502661,,,,,,
291,4463,19th at Washington SB,,40.606754,-75.501903,,,,,,
289,4462,19th at Tilghman SB,,40.605502,-75.501296,,,,,,
277,4461,19th at Allen SB,,40.603787,-75.50048,,,,,,
285,4460,19th at Liberty,,40.602549,-75.499887,,,,,,
1675,4459,Liberty at 18th EB,,40.602934,-75.497691,,,,,,
1673,4458,Liberty at 17th EB,,40.603494,-75.495647,,,,,,
226,4457,Liberty at 16th EB,,40.603875,-75.49428,,,,,,
270,4456,16th at Allen,,40.60534,-75.49394,,,,,,
579,4455,Allen at 15th EB,,40.605923,-75.492085,,,,,,
577,4454,Allen at 14th EB,,40.606484,-75.490048,,,,,,
133,4453,Allen at 13th EB,,40.607064,-75.487937,,,,,,
575,4452,Allen at 12th EB,,40.607662,-75.485765,,,,,,
573,4451,Allen at 11th EB,,40.608167,-75.483901,,,,,,
571,4450,Allen at 10th EB,,40.608707,-75.481978,,,,,,
585,4449,Allen at 9th EB,,40.609395,-75.479532,,,,,,
559,4484,9th at Liberty,,40.608257,-75.478883,,,,,,
558,4485,9th at Gordon,,40.606918,-75.478232,,,,,,
556,4486,9th at Chew,,40.605535,-75.477589,,,,,,
2436,1308,Turner at 5th,,40.606014,-75.469304,,,,,,
1692,4801,5th at Linden,,40.604819,-75.468703,,,,,,
2338,4555,Susquehanna at Race EB,,40.590243,-75.458068,,,,,,
2308,4557,Susquehanna at 2nd EB,,40.590358,-75.455999,,,,,,
2330,4558,Susquehanna at Front EB,,40.590577,-75.453363,,,,,,
2312,4559,Susquehanna at Albert EB,,40.590747,-75.45093,,,,,,
2314,4560,Susquehanna at Bradford EB,,40.590875,-75.448996,,,,,,
2319,4561,Susquehanna at Carlisle EB,,40.591017,-75.446954,,,,,,
2323,4562,Susquehanna at Ellsworth EB,,40.591301,-75.443041,,,,,,
2327,4563,Susquehanna at Filbert,,40.591442,-75.441045,,,,,,
374,4755,3rd at Chestnut SB,,40.634949,-75.470794,,,,,,
393,4756,3rd at Park,,40.632636,-75.470472,,,,,,
57,4757,Fullerton at Pershing SB,,40.629111,-75.470026,,,,,,
1340,4760,Fullerton at Kimmett SB,,40.626195,-75.469238,,,,,,
1337,4759,Fullerton at Fairmont SB,,40.624743,-75.467667,,,,,,
1343,4762,Fullerton at Lincoln SB,,40.62225,-75.465009,,,,,,
1338,4764,Fullerton at Jordan,,40.620047,-75.462603,,,,,,
1330,4766,Front at Tilghman SB,,40.616396,-75.460377,,,,,,
1312,4767,Front at Allen SB,,40.615066,-75.459808,,,,,,
1322,4768,Front at Liberty SB,,40.613635,-75.459198,,,,,,
1318,4769,Front at Gordon,,40.612328,-75.458633,,,,,,
224,4770,Gordon at Ridge WB,,40.611729,-75.460391,,,,,,
2758,6293,Gordon at 2nd WB,,40.611193,-75.462351,,,,,,
2761,6296,Gordon at 3rd EB,,40.610783,-75.463839,,,,,,
2765,6354,Linden at Race,,40.606368,-75.462741,,,,,,
2896,3165,Linden at 4th,,40.605481,-75.465971,,,,,,
557,4103,9th at Court,,40.602346,-75.476088,,,,,,
1580,4353,Jackson at 8th,,40.598836,-75.472494,,,,,,
538,4241,8th at Pittston SB,,40.593202,-75.469883,,,,,,
533,4240,8th at Lehigh,,40.592039,-75.469396,,,,,,
1645,1372,Lehigh at 9th WB - Allentown,,40.590796,-75.471203,,,,,,
1666,1382,Lehigh at Wyoming,,40.589441,-75.473261,,,,,,
2667,4281,Wyoming at 10th WB,,40.589079,-75.474451,,,,,,
2662,4238,Wyoming at 11th WB,,40.588962,-75.475854,,,,,,
2664,4237,Wyoming at 12th WB,,40.588781,-75.478117,,,,,,
135,4232,Jefferson at Wyoming SB,,40.588284,-75.479433,,,,,,
1583,4233,Jefferson at Cumberland SB,,40.587033,-75.479243,,,,,,
1586,4234,Jefferson at Lehigh Parkway SB,,40.584309,-75.478835,,,,,,
1582,4235,Jefferson at 12th SB,,40.583227,-75.478984,,,,,,
29,6232,Jefferson at Lehigh SB,,40.580143,-75.480891,,,,,,
2584,4297,Mickley at Royal,,40.643411,-75.490529,,,,,,
130,6034,Royal at Sackett,,40.644586,-75.489017,,,,,,
2583,5986,Whitehall Shopping Center NB,,40.646821,-75.490886,,,,,,
1868,5987,Macarthur at Sutler Parking Lot 2570,,40.644582,-75.495111,,,,,,
131,5988,MacArthur at Sutler Parking Lot 2548,,40.644025,-75.494853,,,,,,
69,4871,Whitehall Square North,,40.637966,-75.490775,,,,,,
2596,4825,Whitehall Square South,,40.636759,-75.491712,,,,,,
2094,6157,Presidential at Cornerstone WB,,40.634606,-75.491892,,,,,,
2100,6156,Presidential at Mickley WB,,40.63431291,-75.48959582,,,,,,
2035,4093,15th at Walnut SB,,40.596501,-75.487531,,,,,,
269,4144,15th at Union SB,,40.595282,-75.486958,,,,,,
2695,6245,15th at Fairview SB,,40.594113,-75.486389,,,,,,
2698,6248,15th at Elm SB,,40.593028,-75.485871,,,,,,
2881,3153,12th at Lehigh,,40.58232,-75.477688,,,,,,
2854,3140,7th at Eberhart NB,,40.650783,-75.49560986,,,,,,
2837,3038,7th at Crescent NB,,40.652901,-75.496862,,,,,,
2836,3037,7th at Lehigh NB,,40.655015,-75.497172,,,,,,
1640,4063,Lehigh at 5th EB,,40.656367,-75.493727,,,,,,
2844,3062,Lehigh at 4th EB,,40.657151,-75.491489,,,,,,
2843,3061,Lehigh at 3rd EB,,40.65789343,-75.48950656,,,,,,
185,6048,Lehigh at 2nd EB,,40.658654,-75.487449,,,,,,
2851,3081,Front at South NB,,40.66091983,-75.48797939,,,,,,
2850,3080,Front at Iron NB,,40.66213128,-75.48815079,,,,,,
2849,3079,Front at Center NB,,40.664977,-75.488383,,,,,,
2848,3078,Front at North NB,,40.666433,-75.48846,,,,,,
2847,3077,2nd at Hokendauqua NB,,40.66796942,-75.48853528,,,,,,
2846,3076,2nd at Schreiber NB,,40.66922809,-75.48899106,,,,,,
342,6075,2nd at Center NB,,40.67143245,-75.48974878,,,,,,
2845,3074,2nd at Coplay NB,,40.67284833,-75.49128199,,,,,,
344,6073,2nd at Chestnut NB,,40.674048,-75.49267,,,,,,
972,4073,Chestnut at 3rd WB - Coplay,,40.673757,-75.493863,,,,,,
974,4071,Chestnut at 5th WB - Coplay,,40.67232102,-75.49599181,,,,,,
976,4069,Chestnut at 7th WB - Coplay,,40.67099716,-75.49794518,,,,,,
978,4067,Chestnut at 9th WB - Coplay,,40.66964941,-75.49992467,,,,,,
970,4066,Chestnut at 11th WB - Coplay,,40.6683681,-75.50184797,,,,,,
186,6039,Ruch at Chestnut,,40.66728,-75.503418,,,,,,
2217,6038,Ruch at Poplar,,40.66792883,-75.50410415,,,,,,
2215,6036,Ruch at Oak SB,,40.66882717,-75.50463566,,,,,,
2218,6037,Ruch at Walnut,,40.66983583,-75.50524539,,,,,,
2213,6035,Ruch at Ash SB,,40.67073549,-75.50580983,,,,,,
2957,3225,5290 W Coplay EB,,40.67340094,-75.50619755,,,,,,
2958,3226,W Coplay at Coplay EB,,40.67656486,-75.5032878,,,,,,
2959,3227,Coplay at Coplay NB,,40.67821728,-75.50286699,,,,,,
2960,3228,Coplay at Main,,40.689065,-75.507516,,,,,,
2961,3229,Main at Hillside WB,,40.68569,-75.516265,,,,,,
2962,3230,Main at Spruce WB,,40.683963,-75.522345,,,,,,
2963,3231,Main at Edna WB,,40.68274,-75.526798,,,,,,
105,5993,Main at Church WB,,40.680393,-75.529743,,,,,,
2903,3171,Levans at Old Post SB,,40.678039,-75.548854,,,,,,
2899,3167,Levans at Mauch Chunk WB,,40.664845,-75.563933,,,,,,
2953,3221,Levans at Wolf Hollow WB,,40.655299,-75.590546,,,,,,
2901,3169,Levans at Rt 309 WB,,40.65449,-75.599673,,,,,,
2159,6015,Rt 309 at Sand Spring NB,,40.668188,-75.60699,,,,,,
2168,5964,Rt 309 at Spruce NB,,40.671159,-75.609352,,,,,,
2199,5963,Rt 873 at Schneck,,40.674204,-75.612885,,,,,,
2209,5962,Rt 873 at William Penn NB,,40.6773,-75.613929,,,,,,
2186,5961,Rt 873 at Foxcroft NB,,40.682307,-75.613249,,,,,,
2182,5960,Rt 873 at Crestwood NB,,40.685766,-75.612229,,,,,,
2205,5959,Rt 873 at Washington NB,,40.68711951,-75.61096298,,,,,,
197,5762,Rt 873 at Bellview,,40.690518,-75.60873,,,,,,
98,5957,5629 Rt 873 NB,,40.693829,-75.609526,,,,,,
2197,5956,Rt 873 at Park NB,,40.69471706,-75.60964708,,,,,,
2211,5955,Rt 873 at Woodland NB,,40.698189,-75.60921,,,,,,
2192,5954,Rt 873 at Glencrest SB,,40.70201947,-75.61325727,,,,,,
1687,5883,Rt 873 at Oakwood WB,,40.70604226,-75.62060827,,,,,,
2196,5953,Rt 873 at Terrace NB,,40.71224626,-75.62387068,,,,,,
1686,5929,Rt 873 at Oak NB,,40.720307,-75.62119,,,,,,
2177,5952,Rt 873 at Church NB - Washington Twp,,40.72274387,-75.61747703,,,,,,
2193,5958,Rt 873 at Hill NB,,40.729018,-75.618017,,,,,,
2972,3232,Rt 873 at Star NB,,40.732988,-75.616944,,,,,,
2188,5951,Rt 873 at Friedens SB,,40.73556497,-75.61539836,,,,,,
100,5940,Rt 873 at Grove,,40.743156,-75.6106,,,,,,
2202,5902,Rt 873 at South NB,,40.746577,-75.610873,,,,,,
2189,5948,Rt 873 at Franklin NB,,40.74856633,-75.61171161,,,,,,
2178,5947,Rt 873 at Church NB - Slatington,,40.75036721,-75.61248315,,,,,,
2175,5945,Rt 873 at Dowell NB,,40.751387,-75.612764,,,,,,
99,5944,Rt 873 at Walnut EB,,40.75251,-75.606435,,,,,,
1773,5943,Main at Canal EB,,40.75334485,-75.60088723,,,,,,
1775,5942,Main at Cherry EB,,40.75445123,-75.59850574,,,,,,
2204,5949,Main at Best EB,,40.75665619,-75.59485361,,,,,,
3085,6093,Best at Chestnut NB,,40.760719,-75.594505,,,,,,
3089,6095,Rt 145 at Valley Dr NB,,40.770331,-75.59896,,,,,,
3087,6097,Rt 145 at Rt 248 NB,,40.781661,-75.603548,,,,,,
3081,7403,Delaware at 1st EB,,40.799657,-75.615002,,,,,,
3083,7420,3rd at Palmerton Park,,40.802063,-75.61002,,,,,,
2097,4827,Presidential at Johnson,,40.635313,-75.496495,,,,,,
70,4875,Madison at Peachtree,,40.636103,-75.497926,,,,,,
310,4090,Madison at Hoover,,40.636231,-75.500037,,,,,,
2096,4874,Presidential at Hoover,,40.635503,-75.499858,,,,,,
2102,4873,Presidential at Peachtree,,40.635291,-75.497377,,,,,,
2095,4876,Presidential at Eisenhower,,40.635037,-75.495271,,,,,,
2104,4872,Presidential at Cornerstone EB,,40.634589,-75.491816,,,,,,
2099,6169,Presidential at Mickley EB,,40.634288,-75.489612,,,,,,
1870,4822,Jordan at Mickley,,40.621164,-75.483375,,,,,,
1998,4869,Overlook at Mickley SB,,40.621382,-75.485046,,,,,,
1995,4868,Overlook at Forest WB,,40.619857,-75.487843,,,,,,
1999,4867,Overlook at Olympic,,40.620072,-75.488966,,,,,,
1993,4866,Overlook at Corinth WB,,40.620651,-75.491909,,,,,,
228,4865,13th at Overlook SB,,40.620477,-75.493467,,,,,,
250,4864,13th at Fairmont SB,,40.618204,-75.493083,,,,,,
257,4863,13th at Pennsylvania SB,,40.616634,-75.492332,,,,,,
251,4862,13th at Highland,,40.615018,-75.491562,,,,,,
2968,3238,Highland at 14th,,40.614421,-75.493459,,,,,,
2969,3239,Roth at Sumner SB,,40.610809,-75.490197,,,,,,
242,4856,Washington at 12th EB,,40.610616,-75.487161,,,,,,
2574,4855,Washington at 11th EB,,40.611114,-75.485329,,,,,,
2572,4854,Washingtonat 10th EB,,40.611657,-75.483374,,,,,,
2577,4853,Washington at 9th EB,,40.612315,-75.480965,,,,,,
561,4904,9th at Tilghman,,40.610908,-75.480133,,,,,,
555,4905,9th at Allen,,40.609559,-75.479491,,,,,,
1680,4112,Linden at 11th,,40.601533,-75.480279,,,,,,
1681,4113,Linden at 12th,,40.601001,-75.482239,,,,,,
1682,4114,Linden at 13th,,40.600317,-75.484645,,,,,,
1683,4115,Linden at 14th,,40.599819,-75.48654,,,,,,
267,4878,15th at Linden,,40.598898,-75.488664,,,,,,
266,4879,15th at Hamilton SB,,40.598088,-75.488281,,,,,,
2454,4880,Union at 16th WB,,40.594724,-75.488779,,,,,,
2456,4881,Union at 17th WB,,40.594138,-75.490925,,,,,,
2458,4882,Union at 18th WB,,40.593549,-75.493041,,,,,,
2516,4883,Union at Lafayette WB,,40.592699,-75.496141,,,,,,
2519,4884,Union at St Elmo WB,,40.592141,-75.498176,,,,,,
2460,4885,Union at 21st,,40.591825,-75.499324,,,,,,
2462,4886,Union at 22nd WB,,40.591245,-75.501421,,,,,,
2464,4887,Union at 23rd WB,,40.590666,-75.503515,,,,,,
2465,4888,Union at 24th,,40.590094,-75.505611,,,,,,
326,4889,24th at Fairview SB,,40.588919,-75.505301,,,,,,
324,4890,24th at Elm SB,,40.587797,-75.504774,,,,,,
329,4891,24th at South SB,,40.586688,-75.504243,,,,,,
330,4892,24th at Texas,,40.584405,-75.503179,,,,,,
2352,4893,Texas at 25th WB,,40.583894,-75.505333,,,,,,
2357,4895,Texas at Ott WB,,40.583317,-75.508327,,,,,,
2353,4896,Flexler at College SB,,40.582329,-75.510426,,,,,,
1285,4897,Flexler at Green Acres,,40.580579,-75.511511,,,,,,
1278,4898,Flexler at Andrea SB,,40.579269,-75.512344,,,,,,
1283,4900,Flexler at Debbie SB,,40.576412,-75.514227,,,,,,
1288,4901,Flexler at Lindberg NB,,40.573795,-75.515926,,,,,,
1279,4902,Flexler at Catherine,,40.572946,-75.516246,,,,,,
1677,4903,Lincoln at Americus WB,,40.570829,-75.517883,,,,,,
882,4025,Cedar Crest at Columbus SB,,40.569941,-75.519271,,,,,,
2036,4094,1245 Professional Park SB,,40.567085,-75.516422,,,,,,
2740,6311,1255 Professional Park SB,,40.565734,-75.515994,,,,,,
2739,6310,1251 Professional Park SB,,40.565214,-75.516901,,,,,,
2711,9000,LVHN Cedar Crest 1250 Building,,40.566505,-75.520324,,,,,,
456,4652,4th at Lynn WB,,40.612034,-75.350427,,,,,,
502,4027,Daly at Minsi Trail WB,,40.613351,-75.357263,,,,,,
137,5141,8th at Broad NB,,40.622904,-75.394886,,,,,,
550,5143,8th at Union NB,,40.625181,-75.394825,,,,,,
2888,3161,Catasauqua at Holly WB,,40.640066,-75.401693,,,,,,
2891,3163,Catasauqua at Westfield WB,,40.639903,-75.403821,,,,,,
2656,5213,Westgate at Catasauqua NB,,40.64017,-75.407269,,,,,,
2657,5212,Westgate at Bathgate NB,,40.641781,-75.407911,,,,,,
1721,5225,LVHN Muhlenberg 1770 Building NB,,40.644848,-75.410016,,,,,,
2227,5227,Schoenersville at Industrial NB,,40.652121,-75.412871,,,,,,
2221,5180,Schoenersville at Valley Center NB,,40.654548,-75.415136,,,,,,
43,5179,Avenue C at Schoenersville WB,,40.657391,-75.418892,,,,,,
604,5177,2124 Avenue C,,40.655844,-75.422523,,,,,,
992,4784,City Line at Avenue C,,40.652419,-75.426367,,,,,,
991,4785,City Line at Airport,,40.652182,-75.429296,,,,,,
45,1006,LVIA - Airport Transit Center,,40.65244747,-75.43309893,,,,,,
2091,4786,1000 Postal WB,,40.645231,-75.435108,,,,,,
2090,4787,Postal at Marcon WB,,40.645437,-75.439181,,,,,,
2088,4725,Postal at Hangar WB,,40.644139,-75.446381,,,,,,
2086,6065,901 Postal WB,,40.642861,-75.448823,,,,,,
183,4726,Postal at Irving WB,,40.641197,-75.450185,,,,,,
1844,4728,Marcon at Roble SB,,40.638964,-75.451632,,,,,,
1842,4727,Marcon at Irving EB,,40.639532,-75.448184,,,,,,
2816,6370,Daly at Sands WB,,40.613258,-75.363051,,,,,,
2718,6265,3rd at Hayes WB,,40.612537,-75.366291,,,,,,
2716,6263,2nd at Founders Way WB,,40.613273,-75.368542,,,,,,
2714,6261,Polk at 2nd SB,,40.612881,-75.373231,,,,,,
2719,6266,Columbia at Webster,,40.612559,-75.376654,,,,,,
2440,4662,Union at 10th WB,,40.625428,-75.397278,,,,,,
2444,4664,Union at 12th WB,,40.625472,-75.400261,,,,,,
2448,4666,Union at 14th WB,,40.625495,-75.40305,,,,,,
2450,4667,Union at 15th WB - Bethlehem,,40.625532,-75.40428,,,,,,
2514,4668,Union at Mt Airy WB,,40.625565,-75.406609,,,,,,
2493,4669,Union at Highland WB,,40.625836,-75.408477,,,,,,
2513,4670,Union at Raymond,,40.628015,-75.409858,,,,,,
2480,4671,Union at Beverly WB,,40.627983,-75.412084,,,,,,
47,4672,Union at Pennsylvania WB,,40.627568,-75.414936,,,,,,
2499,4673,Union at Eaton,,40.626713,-75.418171,,,,,,
2482,4674,Union at Club WB,,40.626174,-75.421371,,,,,,
2523,4675,Union at Van Buren WB,,40.625954,-75.423732,,,,,,
2521,4676,Union at Tacoma WB,,40.625739,-75.426106,,,,,,
2518,4677,Union at Sherman WB,,40.625544,-75.428097,,,,,,
2512,4678,Union at Quebec WB,,40.625342,-75.430399,,,,,,
2510,4679,Union at Plymouth WB,,40.625166,-75.432522,,,,,,
2504,4680,Union at Maxwell WB,,40.624841,-75.435877,,,,,,
2498,4681,Union at Kiowa WB,,40.624632,-75.438074,,,,,,
2496,4682,Union at Jerome WB,,40.624432,-75.440266,,,,,,
2494,4683,Union at Ingram,,40.62418893,-75.44269464,,,,,,
2491,4685,Union at Godfrey WB,,40.62413,-75.446228,,,,,,
2487,4634,Union at Fenwick WB,,40.624014,-75.449267,,,,,,
2500,4640,Union at Home Run SB,,40.62257635,-75.45103336,,,,,,
2485,4641,Union at Ellsworth SB,,40.62103007,-75.45251999,,,,,,
2375,4023,Tilghman at Front WB,,40.616198,-75.460656,,,,,,
2380,4022,Tilghman at Ridge WB,,40.615728,-75.462365,,,,,,
2373,4021,Tilghman at 2nd,,40.615207,-75.464283,,,,,,
2377,4020,Tilghman at Jordan WB,,40.613998,-75.468785,,,,,,
471,4548,4th at Tilghman SB,,40.61341,-75.470003,,,,,,
409,4549,4th at Allen SB,,40.612313,-75.469506,,,,,,
453,4550,4th at Liberty SB,,40.610971,-75.468858,,,,,,
1537,4544,4th at Gordon SB,,40.609628,-75.468205,,,,,,
221,4552,4th at Chew SB,,40.60839,-75.467614,,,,,,
473,4553,4th at Turner SB,,40.607001,-75.466954,,,,,,
455,4554,4th at Linden SB,,40.60559,-75.466251,,,,,,
1432,1065,Hamilton at 18th WB,,40.59612,-75.494265,,,,,,
2671,1610,Hamilton at 19th WB,,40.595428,-75.496794,,,,,,
2672,1611,Hamilton at 20th WB,,40.594989,-75.498342,,,,,,
2673,1612,Hamilton at 21st WB,,40.594363,-75.500616,,,,,,
2674,1613,Hamilton at 22nd WB,,40.593755,-75.502774,,,,,,
2675,1614,Hamilton at 23rd WB,,40.593256,-75.504711,,,,,,
2676,1615,Hamilton at 24th WB,,40.592587,-75.506776,,,,,,
2677,1616,Hamilton at 25th WB,,40.592001,-75.508998,,,,,,
165,4095,Cedar Crest at Lehigh Valley Hospital,,40.565301,-75.518488,,,,,,
1353,5612,Garibaldi at Webster,,40.883185,-75.218141,,,,,,
1352,5613,Garibaldi at Washington,,40.882135,-75.217245,,,,,,
1351,5614,Garibaldi at Jewel,,40.881456,-75.216702,,,,,,
1349,5615,Garibaldi at Columbus,,40.880482,-75.215886,,,,,,
1348,5616,Garibaldi at Chestnut,,40.878927,-75.214629,,,,,,
1350,5617,Garibaldi at Dewy,,40.875962,-75.214257,,,,,,
1033,5618,Division at 3rd,,40.874509,-75.213427,,,,,,
1034,5620,Division at Columbia,,40.871086,-75.212294,,,,,,
1036,5621,Division at Pennsylvania,,40.869222,-75.211714,,,,,,
2041,5622,Pennsylvania at 4th,,40.869078,-75.210075,,,,,,
2033,5623,Pennsylvania at 1st,,40.869129,-75.207125,,,,,,
294,5582,1st at Municipal,,40.867592,-75.206392,,,,,,
1848,5579,Market at 2nd WB,,40.867056,-75.207671,,,,,,
1852,5577,Market at 4th EB,,40.867218,-75.210038,,,,,,
1856,5575,Market at 6th,,40.867347,-75.212055,,,,,,
1860,5573,Market at 8th WB,,40.867565,-75.215355,,,,,,
1846,5571,Market at 11th EB,,40.867796,-75.218935,,,,,,
641,5570,Blue Valley at American Bangor WB,,40.871317,-75.232422,,,,,,
1355,5588,Rt 512 at Park WB,,40.871166,-75.241591,,,,,,
87,5566,Pennsylvania at Robinson WB,,40.868725,-75.254759,,,,,,
2049,5565,Pennsylvania at Lobb EB,,40.868315,-75.256255,,,,,,
2043,5564,Pennsylvania at B WB,,40.867797,-75.258152,,,,,,
2045,5563,Pennsylvania at C WB,,40.867412,-75.259561,,,,,,
2797,6539,Pennsylvania at George WB,,40.863951,-75.266621,,,,,,
2791,6480,Penn at Sanders SB,,40.859241,-75.273805,,,,,,
1649,5561,Lehigh at Alpha WB,,40.852328,-75.285046,,,,,,
768,5560,Broadway at Center SB,,40.848321,-75.291966,,,,,,
781,5558,Broadway at West,,40.845539,-75.292674,,,,,,
764,5557,Broadway at 6th,,40.844154,-75.293127,,,,,,
763,5556,Broadway at 5th SB,,40.842903,-75.293846,,,,,,
754,5554,Broadway at 3rd SB,,40.841467,-75.294793,,,,,,
748,5553,Broadway at 2nd SB,,40.840823,-75.295226,,,,,,
46,4791,Postal at Irving EB,,40.641661,-75.449951,,,,,,
2085,6066,901 Postal EB,,40.642772,-75.448717,,,,,,
2087,4790,Postal at Hangar EB,,40.644039,-75.446261,,,,,,
2092,4789,981 Postal,,40.644862,-75.443799,,,,,,
2089,4788,Postal at Marcon EB,,40.645274,-75.438899,,,,,,
1841,4794,1000 Postal EB,,40.645111,-75.435286,,,,,,
596,4780,Avenua A at Airport,,40.649426,-75.429461,,,,,,
599,4782,2315 Avenue A,,40.649608,-75.427531,,,,,,
600,4781,2255 Avenue A,,40.649802,-75.425507,,,,,,
598,6131,Avenue B at Avenue A,,40.650654,-75.423504,,,,,,
44,4783,Avenue B at City Line,,40.652188,-75.423735,,,,,,
603,5176,Avenue C at City Line,,40.652663,-75.425901,,,,,,
605,5222,2123 Avenue C,,40.655651,-75.422621,,,,,,
606,5224,Avenue C at Schoenersville EB,,40.657078,-75.419201,,,,,,
2225,5228,Schoenersville at Vallley Center SB,,40.655797,-75.416656,,,,,,
2224,5181,Schoenersville at Industrial SB,,40.652414,-75.413502,,,,,,
1718,5184,LVHN Muhlenberg 1770 Building SB,,40.645159,-75.410221,,,,,,
1719,5183,LVHN Muhlenberg 1770 Building SB 2,,40.643867,-75.409993,,,,,,
3020,6954,LVHN Muhlenberg Westgate Entrance EB,,40.643775,-75.407331,,,,,,
2892,3164,Catasauqua at Westfield EB,,40.639804,-75.403279,,,,,,
2889,3162,Catasauqua at Holly EB,,40.639921,-75.401555,,,,,,
2226,5210,Schoenersville at Illicks Mill SB,,40.638684,-75.398246,,,,,,
518,5148,8th at Bradford SB,,40.635868,-75.395948,,,,,,
542,6160,8th at Eaton SB,,40.633223,-75.395623,,,,,,
524,5151,8th at Martin Tower SB,,40.630139,-75.395225,,,,,,
551,5144,8th at Union SB,,40.625067,-75.395005,,,,,,
520,5142,8th at Broad SB,,40.623033,-75.395058,,,,,,
489,4028,Daly at Minsi Trail EB,,40.612809,-75.356306,,,,,,
427,5668,4th at Lynn EB,,40.61189565,-75.34893973,,,,,,
2818,6668,4th at Emery EB,,40.611773,-75.345143,,,,,,
1538,6188,Hellertown at Shimersville SB,,40.609458,-75.339961,,,,,,
1553,5667,Hellertown and Commerce SB,,40.603129,-75.341244,,,,,,
1539,6189,Hellertown at Silvex,,40.598455,-75.340781,,,,,,
1795,6190,Main at Kichline,,40.594338,-75.340359,,,,,,
1796,6191,Main at Kiernan SB,,40.593076,-75.340211,,,,,,
1817,6192,Main at Roth SB,,40.591605,-75.340043,,,,,,
1793,6193,Main at High SB,,40.590249,-75.340222,,,,,,
1781,6195,Main at Clark SB,,40.588008,-75.341092,,,,,,
1824,6197,Main at Thomas SB,,40.584802,-75.341368,,,,,,
1783,6199,Main at Depot SB,,40.582023,-75.341144,,,,,,
1785,6200,Main at Warren SB,,40.580076,-75.340996,,,,,,
1808,6201,Main at Penn SB,,40.577611,-75.340781,,,,,,
1820,6202,Main at Saucon SB,,40.576291,-75.340688,,,,,,
1803,6203,Main at Magnolia,,40.575432,-75.340654,,,,,,
1810,6204,Main at Pine SB,,40.574328,-75.340844,,,,,,
1829,6205,Main at Walnut SB,,40.572645,-75.341388,,,,,,
1788,6206,Main at Polk Valley SB,,40.567359,-75.339817,,,,,,
850,5221,Catasauqua at Airport,,40.640108,-75.432942,,,,,,
855,5220,Catasauqua at Valley Plaza Entrance NB,,40.640821,-75.430456,,,,,,
42,5219,Catasauqua at Pennsylvania EB,,40.642426,-75.425623,,,,,,
851,5218,Catasauqua at Aster EB,,40.642417,-75.423777,,,,,,
856,5217,Catasauqua at Woodmont,,40.642078,-75.419717,,,,,,
853,5216,Catasauqua at Allwood EB,,40.641561,-75.417561,,,,,,
852,5215,Catasauqua at Dahlia,,40.641007,-75.415235,,,,,,
854,5214,Catasauqua at Kelchner EB,,40.640368,-75.412429,,,,,,
2654,5211,Westgate at LVHN EB,,40.643206,-75.406522,,,,,,
174,4578,4th at New EB,,40.610407,-75.378173,,,,,,
218,4583,4th at Taylor EB,,40.610491,-75.374585,,,,,,
434,4587,4th at Filmore EB,,40.610576,-75.371743,,,,,,
416,4591,4th at Buchanan EB,,40.610655,-75.369005,,,,,,
442,4594,4th at Hayes EB,,40.610738,-75.365868,,,,,,
444,4598,4th at Hill EB,,40.610954,-75.362668,,,,,,
446,4600,4th at Hobart EB,,40.611184,-75.359416,,,,,,
426,4602,4th at Edward EB,,40.611323,-75.357356,,,,,,
481,4604,4th at William EB,,40.611474,-75.354942,,,,,,
3066,7000,3967 Commerce Center,,40.611814,-75.309755,,,,,,
3067,7001,3419 Commerce,,40.60881629,-75.3166467,,,,,,
2737,6350,3025 Commerce Center,,40.607912,-75.32417019,,,,,,
2877,3149,2785 Commerce WB,,40.60745085,-75.3305355,,,,,,
2875,3147,Commerce at Gilchrist WB,,40.604149,-75.336064,,,,,,
3117,5017,Main at Freemansburg Bridge NB,,40.623198,-75.335126,,,,,,
3116,5013,Main at Monroe NB,,40.626203,-75.335027,,,,,,
3115,5012,Main at Washington NB,,40.629211,-75.335238,,,,,,
3114,5011,Washington at Chestnut WB,,40.62955,-75.338682,,,,,,
3113,5010,Washington at Freemansburg WB,,40.629732,-75.341853,,,,,,
2012,5025,Pembroke at Clearfield WB,,40.629599,-75.344205,,,,,,
2014,5021,Pembroke at Roosevelt WB,,40.629341,-75.348219,,,,,,
18,5019,Pembroke at Marvine,,40.629198,-75.350599,,,,,,
2008,5016,Pembroke at Bethlehem WB,,40.628949,-75.354436,,,,,,
2653,5027,Pembroke at Jennings WB,,40.628744,-75.357647,,,,,,
1724,4645,Lynn at 8th,,40.608924,-75.349315,,,,,,
53,4648,Argus at Lynn,,40.607432,-75.349099,,,,,,
222,4649,Argus at Lynfield,,40.609174,-75.347606,,,,,,
496,4030,6th at Lynn,,40.609968,-75.349202,,,,,,
2874,3146,Commerce at Gilchrist EB,,40.603675,-75.338475,,,,,,
2876,3148,2785 Commerce EB,,40.607273,-75.330471,,,,,,
2964,3234,Knox at Sullivan Trail SB,,40.710867,-75.217886,,,,,,
815,4937,Cattell at Burke SB,,40.704268,-75.207949,,,,,,
871,4936,Cattell at Pierce SB,,40.703345,-75.207485,,,,,,
867,4935,Cattell at Monroe SB,,40.702454,-75.207063,,,,,,
861,4933,Cattell at High SB,,40.700637,-75.206092,,,,,,
865,4932,Cattell at March SB,,40.699694,-75.205609,,,,,,
859,4931,Cattell at Clinton SB,,40.698833,-75.205164,,,,,,
400,5398,3rd at Spring Garden,,40.693368,-75.209398,,,,,,
791,5520,Brodhead at Fritch WB,,40.680958,-75.344583,,,,,,
804,5519,Brodhead at Tracy,,40.680681,-75.346894,,,,,,
797,5517,Brodhead at Opus WB,,40.680076,-75.352292,,,,,,
795,5515,Brodhead at Mowrere WB,,40.678743,-75.364073,,,,,,
805,5512,Brodhead at Township Line WB,,40.677777,-75.371746,,,,,,
3078,7012,Brodhead at Commerce NB,,40.677497,-75.374212,,,,,,
3075,7009,167 N Commerce Way WB,,40.680409,-75.376223,,,,,,
2977,3245,Commerce at Commerce WB,,40.680896,-75.379925,,,,,,
2975,3243,Commerce at Southland SB,,40.677105,-75.38292,,,,,,
92,5509,Commerce at Brodhead SB,,40.673758,-75.382596,,,,,,
1003,5508,Commerce at Courtney EB,,40.672985,-75.377074,,,,,,
1005,5507,Courtney at Highland SB,,40.669401,-75.375722,,,,,,
1547,5506,Highland at Burgess WB,,40.668377,-75.379033,,,,,,
1549,5505,Highland at Adler WB,,40.668065,-75.381982,,,,,,
2794,6502,Bath Pike at Park SB,,40.661395,-75.382165,,,,,,
902,5504,Center at Macada,,40.654122,-75.377799,,,,,,
888,5503,Center at Bridle Path SB,,40.650633,-75.377295,,,,,,
886,5502,Center at Moreland SB,,40.644919,-75.376472,,,,,,
894,5501,Center at Dewberry SB,,40.640441,-75.375863,,,,,,
907,5500,Center at Washington SB,,40.634936,-75.375102,,,,,,
900,5499,Center at Greenwich SB,,40.632341,-75.375188,,,,,,
896,6168,Center at Elizabeth SB,,40.630949,-75.375221,,,,,,
3118,5121,Lynn at Delaware,,40.60159,-75.39752,,,,,,
3119,5123,Delaware at Bergen NB,,40.602371,-75.396844,,,,,,
3120,5126,Delaware at Hoffert NB,,40.603374,-75.395898,,,,,,
3121,5128,Delaware at Clewell NB,,40.605135,-75.394243,,,,,,
1924,4357,New at Fairview NB,,40.627382,-75.378161,,,,,,
1928,4358,New at Laurel NB,,40.628782,-75.378119,,,,,,
1922,4359,New at Elizabeth NB,,40.6308834,-75.37803799,,,,,,
1136,4360,Elizabeth at Chelsea EB,,40.630847,-75.376958,,,,,,
1134,4361,Elizabeth at Center EB,,40.630799,-75.375343,,,,,,
1138,4362,Elizabeth at High EB,,40.630572,-75.37358,,,,,,
166,4364,Elizabeth at Mdison EB,,40.630467,-75.371466,,,,,,
1079,1410,Easton at Beech EB,,40.63175536,-75.3686465,,,,,,
1129,1412,Easton at Woodlawn EB,,40.632809,-75.367553,,,,,,
1131,1414,Easton at Washington EB,,40.634664,-75.36574,,,,,,
1085,1415,Easton at Edgeboro EB,,40.63723,-75.363025,,,,,,
1100,1416,Easton at Jennings EB,,40.638326,-75.361019,,,,,,
1084,1417,Easton at Carlisle EB,,40.639134,-75.358558,,,,,,
1107,1418,Easton at Henderson EB,,40.640082,-75.355893,,,,,,
1105,1419,Easton at Lincoln EB,,40.640681,-75.354422,,,,,,
1115,1420,Easton at Renwick EB,,40.641425,-75.352724,,,,,,
1108,1421,Easton at Lexington EB,,40.642257,-75.350816,,,,,,
1081,1422,Easton at East EB,,40.643245,-75.348484,,,,,,
22,5374,Emrick at William Penn SB,,40.665994,-75.295932,,,,,,
1182,5373,2710 Emrick SB,,40.661491,-75.294438,,,,,,
1184,5375,Emrick at Baglyos SB,,40.659444,-75.293739,,,,,,
1187,5377,Emrick at Freemansburg SB,,40.652883,-75.291359,,,,,,
1240,5284,Freemansburg at Hope EB,,40.654948,-75.283712,,,,,,
2857,3003,Freemansburg at Ohio EB,,40.657321,-75.279279,,,,,,
1254,5285,Freemansburg at Orchard EB,,40.658315,-75.277151,,,,,,
