stop_id,stop_code,stop_name,stop_desc,stop_lat,stop_lon,zone_id,stop_url
1589,4870,"Mickley&jordne",,40.621088999999998,-75.483701999999994,,
1921,5161,"New&churchs",,40.617916999999998,-75.379964999999999,,
23,4915,"Green&nccw",,40.674948000000001,-75.324067999999997,,
687,1155,"Broad&10thw",,40.622681,-75.397281000000007,,
902,5504,"Center&macadas",,40.654122000000001,-75.377798999999996,,
1234,4968,"Fburg&dunklew",,40.672051000000003,-75.252131000000006,,
1898,5442,"Nazrth&nrthwdnw",,40.709327999999999,-75.279149000000004,,
2230,5853,"Windsor&7200bldge",,40.584710999999999,-75.613084000000001,,
2562,5387,"Walnut&6thsw",,40.690775000000002,-75.214642999999995,,
46,4791,"Postal&irving",,40.641660999999999,-75.449950999999999,,
215,5301,"Fburg&hobson",,40.672386000000003,-75.251203000000004,,
547,4739,"8th&susqs",,40.588715999999998,-75.467742000000001,,
879,1317,"Cdr_crest&trexrs",,40.602822000000003,-75.529587000000006,,
1042,4744,"Dixon&churche",,40.580584000000002,-75.459468000000001,,
1211,5307,"Fburg&24thne",,40.678418000000001,-75.242695999999995,,
1875,4255,"Mickley Rd & Wolf Sts",,40.642017000000003,-75.484301000000002,,
2207,6009,"Rt_873&washs_2",,40.687645000000003,-75.610754,,
2539,4434,"Walbert&27thw",,40.616380999999997,-75.524878000000001,,
69,4871,"Whitehall&ross",,40.637965999999999,-75.490774999999999,,
401,6053,"3rd&unionnw",,40.641148000000001,-75.472810999999993,,
524,5151,"8th&martincts",,40.630139,-75.395224999999996,,
856,5217,"Catsqua&wdmontse",,40.642077999999998,-75.419717000000006,,
1065,5057,"East&lindense",,40.663908999999997,-75.350888999999995,,
1188,4952,"Freemansburg&ohiow",,40.657491,-75.279302000000001,,
1520,5359,"Hecktown&eastonn",,40.657949000000002,-75.331880999999996,,
1729,1347,"Macarth&jordans",,40.621903000000003,-75.481164000000007,,
2061,4303,"Pine St &  3rd Ave (ns)",,40.647917,-75.480652000000006,,
501,1338,"6th&washingtonn",,40.613912999999997,-75.474993999999995,,
756,5913,"Broadway&41stse",,40.583837000000003,-75.543278999999998,,
1420,1037,"Hamilton&12the",,40.599502000000001,-75.481347999999997,,
2084,1327,"Pond&walbertn",,40.614229000000002,-75.538708,,
2748,1491,"Easton&farmville2w",,40.666696000000002,-75.306432999999998,,
1443,1022,"Hamilton & 4the",,40.603653999999999,-75.466194999999999,,
2771,6368,"Ambassadr&6950buildinge",,40.597140000000003,-75.616208999999998,,
209,5367,"Gr_pond&ncc",,40.674807000000001,-75.324160000000006,,
1048,6067,"Downs&target",,40.638103999999998,-75.438592,,
2130,5525,"Pa 191 & Giant Food Mktn",,40.731000999999999,-75.316215,,
2376,4017,"Tilghman&jordane",,40.613813,-75.468909999999994,,
2794,6502,"Center@appletreeplaza",,40.661394999999999,-75.382165000000001,,
3040,6974,"Chew17the",,40.600664999999999,-75.494467,,
1735,4328,"Main&14thn",,40.682448999999998,-75.492981999999998,,
2276,5088,"Stefko&crawfordne",,40.633167,-75.352971999999994,,
2399,1251,"Tilghmn&wstfldw",,40.589888000000002,-75.563148999999996,,
2817,6371,"Daly&sandse",,40.613202000000001,-75.362307999999999,,
2940,3208,"Stokeprk&jcksnvllee",,40.659849000000001,-75.397323,,
3063,6997,"Dorneypkrdlincolnav",,40.576604000000003,-75.537194,,
919,4084,"Chestnt&2nde",,40.674064999999999,-75.493227000000005,,
1002,5417,"Courtny&commrcen",,40.673102999999998,-75.377161999999998,,
1251,4962,"Fburg&minew",,40.666846,-75.261970000000005,,
1998,4869,"Overlk&mickleys",,40.621381999999997,-75.485045999999997,,
232,5545,"Majestic Newlins Mill Rd",,40.725943999999998,-75.269839000000005,,
1689,5881,"873&shadynooks",,40.732534999999999,-75.617395000000002,,
2685,1624,"Hamlton&lincolnw",,40.576174999999999,-75.530792000000005,,
1297,5338,"Grant&folks",,40.676774999999999,-75.207672000000002,,
2293,5113,"Stefko&stanhpsw",,40.640943,-75.347401000000005,,
278,4407,"19th&fairmontn",,40.614581999999999,-75.505438999999996,,
315,5396,"22nd&nhamptonn",,40.688709000000003,-75.244866999999999,,
1938,5532,"Northamptoncrossing&hobbylobby",,40.716301999999999,-75.282420999999999,,
169,5009,"3rd&bananafactoryw",,40.611972999999999,-75.380240999999998,,
418,4269,"4th&buttonwoods",,40.660910999999999,-75.478460999999996,,
424,4270,"4th&cypresss",,40.661954000000001,-75.479951999999997,,
1503,1120,"Hanover&wahnetw",,40.623469,-75.421873000000005,,
1752,4343,"Main&22nds",,40.692706000000001,-75.500247000000002,,
2831,6527,"Sullivan&rensselaers",,40.719574999999999,-75.223277999999993,,
1105,1419,"Easton&lincolne",,40.640681000000001,-75.354422,,
2144,5973,"Rt_309&bxwdnw",,40.644308000000002,-75.591583,,
2439,1302,"Turnr&13the",,40.601621999999999,-75.485273000000007,,
2044,5476,"Penna&cne",,40.867271000000002,-75.259731000000002,,
2877,3149,"Commercectrblvd&walmart(2785)w",,40.607458999999999,-75.330565000000007,,
2190,5900,"Rt_873&frnklns",,40.748350000000002,-75.611729999999994,,
1506,4226,"Harison&bechwds",,40.546717000000001,-75.490581000000006,,
1838,5661,"Main&wilsonn",,40.589621999999999,-75.340295999999995,,
2336,4574,"Broadway&emausn",,40.595267,-75.411167000000006,,
2502,4654,"Union&monocacyw",,40.625225,-75.383853000000002,,
3000,6934,"Gordon5thw",,40.609032999999997,-75.470177000000007,,
2359,1242,"Tilfgmn&oakwde",,40.592903999999997,-75.576909000000001,,
2857,3003,"Freemansburg&ohioe",,40.657321000000003,-75.279279000000002,,
132,4121,"Allen&8thw",,40.609875000000002,-75.478109000000003,,
1128,1465,"Easton&wodlawnw",,40.632868999999999,-75.367744999999999,,
2124,6107,"Race&willwburone",,40.658335000000001,-75.445588000000001,,
438,4244,"4th&greenleafs",,40.616861,-75.471653000000003,,
2147,5971,"Rt_309&eastvwnw",,40.648032000000001,-75.595353000000003,,
2479,4624,"Union&beverlye",,40.627817999999998,-75.412057000000004,,
507,4036,"7th&ebrhrtw",,40.650767000000002,-75.495774999999995,,
673,4537,"Broadway&springerlnwawaw",,40.599795,-75.401116999999999,,
750,5871,"Broadway&hainesmllw",,40.585082,-75.534124000000006,,
1171,4135,"Emmaus&8the",,40.573548000000002,-75.463674999999995,,
2665,4151,"Wyoming&5ths",,40.592067999999998,-75.463166000000001,,
2671,1610,"Hamlton&19thw",,40.595427999999998,-75.496793999999994,,
2837,3038,"7th&crescentw",,40.652901,-75.496861999999993,,
109,5843,"Windsr&tilghmw",,40.586247999999998,-75.613823999999994,,
650,4523,"Broadway&clewelln",,40.603546999999999,-75.391478000000006,,
1271,5047,"Fburg&wshgtnw",,40.645696000000001,-75.315275,,
458,4746,"4th&montgomeryn",,40.583376000000001,-75.457952000000006,,
1291,4919,"Fmvill&charlesn",,40.670513999999997,-75.307140000000004,,
1463,1085,"Hamltn&comf_stsne",,40.576160999999999,-75.530105000000006,,
2545,4412,"Walbert&whthallw",,40.617130000000003,-75.515257000000005,,
481,4604,"4th&williame",,40.611474000000001,-75.354941999999994,,
1440,1024,"Hamilton&2nde",,40.605381999999999,-75.460074000000006,,
1981,5356,"Sullivan&rensselaern",,40.719710999999997,-75.223145000000002,,
2104,4872,"Presidential&cornerstone",,40.634588999999998,-75.491816,,
2522,4627,"Union&van_burene",,40.625826000000004,-75.423474999999996,,
89,5546,"Tatamy&danforths",,40.733679000000002,-75.258167,,
836,5390,"Butler&23rde",,40.683413000000002,-75.244110000000006,,
1085,1415,"Easton&chestnute",,40.637230000000002,-75.363024999999993,,
1334,4715,"Fullerton&cataqn",,40.620677000000001,-75.463075000000003,,
1583,4233,"Jeferson&cmblds",,40.587032999999998,-75.479242999999997,,
1832,4320,"Main&washingtonw",,40.673499,-75.483039000000005,,
730,1177,"Broad&lindene",,40.622084000000001,-75.370214000000004,,
2353,4896,"Texas&collegew",,40.582329000000001,-75.510425999999995,,
2900,3168,"Levans&mauchchunke",,40.664627000000003,-75.564223999999996,,
2210,6012,"Rt_873&weiss",,40.677343,-75.614035999999999,,
2957,3225,"Wcoplay&beekmantowne",,40.673464000000003,-75.506159999999994,,
3043,6977,"4thstlexingtonstne",,40.585951000000001,-75.459694999999996,,
979,1392,"Chstnt&cdr_crst",,40.528360999999997,-75.507080999999999,,
2024,5154,"Pembroke&woodne",,40.627246999999997,-75.364366000000004,,
2602,5846,"Windsr&7535_blw",,40.582932999999997,-75.620749000000004,,
3,4102,"17th&chewe",,40.601289000000001,-75.494546,,
252,5685,"Stefko&broadn",,40.622570000000003,-75.360130999999996,,
1918,5815,"Nestle&perriernw",,40.570408999999998,-75.631907999999996,,
2416,1266,"Tlghmn&ottw",,40.600800999999997,-75.516634999999994,,
146,6225,"Dieruff Hs",,40.621015999999997,-75.439633999999998,,
152,1115,"Hanover&tacomae",,40.621882999999997,-75.425746000000004,,
1277,4847,"Flexler&andrean",,40.579301000000001,-75.512157000000002,,
1769,4278,"Main St & 9th S",,40.677124999999997,-75.487545999999995,,
1775,5942,"Main&cherryne",,40.754883999999997,-75.598089999999999,,
2316,4512,"Susq&brookw",,40.594411000000001,-75.417799000000002,,
544,4687,"8th St & St John St N",,40.591448,-75.468922000000006,,
1626,4046,"Lehigh&11the",,40.687483999999998,-75.224266999999998,,
444,4598,"4th&hille",,40.610954,-75.362667999999999,,
1526,5365,"Hecktwn&cntrbryn",,40.672426000000002,-75.328096000000002,,
2067,4257,"Pine St & 4th Ave (mid)",,40.646563,-75.481381999999996,,
2608,1498,"Wm_pen&27thw",,40.68139,-75.251164000000003,,
1755,4346,"8th&millracedrn",,40.736010999999998,-75.258347000000001,,
2087,4790,"Postal&hangare",,40.644038999999999,-75.446261000000007,,
2419,1274,"Tlghmn&sprghse",,40.594242000000001,-75.539917000000003,,
2751,5818,"Nestle&perriernw",,40.572265000000002,-75.632420999999994,,
189,5854,"Windsr&tilghm",,40.586359000000002,-75.613692,,
521,4394,"8th&chewn",,40.605851000000001,-75.475483999999994,,
736,1163,"Broad&newe",,40.622259,-75.378883999999999,,
1068,5076,"East&lansdalen",,40.650001000000003,-75.350082,,
1400,4916,"Green&countryw",,40.675013999999997,-75.319502,,
1732,4279,"Main&10ths",,40.678654999999999,-75.488596000000001,,
2064,4264,"Pine&3rds_2",,40.656137999999999,-75.473507999999995,,
2396,1239,"Tilghman&ruppsvillee",,40.589139000000003,-75.603311000000005,,
2728,6277,"Sullivan & Belfasts",,40.780634999999997,-75.278532999999996,,
3060,6994,"Broadwaycetroniaw",,40.588227000000003,-75.557198,,
2442,4663,"Forkstwpoffices",,40.715806999999998,-75.220470000000006,,
2774,6373,"Nthpn&6thw",,40.690907000000003,-75.214778999999993,,
922,1404,"Chestnut&10ths",,40.529814000000002,-75.504067000000006,,
999,5937,"Corp Pkwy @ 3701",,40.553629000000001,-75.422974999999994,,
1586,4234,"Jeferson&tiogas",,40.584308999999998,-75.478835000000004,,
2914,3182,"Snwdrft&tilghne",,40.588856999999997,-75.610839999999996,,
2920,3188,"Hmltnxingcotcosw",,40.565795999999999,-75.557789999999997,,
2273,5090,"Stefko&bayardne",,40.635378000000003,-75.350522999999995,,
2937,3205,"Stokeprk&highpointw",,40.658330999999997,-75.415666000000002,,
212,5451,"Tatamy&nrthwd",,40.709297999999997,-75.251617999999993,,
381,4191,"3rd&harrisonw",,40.539833999999999,-75.496801000000005,,
876,1318,"Cdr_crest&greens",,40.601097000000003,-75.529051999999993,,
1540,6187,"Hellrtwn&shimersvillen",,40.610191,-75.340570999999997,,
1709,5329,"Line&coale",,40.673786,-75.217477000000002,,
2373,4021,"Tilghman&2nds",,40.615206999999998,-75.464282999999995,,
899,5498,"Center&greenwchn",,40.632413,-75.375013999999993,,
1563,5822,"Industrialblvdbridgestonetiree",,40.563561,-75.617414999999994,,
1686,5929,"Pa873&oakn",,40.720306999999998,-75.621189999999999,,
2227,5227,"Schnrsvl&indusnw",,40.652121000000001,-75.412870999999996,,
421,4201,"S4th&chapeln",,40.587314999999997,-75.459918000000002,,
753,5469,"Broadway&3rdne",,40.841231999999998,-75.294742999999997,,
1168,4197,"Emmaus&lawne",,40.575958999999997,-75.458168000000001,,
1500,1116,"Hanover&trumpe",,40.622281999999998,-75.424132,,
66,4143,"15th&walnutn",,40.596210999999997,-75.487235999999996,,
859,4931,"Cattell&clintons",,40.698833,-75.205163999999996,,
2187,5903,"Rt_873&frdnsne",,40.735007000000003,-75.615605000000002,,
3066,7000,"Mckesson Corp & Commerce Center",,40.611814000000003,-75.309754999999996,,
375,6050,"3rd&ctasauquan",,40.637129000000002,-75.470859000000004,,
1214,5032,"Fburg&2ndw",,40.640760999999998,-75.330826999999999,,
1546,4813,"Highland&13thw",,40.614837000000001,-75.491521000000006,,
2296,5106,"Stefko&washngtnsw",,40.629739000000001,-75.357662000000005,,
2379,4018,"Tilghman&ridgee",,40.615529000000002,-75.462621999999996,,
2542,4409,"Walbert&columbaw",,40.616836999999997,-75.507752999999994,,
2628,1451,"Wm_penn&bethmanw",,40.668236999999998,-75.276542000000006,,
2874,3146,"Commercectrblvd&gilchreste",,40.603675000000003,-75.338475000000003,,
229,4996,"Allen&6th",,40.610951999999997,-75.473803000000004,,
1692,4801,"Linden&5ths",,40.604818999999999,-75.468703000000005,,
1901,5535,"Nazrth&nwdse",,40.711233999999997,-75.281571,,
2233,5842,"Snwdrft&tilghsw",,40.590010999999997,-75.610507999999996,,
3020,6954,"Lehighvalleyhospmuhlsthents",,40.643774999999998,-75.407330999999999,,
1005,5507,"Courtny&highlns",,40.669401000000001,-75.375721999999996,,
1254,5285,"Fburg&old_orchrne",,40.658315000000002,-75.277151000000003,,
2333,4575,"Broadway&kid_peacee",,40.597591000000001,-75.407054000000002,,
275,5352,"18th&butlers",,40.685276000000002,-75.236474000000001,,
318,5984,"22nd&tilghmnnw",,40.602981999999997,-75.507035000000002,,
1603,5624,"Greenwood@postoffices",,40.673690999999998,-75.259017,,
1646,4050,"Lehigh&9the",,40.687640999999999,-75.220904000000004,,
1941,1210,"Nhampton&12the",,40.690345000000001,-75.226421000000002,,
2482,4674,"Union&clubw",,40.626173999999999,-75.421370999999994,,
713,1157,"Broad&8thw",,40.622636,-75.394552000000004,,
959,1283,"Chew&8thw",,40.606011000000002,-75.475506999999993,,
1208,4976,"Fburg&21sts",,40.681260999999999,-75.240841000000003,,
1795,6190,"Main&kichlines",,40.594338,-75.340359000000007,,
2041,5622,"Penna&4the",,40.869078000000002,-75.210075000000003,,
26,4261,"Pine St & Front St S",,40.654319000000001,-75.475695999999999,,
272,4101,"17th&libertys",,40.603754000000002,-75.495712999999995,,
1108,1421,"Easton&michaele",,40.642257000000001,-75.350815999999995,,
1649,5561,"Lehigh&alphasw",,40.852328,-75.285045999999994,,
1895,5443,"Nazrth&kingstnse",,40.706524000000002,-75.276088000000001,,
2436,1308,"Turner&5the",,40.606014000000002,-75.469303999999994,,
2977,3245,"N Comrcway@c&swholesales",,40.680895999999997,-75.379925,,
1672,4131,"Liberty&17thw",,40.603707999999997,-75.495315000000005,,
2170,5979,"Walbrt&rt309w",,40.611440999999999,-75.568804,,
2668,1221,"Tilghman&30the",,40.598571,-75.524162000000004,,
2834,3002,"Coply&saylorpkse",,40.676245000000002,-75.498754000000005,,
2525,6003,"W_coply&coplysw",,40.677255000000002,-75.502725999999996,,
2691,6241,"Cdr_crest&oxfords",,40.605640999999999,-75.530457999999996,,
3023,6957,"Nazareth Rd & Sales St E",,40.687494999999998,-75.253048000000007,,
129,5683,"Old_naz&seips",,40.694718999999999,-75.263857999999999,,
461,4153,"4th&emausn",,40.578544999999998,-75.454721000000006,,
796,5426,"Brodhd&opuse",,40.679955999999997,-75.352208000000005,,
1125,1473,"Easton&westw",,40.641764000000002,-75.352310000000003,,
2456,4881,"Union&17thw",,40.594138000000001,-75.490925000000004,,
3046,6980,"Seip Ave & Kohl St Wb",,40.739485999999999,-75.323412000000005,,
106,5869,"Broadway&39thw",,40.583854000000002,-75.538621000000006,,
770,5910,"Broadway&chewse",,40.585793000000002,-75.548843000000005,,
2811,6922,"Main&bushkilldrn_tatamy",,40.742165999999997,-75.251063000000002,,
86,5569,"Route 512 & Bangor Plaza",,40.874302,-75.235211000000007,,
584,4122,"Allen&9thw",,40.609551000000003,-75.479288999999994,,
1337,4759,"Fullerton&fairmonts",,40.624743000000002,-75.467667000000006,,
2499,4673,"Union&leh_shopw",,40.626713000000002,-75.418171000000001,,
484,4247,"5th&floridas",,40.622584000000003,-75.473139000000003,,
1437,1071,"Hamilton&24the",,40.592554999999997,-75.506602999999998,,
1984,5682,"Old_naz&swnsns",,40.698166999999998,-75.265831000000006,,
2150,5970,"Rt_309&hrtg_chnw",,40.650281,-75.597802999999999,,
2791,6480,"Penn&sanderssw",,40.859240999999997,-75.273804999999996,,
63,4467,"19th&pennas",,40.613129000000001,-75.504912000000004,,
604,5177,"Ave_c&rcn_cablesw",,40.655844000000002,-75.422522999999998,,
1145,6148,"Emaus&30thne",,40.557760999999999,-75.481506999999993,,
1858,5574,"Sullivan Trail & Oak Tree Rds",,40.786842,-75.281453999999997,,
2768,6358,"Hamilton&18the",,40.595871000000002,-75.494568000000001,,
255,5684,"Eastonseniorcenters",,40.735765999999998,-75.235322999999994,,
1417,1026,"Hamiltion&4thw",,40.604115999999998,-75.465204,,
1666,1382,"Lehigh&wymngs",,40.589441000000001,-75.473260999999994,,
1915,5768,"Nestle&dscse",,40.572702999999997,-75.632973000000007,,
398,4220,"3rd&seeme",,40.538812,-75.495242000000005,,
896,6168,"Center&elizbths",,40.630949000000001,-75.375220999999996,,
1025,5133,"Delawre&clewllw",,40.605165999999997,-75.394388000000006,,
1523,5364,"Hecktown&oaklndn",,40.668013000000002,-75.332532999999998,,
2021,5639,"Pembrke&mnsiw",,40.628481999999998,-75.360973000000001,,
2519,4884,"Union&st_elmow",,40.592140999999998,-75.498176000000001,,
43,5179,"Ave_c&schnrsvle",,40.657390999999997,-75.418892,,
292,6089,"1st&allenw",,40.646158999999997,-75.474772999999999,,
1629,4043,"Lehigh&16the",,40.687032000000002,-75.233766000000003,,
1878,4298,"Mickley&unionn",,40.637483000000003,-75.485701000000006,,
1964,1193,"Nthpn&12thw",,40.690506999999997,-75.226183000000006,,
2711,9000,"Lvhc 1250 Bldg",,40.566504999999999,-75.520324000000002,,
2960,3228,"Coplay&mainn",,40.689064999999999,-75.507515999999995,,
647,4531,"Broadway&bishpthrps",,40.605204999999998,-75.390051999999997,,
1274,5124,"Fiot&delawarenw",,40.607599,-75.391512000000006,,
2270,1354,"State&bevine",,40.550542,-75.491203999999996,,
2356,4844,"Texas&otte",,40.583055000000002,-75.508764999999997,,
2897,3156,"Nestle&fisherclnclsrvcs",,40.573990999999999,-75.633707000000001,,
833,4980,"Butler&16thw",,40.685408000000002,-75.233187000000001,,
1088,1440,"Easton&9thste",,40.660742999999997,-75.328001999999998,,
2997,6931,"Corrierelvhn",,40.712991000000002,-75.280530999999996,,
3003,6937,"Gordon8thw",,40.607399000000001,-75.476146,,
441,4595,"4th&hayesw",,40.610847,-75.366530999999995,,
2605,5856,"Windsr&grantkne",,40.583095,-75.618977000000001,,
49,4692,"Dixon St & Mack Blvd",,40.580857000000002,-75.467097999999993,,
298,5392,"21st St & Washington Blvd S",,40.685819000000002,-75.242912000000004,,
1131,1414,"Easton&wshngtone",,40.634664000000001,-75.365740000000002,,
2213,6035,"Ruch&ashse",,40.670884000000001,-75.506069999999994,,
2462,4886,"Union&22ndw",,40.591245000000001,-75.501420999999993,,
149,1369,"Lehigh&oxfords",,40.558985999999997,-75.487897000000004,,
690,1132,"Broad&12the",,40.622540999999998,-75.400737000000007,,
2313,4499,"Susquehanna&bradfordw",,40.591019000000003,-75.448770999999994,,
2854,3140,"7th&eberhartnw",,40.650782999999997,-75.495633999999995,,
593,5794,"Ambassadr&6950buildingw",,40.597205000000002,-75.616324000000006,,
570,4123,"Allen&10thw",,40.608910999999999,-75.481633000000002,,
2136,5522,"Rt_191&trolleys",,40.691208000000003,-75.335909000000001,,
2468,4657,"Union&4the",,40.625152,-75.389743999999993,,
2800,6550,"Dnfrth&laysbldgw",,40.733114,-75.263741999999993,,
2159,6015,"Rt_309&sandspringn",,40.668188000000001,-75.606989999999996,,
2491,4685,"Union&godfreyw",,40.624130000000001,-75.446228000000005,,
2823,4042,"Lehigh&15the",,40.687125000000002,-75.231851000000006,,
92,5509,"Commrce&brdhds",,40.673757999999999,-75.382596000000007,,
1094,1482,"Easton Ave & Hecktown Rd W",,40.657806999999998,-75.331608000000003,,
1758,4274,"Main&2nds",,40.669652999999997,-75.481020999999998,,
2345,5765,"Sycamr&tacos",,40.576290999999998,-75.622611000000006,,
2422,5132,"Linden@3859bldgs",,40.674031999999997,-75.345354999999998,,
3009,6943,"Front St. & Long St.",,40.591144,-75.453162000000006,,
115,4007,"Hamilton&brooksidew",,40.566597999999999,-75.553248999999994,,
1658,1367,"Lehigh&kias",,40.569772999999998,-75.482243999999994,,
1781,6195,"Main&clarkesw",,40.588008000000002,-75.341092000000003,,
2322,4502,"Susq&ellsworthw",,40.591453999999999,-75.442728000000002,,
2445,4616,"Union&12the",,40.625323999999999,-75.400588999999997,,
138,5097,"Stefko&easton",,40.644677000000001,-75.344870999999998,,
802,5510,"Brodhd&scheldnsw",,40.676535999999999,-75.378711999999993,,
971,4065,"Rt_873&oakwoods",,40.705894000000001,-75.620705999999998,,
1466,4006,"Hamltn&kresslre",,40.568916000000002,-75.547285000000002,,
1635,1360,"Lehigh&33rdw",,40.556314,-75.489018999999999,,
2963,3231,"Main&wilsonw",,40.682740000000003,-75.526797999999999,,
161,5725,"Wind Creek Casino",,40.613992000000003,-75.358169000000004,,
284,4466,"19th&highlands",,40.611575000000002,-75.504178999999993,,
825,5384,"Sullivan&arieln",,40.760182999999998,-75.269317999999998,,
948,1290,"Chew&15thw",,40.602041,-75.489958999999999,,
1071,5077,"East&sprng_gars",,40.647630999999997,-75.349941000000001,,
1489,1090,"Hanover&lindene - Overlook Park",,40.611181999999999,-75.448294000000004,,
2153,5975,"Rt_309&orefieldrdnw",,40.634816999999998,-75.584567000000007,,
1263,4957,"Fburg&sheridnw",,40.662202999999998,-75.270284000000004,,
1512,4222,"Harrison&2nds",,40.541003000000003,-75.495870999999994,,
1844,4728,"Marconblvdroblerds",,40.638964000000001,-75.451632000000004,,
2923,3191,"Hamiltoncrossingwestanthonypizza",,40.564171999999999,-75.565235999999999,,
29,6232,"Jefferson & Liberator S",,40.580143,-75.480891,,
576,4127,"Allen&14thw",,40.606721,-75.489648000000003,,
908,5343,"Centre&canaln",,40.681798000000001,-75.221557000000004,,
2199,5963,"Rt_873&schnecknw",,40.674204000000003,-75.612885000000006,,
2531,4411,"Walbert&22ndw",,40.617111000000001,-75.513801000000001,,
2637,1442,"Easton Ave & Falmer Dre",,40.666476000000003,-75.307520999999994,,
2886,3159,"2nd&keefers",,40.675153999999999,-75.494923,,
2969,3239,"Roth&sumnersw",,40.610809000000003,-75.490196999999995,,
2282,5112,"Stefko&greshamsw",,40.638750999999999,-75.348726999999997,,
3032,6966,"Centreberwicks",,40.678117999999998,-75.221098999999995,,
175,4231,"Jeferson&wyomng",,40.588427000000003,-75.479258000000002,,
762,5471,"Broadway&5thne",,40.842801999999999,-75.293696999999995,,
1011,5408,"Ctr&washngtnn",,40.635444,-75.374972,,
2090,4787,"Postal&marconw",,40.645437000000001,-75.439181000000005,,
2096,4874,"Pres&hoovere",,40.635503,-75.499858000000003,,
2339,4505,"Susq&tweedw",,40.592849000000001,-75.433571999999998,,
2677,1616,"Hamlton&25thw",,40.592001000000003,-75.508998000000005,,
324,4890,"24th&elms",,40.587797000000002,-75.504773999999998,,
1111,1478,"Easton&nttnghmw",,40.647987999999998,-75.341100999999995,,
1449,1076,"Hamilton&colegee",,40.586579,-75.514831000000001,,
1652,1363,"Lehigh&downyflkn",,40.571565,-75.481048999999999,,
2777,6376,"Lehigh&mlk_drn",,40.598061000000001,-75.467634000000004,,
2783,6423,"Center&mainw",,40.742542999999998,-75.311588999999998,,
221,4552,"4th&chews",,40.60839,-75.467613999999998,,
470,4488,"4th&tilghmann",,40.613371000000001,-75.469847999999999,,
716,1180,"Broad&belvideres",,40.740344,-75.309645000000003,,
1303,5340,"Charles&wilkesbarn",,40.680996999999998,-75.205755999999994,,
1549,5505,"Highlnd&adlersw",,40.668064999999999,-75.381981999999994,,
1798,4325,"Main&laubache",,40.679389,-75.489585000000005,,
2385,1241,"Tilghmn&bl_barne",,40.591738999999997,-75.589723000000006,,
2631,1464,"Wm_penn&kngwods",,40.676161999999998,-75.262234000000007,,
75,5259,"Emrick@outbackstkhsenw",,40.665430999999998,-75.295237,,
1157,4141,"Emmaus&28thn",,40.560637999999997,-75.477715000000003,,
1403,4286,"Greenleaf&5the",,40.616011,-75.474101000000005,,
1698,5101,"Linden&falconnw",,40.666010999999997,-75.350037999999998,,
1944,1207,"Nhampton&15the",,40.690064999999997,-75.232211000000007,,
2485,4641,"Union&elsworths",,40.621082999999999,-75.452579,,
3026,6960,"Millcreekhamiltonw",,40.554577999999999,-75.584011000000004,,
344,6073,"2nd&chstnutnw",,40.674047999999999,-75.492670000000004,,
842,1411,"Butler&25the",,40.682008000000003,-75.247648999999996,,
1340,4760,"Fullerton& Kimmetts",,40.626195000000003,-75.469238000000004,,
2929,3197,"Race&pineapplew",,40.650067999999997,-75.466358999999997,,
699,1149,"Broad&16thw",,40.622805,-75.405747000000005,,
865,4932,"Cattell&marchs",,40.699694000000001,-75.205608999999995,,
1197,4251,"Fairmont&kays",,40.624651,-75.478348999999994,,
1695,4109,"Linden&8thw",,40.603223,-75.474153999999999,,
1861,5484,"Sullivan Trail & Oak Tree Rdn",,40.786811999999998,-75.281289000000001,,
2408,1269,"Tlghmn&29thw",,40.599376999999997,-75.521895000000001,,
2906,3174,"Walbert&ridgeviewe",,40.611432999999998,-75.562922999999998,,
722,1123,"Broad&grandviewe",,40.623831000000003,-75.418875999999997,,
1054,5081,"East&eastons",,40.644123999999998,-75.348934,,
1718,5184,"Lvhc_muhl&mains",,40.645159,-75.410221000000007,,
1887,5125,"Mohican&delwarnw",,40.609352000000001,-75.390686000000002,,
2551,4987,"Washngtn&10thw",,40.686889000000001,-75.221947,,
2714,6261,"Polk&2nds",,40.612881000000002,-75.373231000000004,,
487,4289,"5th&ny_aven",,40.621167999999997,-75.473112999999998,,
1532,4911,"Hecktwn&oaklnds",,40.666862000000002,-75.333385000000007,,
2073,5876,"Pkwy&29thw",,40.591281000000002,-75.518090999999998,,
2196,5953,"Rt_873&terracen",,40.712229999999998,-75.623581000000001,,
2528,4469,"Walbert&19the",,40.616244000000002,-75.506860000000003,,
2737,6350,"Crayolacomcntr",,40.607911999999999,-75.324138000000005,,
3069,7003,"East Braden Blvd And Uhler Rd Nb",,40.753445999999997,-75.227097000000001,,
9,1001,"Guetter&broad",,40.623094000000002,-75.380611000000002,,
1930,5160,"Newwalnuts",,40.621536999999996,-75.378710999999996,,
2173,5054,"Rt_33&pk_n_ride",,40.667785000000002,-75.293656999999996,,
2428,1301,"Turner&14the",,40.601028999999997,-75.487409999999997,,
158,4438,"Emaus&jutestn",,40.577508999999999,-75.455076000000005,,
656,4518,"Brdwy&greenee",,40.600644000000003,-75.398140999999995,,
822,5691,"Greenwood&groven",,40.675662000000003,-75.259956000000003,,
1320,6046,"Front&irons",,40.662067,-75.488276999999997,,
556,4486,"9th&chews",,40.605535000000003,-75.477588999999995,,
1220,5037,"Fburg&6thw",,40.641438000000001,-75.326950999999994,,
1389,4705,"Grape&4thw",,40.636135000000003,-75.472108000000006,,
1881,5835,"Mill&ambassadnw",,40.595388999999997,-75.619636,,
2053,5888,"Pike&rockn",,40.561703999999999,-75.448187000000004,,
2720,6267,"2nd&northamptone",,40.612864999999999,-75.378733999999994,,
530,4284,"8th&hamiltonn",,40.601568999999998,-75.473466000000002,,
2030,5786,"Penndr & Rt.100  W",,40.575926000000003,-75.619456999999997,,
2571,4805,"Washington&10thw",,40.611834000000002,-75.483143999999996,,
848,5169,"Catasqua&klchnnw",,40.640546999999998,-75.412644,,
1761,5464,"Main&7th_tatamyw",,40.741292999999999,-75.256997999999996,,
2010,5022,"Pembrk&garfielde",,40.629328000000001,-75.346507000000003,,
2259,5199,"St_john&berwcks",,40.679535000000001,-75.210316000000006,,
2508,4623,"Union&pauln",,40.627097999999997,-75.409783000000004,,
1240,5284,"Fburg&hopene",,40.654947999999997,-75.283711999999994,,
1867,5459,"Mcfadn&newmlinsmill",,40.727378000000002,-75.266733000000002,,
2365,1230,"Tilghman&20the",,40.604385000000001,-75.503193999999993,,
2402,1264,"Tlghmn&25thw",,40.601666000000002,-75.513481999999996,,
301,6033,"22nd&allense",,40.602015999999999,-75.506761999999995,,
387,5397,"3rd&northamptonn",,40.691842999999999,-75.209091000000001,,
550,5143,"8th&union_bthn",,40.625180999999998,-75.394824999999997,,
636,5202,"Berwick&seitze",,40.678856000000003,-75.215496000000002,,
1383,5369,"Gr_pond&campbellne",,40.676409999999997,-75.313657000000006,,
1632,1368,"Lehigh&29ths",,40.561470999999997,-75.486594999999994,,
991,4785,"City_ln&airportw",,40.652182000000003,-75.429295999999994,,
1028,5135,"Delawre&kieffrsw",,40.604337999999998,-75.395172000000002,,
1569,5825,"Indust&kraftne",,40.572811000000002,-75.609519000000006,,
2700,6250,"Devonshire&oxfords",,40.563330999999998,-75.496108000000007,,
1177,4139,"Emmaus&allenbrkn",,40.565291999999999,-75.474817000000002,,
1426,1043,"Hamilton&15the",,40.597588999999999,-75.488236999999998,,
1675,4459,"Liberty&18the",,40.602933999999998,-75.497691000000003,,
1924,4357,"New&fairviewn",,40.627381999999997,-75.378161000000006,,
1283,4900,"Flexler&debbies",,40.576411999999998,-75.514227000000005,,
1824,6197,"Main&thomass",,40.584802000000003,-75.341368000000003,,
52,4579,"4th&neww",,40.610522000000003,-75.378236999999999,,
1134,4361,"Elizabeth&centre",,40.630799000000003,-75.375343000000001,,
1967,1190,"Nthpn&15thw",,40.690232000000002,-75.231994,,
3049,6983,"Nazarethpike(191)valleyviewdinrs",,40.713537000000002,-75.324093000000005,,
493,1337,"6th&greenleafn",,40.615512000000003,-75.475763000000001,,
1034,5620,"Divsn&clmbiase",,40.871085999999998,-75.212294,,
2116,6109,"Race&airgasne",,40.660829,-75.438573000000005,,
2657,5212,"Wstgte&luth_mnrn",,40.641781000000002,-75.407910999999999,,
95,1256,"Tlghmn&pkwyw",,40.591948000000002,-75.549094999999994,,
427,5668,"4th&lynne",,40.611859000000003,-75.348928999999998,,
759,5865,"Broadway&42ndw",,40.585144999999997,-75.546548000000001,,
1091,1500,"Easton@aldiw",,40.651093000000003,-75.337446,,
1423,1038,"Hamilton&13thw",,40.598998999999999,-75.483762999999996,,
3012,6946,"St Luke@centroniaw",,40.585763999999998,-75.555991000000006,,
72,5232,"25thstshoppingcenter",,40.688879,-75.254030999999998,,
473,4553,"4th&turners",,40.607000999999997,-75.466954000000001,,
805,5512,"Brodhd&twnspw",,40.677776999999999,-75.371746000000002,,
1137,4371,"Elizabeth&chelw",,40.630971000000002,-75.376756,,
1801,5659,"Main&lindenn",,40.586587999999999,-75.341325999999995,,
2133,5433,"Pa 191 & Newburg Rd N",,40.703825999999999,-75.329263999999995,,
2465,4888,"Union&24thw",,40.590094000000001,-75.505611000000002,,
2797,6539,"Penn&georgesw",,40.863951,-75.266621000000001,,
450,4697,"Dixion&churchw",,40.580697000000001,-75.459587999999997,,
1114,1489,"Easton&reevew",,40.666097000000001,-75.312393,,
1446,1077,"Hamilton&atriume",,40.585532000000001,-75.515540000000001,,
928,1398,"Chestnut&4ths",,40.535212000000001,-75.491501999999997,,
2179,5899,"Rt_873&churchs",,40.750328000000003,-75.612560999999999,,
2256,5244,"St_jhn&nesqs",,40.681351999999997,-75.210306000000003,,
2843,3061,"Lehigh&3rde",,40.658043999999997,-75.489063999999999,,
281,4464,"19th&greenleafs",,40.608359,-75.502661000000003,,
945,1287,"Chew&12thw",,40.603771000000002,-75.483620999999999,,
951,1293,"Chew&18thw",,40.600194999999999,-75.496600999999998,,
1492,1105,"Hanover&maxwelw",,40.618544999999997,-75.434863000000007,,
2156,6018,"Rt_309&levanss",,40.654170999999998,-75.599998999999997,,
2820,6306,"Cdr_crest&livingstonn",,40.602811000000003,-75.529402000000005,,
2943,3211,"Stokeprk&wegmansdrives",,40.665070999999998,-75.387268000000006,,
2966,3236,"Roth&sumnernw",,40.610747000000003,-75.489351999999997,,
1784,5656,"Main&depotn",,40.582076999999998,-75.340988999999993,,
2325,4510,"Susq&fairvieww",,40.593496000000002,-75.422606999999999,,
2448,4666,"Union&14thw",,40.625495000000001,-75.403049999999993,,
2866,3012,"Greenleaf&7thw",,40.615158000000001,-75.477632,,
2989,3751,"Corporate Parkway @ Dun & Brads",,40.554938,-75.421109000000001,,
1097,1477,"Easton&hg_pontw",,40.646559000000003,-75.343001999999998,,
2425,1305,"Tuner&10the",,40.603251,-75.479363000000006,,
2674,1613,"Hamlton&22ndw",,40.593755000000002,-75.502774000000002,,
78,4972,"Fburg&25thw",,40.675592999999999,-75.245911000000007,,
410,4311,"4th&archw",,40.659737999999997,-75.476602999999997,,
1406,5819,"Boulder&bimbobldgs",,40.569367999999997,-75.621881000000002,,
1701,5098,"Linden&santeemillrds",,40.667617,-75.349232999999998,,
1738,4331,"Main&15ths",,40.683525000000003,-75.494229000000004,,
2033,5623,"Penna&1sts",,40.869129000000001,-75.207125000000005,,
3029,6963,"Centremiltonn",,40.676414000000001,-75.220642999999995,,
218,4583,"4th&taylore",,40.610491000000003,-75.374584999999996,,
719,1146,"Broad&cambridgw",,40.623795999999999,-75.414124999999999,,
968,4077,"Chsntnt&9the",,40.669671999999998,-75.499999000000003,,
1051,5071,"East&lewisn",,40.646130999999997,-75.349517000000006,,
1300,5339,"Charles&eastbirdn",,40.678331,-75.205381000000003,,
327,4841,"24th&mossern",,40.585475000000002,-75.503517000000002,,
573,4451,"Allen&11the",,40.608167000000002,-75.483901000000003,,
659,4533,"Brdwy&hoffertw",,40.602117,-75.393997999999996,,
905,5492,"Center&northn",,40.623733999999999,-75.375253000000001,,
513,4033,"7th&lehighs",,40.654857999999997,-75.497320999999999,,
1260,5353,"Fburg&ridgew",,40.684108000000002,-75.237482999999997,,
1841,4794,"Postal Rd & Post Office",,40.645111,-75.435286000000005,,
2926,3194,"8th&lindenn",,40.603048999999999,-75.474148999999997,,
1154,4163,"Emaus&26ths",,40.565677000000001,-75.474787000000006,,
1160,4166,"Emaus&29thsw",,40.558881,-75.479957999999996,,
1947,1204,"Nhampton&18the",,40.689596999999999,-75.236858999999995,,
2488,4637,"Union&godfreye",,40.623966000000003,-75.446071000000003,,
1552,5665,"Hllrtwn&crstn",,40.600866000000003,-75.340579000000005,,
2388,1253,"Tilghmn&comme",,40.590770999999997,-75.567655000000002,,
2634,1508,"Wm_penn&eastonhsathletice",,40.680888000000003,-75.253944000000004,,
2880,3152,"Vanburen&hollos",,40.730871,-75.276364999999998,,
2780,6456,"Wm_penn&st_xine",,40.670681999999999,-75.269925999999998,,
12,5055,"Beth_sq&giant",,40.674841999999998,-75.342427999999998,,
178,4262,"Pine&frontn",,40.654390999999997,-75.475421999999995,,
510,1335,"7th&gordons",,40.607903999999998,-75.474485000000001,,
1008,5409,"Ctr&dewberryn",,40.640044000000003,-75.375624999999999,,
1174,4159,"Emaus&9thw",,40.572741000000001,-75.465800999999999,,
35,4938,"Forks&giant",,40.713208000000002,-75.221856000000002,,
533,4240,"8th&lehighs",,40.592039,-75.469396000000003,,
1529,4907,"Hecktwn&ednas",,40.659708000000002,-75.332312000000002,,
2193,5958,"Rt_873&hilln",,40.729018000000003,-75.618016999999995,,
2242,5760,"Willard Drive & Grim Rd",,40.553731999999997,-75.626160999999996,,
2574,4855,"Washington&11te",,40.611114000000001,-75.485328999999993,,
2740,6311,"Ccpp 1255 Bldg",,40.565733999999999,-75.515994000000006,,
3072,7006,"East Braden Blvd & Army Reserves",,40.749173999999996,-75.225632000000004,,
390,6054,"3rd&orchrdnw",,40.642707999999999,-75.473624999999998,,
1386,5337,"Charles&grants",,40.677582000000001,-75.205398000000002,,
2219,5931,"S_4th&mts",,40.573419999999999,-75.451616000000001,,
2883,3155,"Weismarketforkstwp",,40.744736000000003,-75.242125999999999,,
155,5351,"Washngtn&17thw",,40.686276999999997,-75.234984999999995,,
868,5402,"Cattell&parsnsnw",,40.701625,-75.206441999999996,,
1200,5042,"Fburg&10the",,40.642074000000001,-75.322676000000001,,
1741,4334,"Main&17thn",,40.685811000000001,-75.496319999999997,,
2860,3006,"4th&bakers",,40.578606999999998,-75.454910999999996,,
845,5173,"Catasqua&asterw",,40.642578999999998,-75.423411000000002,,
1343,4762,"Fullerton&lincolns",,40.622250000000001,-75.465008999999995,,
1509,4194,"Harrison&1stn",,40.543711000000002,-75.493165000000005,,
2007,5015,"Pembrk&bethlehemdre",,40.628813999999998,-75.354692,,
1486,1107,"Hanover&jasperw",,40.617606000000002,-75.439860999999993,,
135,4232,"Jeferson&wyomgs",,40.588284000000002,-75.479433,,
1217,5036,"Fburg&4the",,40.641041000000001,-75.329156999999995,,
1884,5833,"Mill&danielsnw",,40.591729000000001,-75.617076999999995,,
2717,6264,"3rd&hayese",,40.612260999999997,-75.366736000000003,,
112,6220,"Nestle&860_bldgw",,40.571032000000002,-75.651161000000002,,
653,4530,"Brdwy&fiotsw",,40.606152999999999,-75.388789000000003,,
1243,4970,"Fburg&keanew",,40.673381999999997,-75.249633000000003,,
1366,5102,"Goepp&centere",,40.626103000000001,-75.375426000000004,,
1907,5445,"Nazrth&van_burse",,40.704019000000002,-75.272538999999995,,
931,1387,"Chestnut&6thn",,40.533133999999997,-75.496195,,
1180,4138,"Emaus&mack",,40.571035999999999,-75.469678000000002,,
1429,1031,"Hamilton&16ths",,40.597265,-75.490075000000004,,
1678,4852,"Lincoln&amercuse",,40.570746,-75.517731999999995,,
1927,4367,"New&goepps",,40.626373000000001,-75.378406999999996,,
2176,5897,"Rt_873&hills",,40.729838999999998,-75.618134999999995,,
1074,1432,"Easton&7thn",,40.659233,-75.329955999999996,,
2070,5924,"Pkwy&28thne",,40.592176000000002,-75.516041999999999,,
2568,4991,"Washgtn&11thw",,40.686801000000003,-75.223916000000003,,
55,1079,"Hamilton & Wild Water W",,40.577309999999997,-75.528000000000006,,
304,5394,"Lehigh&22ndw",,40.686650999999998,-75.244225,,
633,5251,"Berwick&reynldsw",,40.678565999999996,-75.219453000000001,,
882,4025,"Cdr_crst&kathns",,40.569941,-75.519271000000003,,
1715,5328,"Line&reynolde",,40.673687000000001,-75.218667999999994,,
2554,5346,"Walnut&7thw",,40.688726000000003,-75.217759999999998,,
1237,5050,"Fburg&fmvillw",,40.647886,-75.308447999999999,,
2319,4561,"Susquehanna&carlislee",,40.591017000000001,-75.446954000000005,,
98,5957,"Rt_873&neffs_bkn",,40.693829000000001,-75.609526000000002,,
347,6040,"2nd&coplayse",,40.672753999999998,-75.491327999999996,,
596,4780,"Ave_a&airport_re",,40.649425999999998,-75.429461000000003,,
2013,5020,"Pembrk&rosevlte",,40.629224000000001,-75.348338999999996,,
2262,5270,"St_john&palmrn",,40.675063000000002,-75.209350999999998,,
2511,4630,"Union&quebece",,40.625141999999997,-75.430869000000001,,
2760,6295,"Gordon&3rdstn",,40.610683000000002,-75.463757999999999,,
2113,6106,"Race15the",,40.653661,-75.456204,,
2611,1496,"Wm_pen&hartleyw",,40.678364000000002,-75.259344999999996,,
2654,5211,"Wstgte&jackwilliamsne",,40.643205999999999,-75.406521999999995,,
888,5503,"Center&br_paths",,40.650632999999999,-75.377295000000004,,
1721,5225,"Lvhc_muhl&shltrn",,40.644848000000003,-75.410015999999999,,
1970,1187,"Nthpn&18thw",,40.689751000000001,-75.236787000000007,,
2803,6587,"Sullivan&kromers",,40.819916999999997,-75.292384999999996,,
3052,6986,"Fedexsmartpostwillarddrivestopn",,40.552579999999999,-75.631347000000005,,
198,4741,"Dixon&macks",,40.580736000000002,-75.467033000000001,,
739,1179,"Broad&prospects",,40.738354000000001,-75.309639000000004,,
1821,5652,"Main&sauconn",,40.576237999999996,-75.340534000000005,,
2362,1237,"Tilghman&18thw",,40.605716000000001,-75.498785999999996,,
2903,3171,"Levans&oldpostw",,40.678038999999998,-75.548854000000006,,
522,4689,"8th&cumberlandn",,40.589466999999999,-75.467957999999996,,
854,5214,"Catsqua&klechnrse",,40.640368000000002,-75.412429000000003,,
1518,5362,"Hecktown&chestrn",,40.662759999999999,-75.332618999999994,,
2182,5960,"Rt_873&crstwdne",,40.685766000000001,-75.612228999999999,,
2514,4668,"Union&rosew",,40.625565000000002,-75.406609000000003,,
2846,3076,"2nd&schrbernw",,40.669223000000002,-75.489037999999994,,
1541,5838,"Hickry&mrngsdee",,40.597642999999998,-75.607856999999996,,
1873,4299,"Mickley&mickleyn",,40.640757000000001,-75.485279000000006,,
2205,5959,"Rt_873&washsw",,40.687209000000003,-75.611080999999999,,
2537,4433,"Walbert&26thw",,40.616540000000001,-75.522756999999999,,
831,4981,"Butler&15thw",,40.685561,-75.231336999999996,,
1163,4167,"Emaus&giantsw",,40.557426,-75.482305999999994,,
1495,1104,"Hanover&plymotw",,40.619619,-75.431453000000005,,
1827,5663,"Main&wagnern",,40.591760999999998,-75.339890999999994,,
1681,4113,"Linden&12thw",,40.601000999999997,-75.482239000000007,,
1687,5883,"Rt873&oakwoodln",,40.705903999999997,-75.620619000000005,,
2351,4842,"Texas&25the",,40.583812000000002,-75.504919000000001,,
330,4892,"24th&texass",,40.584404999999997,-75.503179000000003,,
453,4550,"4th&libertys",,40.610970999999999,-75.468857999999997,,
1000,5938,"Corp_pkwy&3773se",,40.551355000000001,-75.422245000000004,,
1664,1365,"Lehigh&vultees",,40.575890999999999,-75.480897999999996,,
2328,4570,"Susq&fretzw",,40.592889999999997,-75.425042000000005,,
2992,6926,"1520vanburenrd",,40.743409,-75.273425000000003,,
307,5981,"22nd&gordnnw",,40.599167999999999,-75.505279000000002,,
2228,5851,"Snowdrft&6681ne",,40.593856000000002,-75.608352999999994,,
2892,3164,"Catasauqua&wstfldterracee",,40.639803999999998,-75.403278999999998,,
3061,6995,"Trexlertown Rd & Ruppsville Rd",,40.555945999999999,-75.607827999999998,,
2374,4019,"Tilghman&fronte",,40.616145000000003,-75.460345000000004,,
2915,3183,"Cmbrlnd&dauphinw",,40.592691000000002,-75.444849000000005,,
3038,6972,"Chew19the",,40.599553999999998,-75.498504999999994,,
267,4878,"15th&lindens",,40.598897999999998,-75.488664,,
2437,1307,"Turner&8the",,40.604435000000002,-75.475088,,
871,4936,"Cattell&pierces",,40.703344999999999,-75.207485000000005,,
1203,5043,"Fburg&12thw",,40.642631000000002,-75.320896000000005,,
1750,4341,"Main&21sts",,40.690835999999997,-75.499505999999997,,
3078,7012,"N Commerce Way & Brodhead Rd",,40.677497000000002,-75.374212,,
230,4925,"21st&lehigh(easton Hosp)w",,40.686591999999997,-75.243031999999999,,
313,4927,"22nd&lehighs",,40.686672999999999,-75.244825000000006,,
1063,5079,"East&lewiss",,40.646303000000003,-75.349751999999995,,
1395,4702,"Grape&6thw",,40.635573000000001,-75.474034000000003,,
1641,4057,"Lehigh&5thw",,40.656691000000002,-75.493198000000007,,
1890,5230,"Nazrth&aichrnw",,40.691015999999998,-75.257906000000006,,
2723,6272,"Weismktonwilliampennhighwaye",,40.677602999999998,-75.261723000000003,,
376,4189,"Uhler Rd & Sullivan Trail Ne",,40.745148999999998,-75.243194000000003,,
622,5203,"Berwick&coale",,40.678626999999999,-75.217850999999996,,
708,1138,"Broad&6the",,40.622425999999997,-75.392474000000007,,
917,4348,"Cherryvle&24thw",,40.697401999999997,-75.499495999999994,,
954,1296,"Chew&22ndw",,40.598013000000002,-75.504327000000004,,
2036,4094,"Ccpp@1245bldgs",,40.567084999999999,-75.516422000000006,,
2577,4853,"Washington&9the",,40.612315000000002,-75.480964999999998,,
21,4958,"Fburg&st_xingw",,40.663522999999998,-75.268127000000007,,
768,5560,"Broadway&centrs",,40.848320999999999,-75.291966000000002,,
1349,5615,"Garbldi&clmbse",,40.880482000000001,-75.215885999999998,,
1355,5588,"Rt 512 & Flory Stsw",,40.871166000000002,-75.241591,,
1604,5598,"Greenwood@postofficen",,40.673634,-75.258812000000006,,
2683,1622,"Cedarpt&drug_storew",,40.583235000000002,-75.52028,,
2932,3200,"Race&11the",,40.652056999999999,-75.460783000000006,,
127,5448,"Nazareth & Newburgsw",,40.701439999999998,-75.269312999999997,,
1455,1027,"Hamilton&racew",,40.604895999999997,-75.462416000000005,,
1996,4819,"Overlk&marathone",,40.620106,-75.489750999999998,,
2291,5107,"Stefko&radclyffesw",,40.631525000000003,-75.355371000000005,,
1896,5187,"Nazrth&lawnhrstse",,40.689954999999998,-75.256639000000007,,
2142,5978,"Rt_309&alponw",,40.612664000000002,-75.571629000000001,,
2975,3243,"Cmmrcwy&sthlnds",,40.677104999999997,-75.382919999999999,,
370,6052,"3rd&americannw",,40.639859000000001,-75.472174999999993,,
2042,5477,"Penna&bne",,40.867607999999997,-75.258476000000002,,
2583,5986,"Whitehallshopctrdickssportsn",,40.646821000000003,-75.490886000000003,,
273,4106,"17th&libertyw",,40.603501000000001,-75.495444000000006,,
605,5222,"Ave_c&rcn_cablne",,40.655650999999999,-75.422621000000007,,
771,5864,"Broadway&cheww",,40.585901,-75.548672999999994,,
1269,4961,"Fburg&whtnyw",,40.665877000000002,-75.263758999999993,,
1767,4277,"Main&7ths",,40.674992000000003,-75.486024,,
2763,6300,"7th&walnuts",,40.600951000000002,-75.471172999999993,,
250,4864,"13th&fairmonts",,40.618203999999999,-75.493082999999999,,
748,5553,"Broadway&2ndsw",,40.840823,-75.295226,,
1246,5299,"Fburg&milfordne",,40.671053000000001,-75.253818999999993,,
1412,5193,"Tatamy&crests",,40.702415000000002,-75.253274000000005,,
1744,4337,"Main&18ths",,40.687477999999999,-75.497750999999994,,
1910,5278,"Nesq&st_johnw",,40.681555000000003,-75.210301000000001,,
891,5528,"Center&broadw",,40.742542999999998,-75.309877999999998,,
2145,6022,"Rt_309&bxwds",,40.644219999999997,-75.591759999999994,,
2477,4613,"Union&8the",,40.625219000000001,-75.394373000000002,,
81,5342,"Thomasbrightaveshilohmanor",,40.680700999999999,-75.220017999999996,,
1126,1429,"Easton&willown",,40.653320999999998,-75.335273000000001,,
2786,6438,"Sullivan Trail & Sandt Rdn",,40.817338999999997,-75.291051999999993,,
436,4551,"Sullivantrail&mecordn",,40.722574000000002,-75.225109000000003,,
1438,1072,"Hamilton&25the",,40.591844999999999,-75.50909,,
2102,4873,"Pres&peache",,40.635291000000002,-75.497377,,
2600,5844,"Windsr&7350_bdw",,40.583668000000003,-75.616752000000005,,
1787,5994,"Main&ednasw",,40.682642999999999,-75.526670999999993,,
1953,1213,"Nhampton&9the",,40.690581000000002,-75.221316999999999,,
2451,4619,"Union&15the",,40.625363999999998,-75.404653999999994,,
728,1124,"Broad&keystonee",,40.623772000000002,-75.416865000000001,,
1810,6204,"Main&pinesw",,40.574328000000001,-75.340844000000004,,
2643,1463,"Wm_penn&weisn",,40.676079999999999,-75.262,,
38,6207,"Creeksideshoppingcentergiant",,40.562966000000003,-75.340591000000003,,
579,4455,"Allen&15the",,40.605922999999997,-75.492085000000003,,
2079,5873,"Bdwy&cdr_crstw @ Trexler Park",,40.589264999999997,-75.525734999999997,,
2620,1454,"Wm_penn&edamye",,40.669528,-75.272441000000001,,
2743,6355,"Sullivan Trail At Park Plaza",,40.717019000000001,-75.221361999999999,,
350,6043,"2nd&hokndqase",,40.668118999999997,-75.488720999999998,,
599,4782,"Ave_a&bradcoe",,40.649608000000001,-75.427531000000002,,
2520,4628,"Union&tacomae",,40.625552999999996,-75.426383999999999,,
207,6239,"Stefko&marvine",,40.633980999999999,-75.351941999999994,,
1369,5116,"Goepp&highw",,40.626195000000003,-75.372957999999997,,
2414,1261,"Tlghmn&cdr_crstw",,40.598045999999997,-75.526764999999997,,
2912,3180,"Cumberland&ellsworthw",,40.592475,-75.442859999999996,,
2059,4259,"Pine St & 2nd Ave (fs)",,40.649312000000002,-75.480461000000005,,
2308,4557,"Susq&2nde",,40.590358000000002,-75.455999000000006,,
3055,6989,"Sullivantrailkesslervillerds",,40.726348999999999,-75.228211000000002,,
44,4783,"Avenueb&citylinerd",,40.652188000000002,-75.423734999999994,,
585,4449,"Allen&9the",,40.609394999999999,-75.479532000000006,,
1040,4693,"Dixon&7thw",,40.580773999999998,-75.462964999999997,,
1581,4228,"Jeferson&12thn",,40.583098999999997,-75.478796000000003,,
1667,1370,"Wyoming&lehighn",,40.589061000000001,-75.473840999999993,,
2663,4280,"Wyoming&12thn",,40.588641000000003,-75.478333000000006,,
685,6057,"Bridge&lehighne",,40.646518,-75.471035000000001,,
934,1401,"Chestnut&7ths",,40.532156000000001,-75.498700999999997,,
1183,4950,"Emrick&baglyosn",,40.659137000000001,-75.293413999999999,,
1432,1065,"Hamilton&18the",,40.596119999999999,-75.494264999999999,,
2849,3079,"Front&centern",,40.664977,-75.488382999999999,,
293,6055,"1st&bridgenw",,40.645575000000001,-75.474388000000005,,
791,5520,"Brodhead&fritchw",,40.680957999999997,-75.344583,,
834,5378,"Butler&17the",,40.685046,-75.235614999999996,,
2457,4831,"Union&18the",,40.593381999999998,-75.493207999999996,,
2955,3223,"Chestnut&11ths",,40.529086,-75.505752000000001,,
2998,6932,"Oaklandbrandeis",,40.668021000000003,-75.319642999999999,,
393,4756,"3rd&parks",,40.632635999999998,-75.470472000000001,,
642,4528,"Broadway&4ths",,40.610180999999997,-75.383054000000001,,
1475,1089,"Hanover&carlisee",,40.609104000000002,-75.448583999999997,,
1724,4645,"Lynn&8th",,40.608924000000002,-75.349315000000004,,
2806,6609,"Sullivan@daisydiners",,40.827047,-75.294888999999998,,
1,1325,"Winchester&pnds",,40.610906,-75.538633000000004,,
542,6160,"8th&eatons",,40.633223000000001,-75.395623000000001,,
1624,4047,"Lehigh&12the",,40.687390999999998,-75.226185000000001,,
2165,5972,"Rt_309&shnkwlrnw",,40.645930999999997,-75.593295999999995,,
1352,5613,"Garbldi&washngse",,40.882134999999998,-75.217245000000005,,
1375,4722,"Gordon&2nde",,40.611010999999998,-75.462560999999994,,
2371,1226,"Tilghman&24the",,40.602066000000001,-75.511602999999994,,
3035,6969,"Otthamilton",,40.590696999999999,-75.512084000000002,,
141,4157,"Emaus&chrchw",,40.574952000000003,-75.460811000000007,,
2062,4307,"Pine&3rd_2n",,40.655830999999999,-75.473687999999996,,
2394,1248,"Tilghmn&oakwdw",,40.593167999999999,-75.576383000000007,,
2726,6275,"Nesquehoning&folkw",,40.681735000000003,-75.208335000000005,,
2895,3015,"Macarhtur&lvdairyn",,40.617716999999999,-75.478925000000004,,
3058,6992,"Vanburenhollos",,40.728777000000001,-75.276032999999998,,
2208,6005,"Rt_873&wdlnds",,40.698526999999999,-75.609373000000005,,
2540,4476,"Walbert&27the",,40.616207000000003,-75.525475,,
2872,3000,"Easton Intermodal Transportation",,40.688963999999999,-75.209637999999998,,
187,5916,"Broadway&39th",,40.583741000000003,-75.538452000000007,,
851,5218,"Catsqua&astere",,40.642417000000002,-75.423777000000001,,
1515,4193,"Harrison&keystnn",,40.542341999999998,-75.494411999999997,,
2517,4629,"Union&shermane",,40.625391999999998,-75.428092000000007,,
164,4107,"17thlvh-Er-Entn",,40.601849000000001,-75.494654999999995,,
287,4465,"19th&livngstons",,40.609954000000002,-75.503427000000002,,
502,4027,"Daly&minsitrailn",,40.613351000000002,-75.357263000000003,,
828,5381,"Butler&14the",,40.685512000000003,-75.229844,,
2494,4683,"Union&irvingw",,40.624250000000004,-75.442700000000002,,
310,4090,"Madison&hoover",,40.636231000000002,-75.500037000000006,,
897,5495,"Center&fairvwn",,40.627485999999998,-75.375140999999999,,
974,4071,"Chstnt&5thw",,40.672142000000001,-75.496024000000006,,
1807,4653,"Main&norths",,40.623916000000001,-75.382019,,
2225,5228,"Schnrsvl&cityse",,40.655797,-75.416656000000003,,
2889,3162,"Catasauqua&hollye",,40.639921000000001,-75.401555000000002,,
210,5418,"Commrce&brdhd",,40.673675000000003,-75.382362999999998,,
456,4652,"4th&lynnw",,40.612034000000001,-75.350426999999996,,
874,1320,"Cdr_crest&edinbs",,40.607748999999998,-75.531064999999998,,
1120,1484,"Easton&reevedriveweste",,40.665041000000002,-75.317068000000006,,
1538,6188,"Hellrtwn&shimersvilles",,40.609457999999997,-75.339961000000002,,
1661,1357,"Lehigh&perkinsw",,40.553142000000001,-75.491384999999994,,
2202,5902,"Rt_873&southn",,40.746577000000002,-75.610872999999998,,
18,5019,"Pembrk&marvinew",,40.629198000000002,-75.350599000000003,,
765,5552,"Broadway&an",,40.836635000000001,-75.296481999999997,,
2686,1222,"Tilghman&29the",,40.599142999999998,-75.522120999999999,,
2935,3203,"Race&12thw",,40.652723000000002,-75.459175000000002,,
3018,6952,"Marconblvdroblerdn",,40.639195000000001,-75.451971,,
373,4706,"3rd&chestnutn",,40.634101999999999,-75.470547999999994,,
705,1161,"Broad&4thw",,40.622559000000003,-75.389791000000002,,
2580,5349,"Washngtn&15thw",,40.686433999999998,-75.231542000000005,,
1312,4767,"Front&allens",,40.615065999999999,-75.459807999999995,,
2640,1453,"Wm_penn&sherdnw",,40.669038999999998,-75.274304999999998,,
2972,3232,"Rt873&starlnne",,40.732987999999999,-75.616944000000004,,
1999,4867,"Overlk&olympicw",,40.620072,-75.488966000000005,,
2331,4504,"Susq&halsteadw",,40.592402,-75.436859999999996,,
270,4456,"16th&allens",,40.605339999999998,-75.493939999999995,,
519,5149,"8th&bradfordn",,40.635415000000002,-75.395691999999997,,
1598,5407,"Knox&senioraptsn",,40.706777000000002,-75.215438000000006,,
1847,5491,"Market&2nde",,40.866971999999997,-75.207707999999997,,
2185,5898,"Rt_873&dowells",,40.751477000000001,-75.612857000000005,,
2434,1310,"Turner&20the",,40.597726000000002,-75.499409,,
1498,1102,"Hanover&shermaw",,40.621586999999998,-75.427240999999995,,
2826,6644,"Stjosephcharlese",,40.682794999999999,-75.206129000000004,,
2832,6769,"Rt_873&unionvils",,40.692005000000002,-75.609431999999998,,
224,4770,"Gordon&ridgew",,40.611728999999997,-75.460391000000001,,
1060,5074,"East&northn",,40.648625000000003,-75.349873000000002,,
1306,5370,"Frmersvl&rexfrds",,40.674388999999998,-75.307799000000003,,
1893,5229,"Nazrth&jewelnw",,40.692137000000002,-75.259613000000002,,
2139,5531,"Rt_248&nissannw",,40.721007,-75.292957000000001,,
665,4535,"Brdwy&lynnw",,40.601197999999997,-75.396843000000004,,
1206,4977,"Fburg&20ths",,40.682671999999997,-75.239411000000004,,
1452,1081,"Hamilton&linclne",,40.574722999999999,-75.533456999999999,,
1747,4317,"Main&1stn",,40.668021000000003,-75.480813999999995,,
1993,4866,"Overlk&corinthw",,40.620651000000002,-75.491909000000007,,
2534,4473,"Walbert&24the",,40.616757999999997,-75.518724000000006,,
3075,7009,"Ncommercecenterblvdmicrocleans",,40.680408999999997,-75.376222999999996,,
439,4314,"4th&grovew",,40.662753000000002,-75.480907000000002,,
1435,1069,"Hamilton&22nde",,40.593580000000003,-75.502786,,
1933,4355,"New&unionn",,40.624825000000001,-75.378259,,
2099,6169,"Pres&mickleye",,40.634287999999998,-75.489611999999994,,
2431,1313,"Turner&17the",,40.599297,-75.493690999999998,,
2597,5332,"Williams&davise",,40.675303,-75.212154999999996,,
416,4591,"4th&buchanane",,40.610655000000001,-75.369005000000001,,
582,4995,"Allen&7the",,40.610385999999998,-75.475865999999996,,
1578,4729,"Irving&cedarhilldr",,40.634951000000001,-75.446642999999995,,
2076,5874,"Pkwy&31stw",,40.589835999999998,-75.522407000000001,,
227,4406,"19th&pennan",,40.612893999999997,-75.504638,,
559,4484,"9th&libertys",,40.608257000000002,-75.478882999999996,,
1223,5303,"Freemansburg Ave & 25th E",,40.674438000000002,-75.247218000000004,,
2809,6653,"Dnfrth&map_easw",,40.733395999999999,-75.260424999999998,,
204,5070,"East&butztown",,40.653168000000001,-75.348585999999997,,
1790,4315,"Main&greenn",,40.665474000000003,-75.480846,,
2454,4880,"Union&16thw",,40.594723999999999,-75.488778999999994,,
1100,1416,"Easton&jeningse",,40.638325999999999,-75.361018999999999,,
1764,5463,"8th & Commerce Lanes",,40.736033999999997,-75.258566000000002,,
625,5248,"Berwick&filbertw",,40.679101000000003,-75.213907000000006,,
2125,6127,"Race&wlw_brksw",,40.658425000000001,-75.445690999999997,,
2623,1458,"Wm_penn&filbare",,40.672122000000002,-75.266907000000003,,
2666,4147,"Main&7th(tatamy) Ne",,40.741199000000002,-75.256907999999996,,
2789,6458,"Mcfadden&nationalplasticss",,40.731574000000002,-75.265244999999993,,
61,4202,"S5th&wyoming",,40.592801999999999,-75.463233000000002,,
725,1127,"Broad&highlande",,40.623015000000002,-75.408726999999999,,
1392,4751,"Grape&5the",,40.635742999999998,-75.473166000000006,,
751,5917,"Broadway&38thne",,40.584260999999998,-75.536586,,
1292,4920,"Fmvill&eastonn",,40.666949000000002,-75.306636999999995,,
1833,4276,"Main&washngtons",,40.673344,-75.483633999999995,,
1956,4012,"Nhampton&kthrynw",,40.685974000000002,-75.258870999999999,,
2497,4633,"Union&kiowae",,40.624481000000003,-75.437940999999995,,
433,4588,"4th&filmorew",,40.610688000000003,-75.372138000000007,,
682,6056,"Bridge&colmbiane",,40.646087999999999,-75.473117000000002,,
2603,5857,"Windsr&7540_bdge",,40.582928000000003,-75.621752999999998,,
2852,3134,"Schoenersvillerdgrovenw",,40.660255999999997,-75.420906000000002,,
539,4282,"8thpittstonn",,40.593071000000002,-75.469595999999996,,
1037,4695,"Dixion&5thw",,40.580669,-75.457925000000003,,
1535,4350,"Held&cherryn",,40.697087000000003,-75.501267999999996,,
1584,4230,"Jeferson&cmbrldn",,40.586920999999997,-75.479028999999997,,
645,4534,"Broadway&bergenw",,40.601641000000001,-75.395477999999997,,
894,5501,"Center&dewbrys",,40.640441000000003,-75.375862999999995,,
1727,1348,"Macarth&fairmntn",,40.624620999999998,-75.482168999999999,,
1976,1197,"Nthpn&7thw",,40.690894,-75.218057999999999,,
2305,5581,"Sullivan Trail & Rt191 Bangor Rd",,40.767671999999997,-75.272788000000006,,
290,4402,"19th&washingtonn",,40.606555999999998,-75.501632999999998,,
1372,5105,"Goepp&maplee",,40.625995000000003,-75.368950999999996,,
1913,5770,"Nestle&cdce",,40.572637999999998,-75.646367999999995,,
2368,1234,"Tilghman&21stw",,40.603986999999996,-75.505072999999996,,
2995,6929,"Synchr Corp & Spillman",,40.614908999999997,-75.352233999999996,,
104,4075,"Chsntnt&ruch",,40.667180999999999,-75.503788,,
1521,5360,"Hecktown&ednan",,40.659908999999999,-75.332171000000002,,
2019,5640,"Pembrke&frnwdne",,40.627844000000003,-75.362976000000003,,
2268,5281,"St_josph&folk",,40.682484000000002,-75.208611000000005,,
496,4030,"6th & Lynns",,40.609968000000002,-75.349202000000005,,
1621,4049,"Lehigh&10the",,40.687569000000003,-75.222380999999999,,
2119,6108,"Race&fashionne",,40.659312,-75.443495999999996,,
147,1361,"Lehigh&31st",,40.559269,-75.487495999999993,,
396,4217,"3rd&ridgee",,40.536997999999997,-75.492058,,
1229,5297,"Fburg&grandviewne",,40.669542999999997,-75.256693999999996,,
1478,1114,"Hanover&quebece",,40.620449000000001,-75.429333999999997,,
2311,4498,"Susq&albertw",,40.590888999999997,-75.450637,,
2560,5345,"Walnut&ferryw",,40.689180999999998,-75.217034999999996,,
247,4993,"13th&butlerw",,40.685783000000001,-75.227925999999997,,
1329,4717,"Front&tilghmann",,40.616539000000003,-75.460323000000002,,
1870,4822,"Jordn&mickleys",,40.621164,-75.483374999999995,,
2411,1273,"Tlghmn&40the",,40.593024999999997,-75.544274999999999,,
2952,3220,"Nhmpton&5the",,40.690964999999998,-75.213202999999993,,
2775,6374,"33rd&bergerw",,40.555179000000003,-75.486754000000005,,
545,4736,"8th St & St John St S",,40.591284000000002,-75.468997000000002,,
877,1321,"Cdr_crest&highls",,40.604421000000002,-75.530083000000005,,
1092,1485,"Easton&harvardw",,40.662723,-75.324223000000003,,
1424,1041,"Hamilton&14the",,40.598184000000003,-75.486106000000007,,
1756,4347,"Main&24ths",,40.696795999999999,-75.499162999999996,,
2088,4725,"Postal&hangarw",,40.644139000000003,-75.446381000000002,,
2420,1260,"Tlghmn&trx_aptw",,40.595025999999997,-75.537518000000006,,
2466,4656,"Union&3rde",,40.625126000000002,-75.388236000000006,,
946,1288,"Chew&13thw",,40.603203000000001,-75.485681999999997,,
1023,5138,"Delaware&bergnsw",,40.602592999999999,-75.396806999999995,,
2274,5110,"Stefko&bayardsw",,40.635826000000002,-75.350487999999999,,
2938,3206,"Stokeprk&highpointe",,40.658102,-75.416157999999996,,
2944,3212,"Stokeprk&wegmansdriven",,40.665053,-75.387103999999994,,
2297,5085,"Stefko&washngtne",,40.629390999999998,-75.357759000000001,,
2961,3229,"Main&hillsidew",,40.685690000000001,-75.516265000000004,,
900,5499,"Center&greenwhs",,40.632340999999997,-75.375187999999994,,
1069,5075,"East&norths",,40.648921999999999,-75.350121000000001,,
1564,5774,"Boulder&industse",,40.562395000000002,-75.622352000000006,,
1733,4326,"Main&13thn",,40.681047,-75.491592999999995,,
2397,1244,"Tilghman&ruppsvillew",,40.589277000000003,-75.603746000000001,,
382,6051,"3rd&jeffrsonnw",,40.638283000000001,-75.471390999999997,,
1046,5456,"Dnfrth&orbelcorpn",,40.733303999999997,-75.260148000000001,,
113,5821,"8014industrialblvdentrancee",,40.562486,-75.620106000000007,,
528,4395,"8th&gordonn",,40.607236999999998,-75.476128000000003,,
860,5401,"Cattell&highnw",,40.700679000000001,-75.205958999999993,,
1109,1470,"Easton&mntgmryw",,40.639338000000002,-75.358519999999999,,
1441,1028,"Hamilton&2ndw",,40.605511,-75.460167999999996,,
1856,5575,"Market St & 6th St",,40.867347000000002,-75.212055000000007,,
2188,5951,"Rt_873&freidnss",,40.735567000000003,-75.615392999999997,,
422,4267,"4th&chapel_ctys",,40.658977,-75.475718999999998,,
754,5554,"Broadway&3rds",,40.841467000000002,-75.294792999999999,,
1547,5506,"Highland&burgsw",,40.668377,-75.379033000000007,,
2543,4470,"Walbert&whitehalle",,40.616990999999999,-75.515778999999995,,
2875,3147,"Commercectrblvd&gilchrestw",,40.604149,-75.336063999999993,,
1902,5536,"Nazrd&diner248n",,40.710740999999999,-75.280658000000003,,
3067,7001,"Qvc Bldg & Commerce Access Rd",,40.609361999999997,-75.316238999999996,,
2048,5478,"Pennsylvania&lobb",,40.868073000000003,-75.256786000000005,,
2380,4022,"Tilghman&ridges",,40.615727999999997,-75.462365000000005,,
2921,3189,"Hamltn_xing@krockse",,40.564627000000002,-75.560652000000005,,
27,4120,"Whitehall&ent",,40.634427000000002,-75.483842999999993,,
276,4400,"19th&allenn",,40.603631,-75.500247000000002,,
1693,4104,"Linden&5thw",,40.604671000000003,-75.468829999999997,,
1942,1209,"Nhampton&13the",,40.690246999999999,-75.228537000000003,,
3021,6955,"Conventcenterne",,40.742417000000003,-75.320520999999999,,
1006,5410,"Ctr&1st_prsb_chn",,40.644897999999998,-75.376306999999997,,
2334,4507,"Susqdelw",,40.592702000000003,-75.429686000000004,,
2629,1443,"Wm_penn&hopee",,40.666316000000002,-75.288529999999994,,
1401,4914,"Green&hecktwnw",,40.674565999999999,-75.328120999999996,,
1647,1371,"Lehigh&9ths",,40.590468000000001,-75.471463,,
1650,1358,"Lehigh&bevinw",,40.551785000000002,-75.491505000000004,,
2483,4642,"Union&ellsworthe",,40.620345,-75.452892000000006,,
2729,6278,"Sullivan & Belfast N",,40.780582000000003,-75.278343000000007,,
173,4564,"Susq&gilmorene",,40.591732,-75.438976999999994,,
960,1284,"Chew&9thw",,40.605502000000001,-75.477343000000005,,
1009,5413,"Ctr&johnstons",,40.656405999999997,-75.377882999999997,,
1255,5289,"Fburg&old_or_drne",,40.66451,-75.266073000000006,,
1501,1119,"Hanover&ulsterw",,40.622515999999997,-75.423902999999996,,
1796,6191,"Main&kiernans",,40.593076000000003,-75.340210999999996,,
2337,4495,"Susq&racew",,40.590366000000003,-75.457751999999999,,
107,5241,"Wood&25the",,40.686013000000003,-75.250632999999993,,
2028,5828,"Industrial&rt100w",,40.566358000000001,-75.611812,,
2194,6007,"Rt_873&nefs_bks",,40.693832999999998,-75.609648000000007,,
2526,4085,"Walbert&cedarcreste",,40.615310999999998,-75.535157999999996,,
3024,6958,"Westvallmktplceaccrde",,40.554481000000003,-75.580115000000006,,
3047,6981,"Seip Ave & Kohl St Eb",,40.739370999999998,-75.323616000000001,,
485,4243,"Greenleaf&5ths",,40.616176000000003,-75.473928000000001,,
820,5693,"Easton&farmersvillene",,40.666196999999997,-75.310606000000007,,
1152,4162,"Emmaus&12thn",,40.568368,-75.472041000000004,,
1481,1093,"Hanover&grahame",,40.615490999999999,-75.444744,,
130,6034,"Walmartwhitehallshopctr",,40.644585999999997,-75.489017000000004,,
462,5887,"4th&mountainn",,40.573622,-75.451714999999993,,
2171,6023,"Rt_309&wlf_crs",,40.641120999999998,-75.58896,,
1195,4252,"Fairmont&macarthurs",,40.624209,-75.481356000000005,,
1859,5485,"Market St & 8th St",,40.867494000000001,-75.215821000000005,,
2861,3007,"Washington&7thw",,40.613560999999997,-75.476890999999995,,
797,5517,"Brodhd&opusw",,40.680076,-75.352292000000006,,
1338,4764,"Fullerton& Jordans",,40.620047,-75.462603000000001,,
2008,5016,"Pembrk&fritzw",,40.628948999999999,-75.354436000000007,,
2500,4640,"Union&lsi_shlts",,40.622613000000001,-75.451087000000001,,
654,4525,"Brdwy&fiotn",,40.606065999999998,-75.388721000000004,,
1318,4769,"Front&gordons",,40.612327999999998,-75.458633000000006,,
1487,1097,"Hanover&kiowae",,40.618127999999999,-75.437321999999995,,
2151,6019,"Rt_309&htg_chs",,40.650221000000002,-75.597956999999994,,
2569,4992,"Washgtn&12thw",,40.686687999999997,-75.226248999999996,,
87,5566,"Pennsylvania Ave & Robinson Aves",,40.868724999999998,-75.254759000000007,,
505,4034,"7th&cresentw",,40.653351999999998,-75.496996999999993,,
2669,1600,"Allentown Garage Relief",,40.587372000000002,-75.476624000000001,,
777,5909,"Broadway&pkwyse",,40.586314999999999,-75.550469000000007,,
1524,4913,"Hecktwn&canbrys",,40.672898000000004,-75.32826,,
1773,5943,"Main&canale",,40.753418000000003,-75.600847000000002,,
2022,5641,"Pembrke&woodne",,40.627135000000003,-75.365048000000002,,
2271,1352,"State&harrisonw",,40.547786000000002,-75.489722999999998,,
256,4815,"13th&pennan",,40.616405999999998,-75.492058999999998,,
883,4024,"Cdr_crst&lncolnn",,40.570275000000002,-75.518991,,
1418,1034,"Hamilton&10the",,40.600417,-75.478013000000004,,
1879,5832,"Mill&ambassadrnw",,40.589401000000002,-75.615519000000006,,
3041,6975,"17thturners",,40.599468000000002,-75.493692999999993,,
399,4930,"3rd&bushkilln",,40.694108,-75.209269000000006,,
648,4524,"Broadway&bishpthrpn",,40.604874000000002,-75.390234000000007,,
1238,4965,"Fburg&grenwodw",,40.669901000000003,-75.256347000000005,,
2320,4573,"Susquehanna&centere",,40.594476,-75.416497000000007,,
2898,3166,"Main&churche-Egypt",,40.680163,-75.530207000000004,,
634,5204,"Berwick&reynlde",,40.678452999999998,-75.219661000000002,,
2257,5344,"Charles&kleinhanss",,40.680042999999998,-75.205753000000001,,
2712,8000,"Boulder Dr At Amazon",,40.557440999999997,-75.619026000000005,,
193,4777,"Cedar Pointe & Boston Market W",,40.582216000000003,-75.521449000000004,,
442,4594,"4th&hayese",,40.610737999999998,-75.365868000000006,,
691,1153,"Broad&12thw",,40.622722000000003,-75.400281000000007,,
2357,4895,"Texas&ottw",,40.583317000000001,-75.508326999999994,,
2606,5847,"Windsr&imprl @7450nw",,40.583992000000002,-75.623030999999997,,
342,6075,"2nd&centernw",,40.671464999999998,-75.489729999999994,,
840,5389,"Butler@wilsonhsw",,40.683615000000003,-75.243891000000005,,
1965,1192,"Nthpn&13thw",,40.690421999999998,-75.227960999999993,,
2463,4836,"Union&23rde",,40.590480999999997,-75.503771,,
2506,4621,"Union&mt_airye",,40.625414999999997,-75.406775999999994,,
3004,6938,"Gordon9thw",,40.606889000000002,-75.478015999999997,,
150,6226,"Penna&tacoma",,40.629752000000003,-75.426606000000007,,
2065,4302,"Pine St &  4th Ave (ns)",,40.646391999999999,-75.481268999999998,,
2314,4560,"Susquehanna&bradforde",,40.590874999999997,-75.448995999999994,,
50,5860,"Townecentermalltilghmanst",,40.591025000000002,-75.561370999999994,,
1673,4458,"Liberty&17the",,40.603493999999998,-75.495647000000005,,
2214,6070,"Ruch&oaknw",,40.668764000000003,-75.504615999999999,,
24,1475,"Easton&eastw",,40.643630000000002,-75.348213000000001,,
1945,1206,"Nhampton&16the",,40.689872000000001,-75.234195999999997,,
2277,5095,"Stefko&glenmerene",,40.642012999999999,-75.346479000000002,,
2941,3209,"Stokeprk@faulknrsubaruw",,40.660795,-75.390114999999994,,
47,4672,"Union&pennw",,40.627567999999997,-75.414935999999997,,
1922,4359,"New&elizabethn",,40.630918000000001,-75.378096999999997,,
2918,3186,"Race&frontn",,40.648797999999999,-75.468228999999994,,
70,4875,"Madison&peachtree",,40.636102999999999,-75.497926000000007,,
402,6087,"3rd&unionse",,40.641323999999997,-75.473039999999997,,
571,4450,"Allen&10the",,40.608707000000003,-75.481977999999998,,
734,1167,"Broad&minsin",,40.622090999999998,-75.360868999999994,,
903,5437,"Broad&belvideren",,40.740775999999997,-75.309447000000006,,
1066,5068,"East&springgardenn",,40.647424000000001,-75.349692000000005,,
1235,4959,"Fburg&eichlinw",,40.664600999999998,-75.266159000000002,,
1398,4753,"Grape&jordane",,40.634324999999997,-75.477982999999995,,
1730,1351,"Macrthr&micklys",,40.619678999999998,-75.480112000000005,,
2231,5840,"Snwdrft&6681sw",,40.594102999999997,-75.608061000000006,,
216,5314,"17th&washngton",,40.686011999999998,-75.235131999999993,,
425,4603,"4th&edwardw",,40.611451000000002,-75.357253,,
548,6210,"8th&tilghmanse",,40.611238,-75.478031000000001,,
757,5866,"Broadway&41stw",,40.583874999999999,-75.543075999999999,,
880,1319,"Cdr_crest&washis",,40.599212999999999,-75.528467000000006,,
2417,1271,"Tlghmn&pkwye",,40.591448,-75.550000999999995,,
1089,1490,"Easton&farmvilw",,40.666438999999997,-75.309814000000003,,
1212,4971,"Fburg&27thw",,40.674587000000002,-75.247360999999998,,
1421,1036,"Hamilton&12thw",,40.599600000000002,-75.481553000000005,,
1753,4344,"Main&23rdn",,40.694386000000002,-75.499725999999995,,
1876,4301,"Mickley&schadtn",,40.643205000000002,-75.483570999999998,,
2085,6066,"Postal&fedexne",,40.642772000000001,-75.448717000000002,,
1189,4953,"Emrick&fburgn",,40.653089000000001,-75.291112999999996,,
1444,1021,"Hamilton & 5th E",,40.603225999999999,-75.467928999999998,,
2772,6369,"Windsr&7200_bdw",,40.584277,-75.613114999999993,,
1467,4009,"Hamltn&kresslrw",,40.568939999999998,-75.547661000000005,,
2131,5432,"Rt_191&hecktwnnw",,40.692784000000003,-75.334897999999995,,
2795,6525,"Penn&georgene",,40.863874000000003,-75.266532999999995,,
233,4775,"11th&hamiltonw",,40.600107000000001,-75.479956000000001,,
1736,4329,"Main&14ths",,40.682549000000002,-75.493262000000001,,
2400,1262,"Tlghmn&23rdw",,40.602834000000001,-75.509242,,
2818,6668,"4th&emerye",,40.611772999999999,-75.345142999999993,,
3064,6998,"Sullivan Trail & Frable St",,40.789675000000003,-75.282802000000004,,
2423,5131,"Tombler&delawrw",,40.605851000000001,-75.393844999999999,,
2964,3234,"Oldmill&sullivane",,40.710867,-75.217885999999993,,
30,4172,"South_mall&ent",,40.555284,-75.491539000000003,,
279,4468,"19th&fairmonts",,40.614759999999997,-75.505691999999996,,
362,6042,"2nd&schrberse",,40.669189000000003,-75.489101000000005,,
1358,5586,"Rt 512 & Flory Stne",,40.871017999999999,-75.241714000000002,,
1607,5606,"Uhler Rd & Sullivan Trail Sw",,40.744998000000002,-75.243747999999997,,
1690,5927,"309&ashleymotorss",,40.662590000000002,-75.603914000000003,,
1939,1212,"Nhampton&10the",,40.690524000000003,-75.222673,,
1049,5062,"East&barrettn",,40.659782,-75.349502999999999,,
1252,4966,"Fburg&oakwdw",,40.670644000000003,-75.254979000000006,,
2045,5563,"Penna.avecstsw",,40.867412000000002,-75.259561000000005,,
2377,4020,"Tilghman&jordas",,40.613998000000002,-75.468784999999997,,
1653,1366,"Lehigh&downyflw",,40.571925999999998,-75.481159000000005,,
1985,5267,"Philadelphia&seitzw",,40.674940999999997,-75.214644000000007,,
671,4513,"Brdwy&rosevelte",,40.598568999999998,-75.404542000000006,,
966,4079,"Chsntnt&7the",,40.671081999999998,-75.497870000000006,,
1003,5508,"Courtny&commrcs",,40.672984999999997,-75.377073999999993,,
1298,5275,"Charles&eastlincolns",,40.678766000000003,-75.205571000000006,,
2294,5087,"Stefko&waltersne",,40.631954,-75.354513999999995,,
857,5405,"Cattell&burken",,40.704039000000002,-75.207671000000005,,
863,5406,"Cattell&lafyettn",,40.705016999999998,-75.208022999999997,,
1106,1472,"Easton&lincolnw",,40.641041999999999,-75.354022000000001,,
1112,1487,"Easton&sheltonw",,40.660974000000003,-75.327971000000005,,
2191,5906,"Rt_873&glencrse",,40.702254000000003,-75.613367999999994,,
2440,4662,"Union&10thw",,40.625427999999999,-75.397278,,
2778,6377,"7th&greenleafn",,40.614955999999999,-75.477627999999996,,
3027,6961,"Hamiltonuline Walkway",,40.554884000000001,-75.58372,,
170,5252,"Berwick&centree",,40.678350000000002,-75.220764000000003,,
176,4126,"Allen & 13thw",,40.607272000000002,-75.487643000000006,,
465,4265,"4th&pines",,40.656919000000002,-75.472781999999995,,
1793,6193,"Main&highsw",,40.590249,-75.340221999999997,,
2340,4566,"Susq&tweede",,40.592700999999998,-75.434042000000005,,
1404,4242,"Greenleaf&6ths",,40.615665,-75.475786999999997,,
2486,4635,"Union&fenwicke",,40.623752000000003,-75.449529999999996,,
419,4310,"4th&chapel_ctyw",,40.658866000000003,-75.475347999999997,,
1550,5415,"Highlnd&burgesse",,40.668227999999999,-75.379328999999998,,
2091,4786,"Postal&post_offw",,40.645231000000003,-75.435108,,
2632,1507,"Wm_penn&milfrdne",,40.678223000000003,-75.259276999999997,,
1696,4110,"Linden&9thw",,40.602716999999998,-75.476000999999997,,
2360,1233,"Tilghman&17the",,40.605950999999997,-75.497495999999998,,
2858,3004,"4thst@wellsfargon",,40.579928000000002,-75.455566000000005,,
2715,6262,"2nd&founderswaye",,40.613194999999997,-75.368131000000005,,
2881,3153,"12th&lehighe",,40.582320000000003,-75.477688000000001,,
153,6223,"2nd&turnern",,40.608241999999997,-75.461016999999998,,
488,4246,"5th&ny_aves",,40.621358000000001,-75.473241999999999,,
817,5690,"Greenwood&groves",,40.675747999999999,-75.260163000000006,,
2148,6020,"Rt_309&estvws",,40.647561000000003,-75.595082000000005,,
2480,4671,"Union&beverlyw",,40.627983,-75.412083999999993,,
794,5424,"Brodhd&mowrere",,40.678609999999999,-75.363602,,
1507,4223,"Harison&keystns",,40.542552000000001,-75.494418999999994,,
2503,4632,"Union&maxwelle",,40.624721000000001,-75.435389999999998,,
2025,5784,"Penn&7346_bldge",,40.579090999999998,-75.613776000000001,,
2523,4675,"Union&van_burnw",,40.625954,-75.423732000000001,,
2689,60000,"Allentown Garage",,40.586886999999997,-75.477112000000005,,
10,1488,"Easton&oaklandw",,40.665607999999999,-75.315212000000002,,
133,4453,"Allen&13the",,40.607064000000001,-75.487937000000002,,
674,4526,"Brdwy&montclairn",,40.609873999999998,-75.383281999999994,,
1172,4158,"Emaus&8ths",,40.573785999999998,-75.463427999999993,,
2174,5482,"Route 512 &  American Bangor St",,40.871608000000002,-75.233452999999997,,
2672,1611,"Hamlton&20thw",,40.594988999999998,-75.498341999999994,,
651,4538,"Brdwy&dodsonw",,40.599423999999999,-75.402276999999998,,
2815,6352,"Spillman & Emery Eb",,40.613202999999999,-75.346447999999995,,
1464,4001,"Hamltn&grangee",,40.557934000000003,-75.573615000000004,,
1882,5792,"Mill&americldse",,40.593575000000001,-75.618691999999996,,
196,6230,"Hamiltrextnw",,40.548264000000003,-75.605046999999999,,
445,4601,"4th&hobartw",,40.611297999999998,-75.359556999999995,,
694,1130,"Broad&14the",,40.622585999999998,-75.403453999999996,,
943,1285,"Chew&10thw",,40.604745999999999,-75.480103999999997,,
1192,4249,"Fairmont&6ths",,40.624316,-75.473946999999995,,
90,1164,"Broad&centerw",,40.622328000000003,-75.375632999999993,,
551,5144,"8th&unions",,40.625067000000001,-75.395004999999998,,
1086,1476,"Easton&stefkow",,40.644874999999999,-75.345444000000001,,
1713,5330,"Line&philae",,40.674244000000002,-75.215228999999994,,
2211,5955,"Rt_873&wdlndn",,40.698188999999999,-75.609210000000004,,
731,1166,"Broad&lindenw",,40.622259,-75.370821000000007,,
2317,4572,"Susq&brooke",,40.593949000000002,-75.419828999999993,,
339,4435,"Walbrt&28thw",,40.616207000000003,-75.527423999999996,,
1962,1195,"Nthpn&10thw",,40.690674999999999,-75.222217999999998,,
2958,3226,"Wcoplay&coplayn",,40.676811000000001,-75.503091999999995,,
3044,6978,"4thstlexingtonstsw",,40.585642999999997,-75.459710999999999,,
1278,4898,"Flexler&belfrds",,40.579268999999996,-75.512343999999999,,
1527,4910,"Hecktwn&darts",,40.665489999999998,-75.333190000000002,,
1776,5894,"Main&cherrysw",,40.754527000000003,-75.598490999999996,,
4,1000,"Atc",,40.604591999999997,-75.471727000000001,,
1129,1412,"Easton&woodlawne",,40.632809000000002,-75.367553000000001,,
1627,4045,"Lehigh&14the",,40.687206000000003,-75.229984000000002,,
2168,5964,"Rt_309&sprucenw",,40.671159000000003,-75.609352000000001,,
737,1126,"Broad&pennae",,40.623334999999997,-75.410573999999997,,
986,5600,"Eastonseniorcentern",,40.735666000000002,-75.235037000000005,,
2068,5925,"Ottparkwaye",,40.594220999999997,-75.513592000000003,,
2901,3169,"Levans&rt309w",,40.654490000000003,-75.599672999999996,,
1378,4772,"Gordon&4thw",,40.609650999999999,-75.467974999999996,,
1919,5163,"New&3rdn",,40.611865999999999,-75.378462999999996,,
2460,4885,"Union&21stw",,40.591825,-75.499324000000001,,
3001,6935,"Gordon6thw",,40.608465000000002,-75.472277000000005,,
119,6231,"Hamiltrextne",,40.548143000000003,-75.605104999999995,,
451,4152,"Cherryvlle&helds",,40.697617000000001,-75.500093000000007,,
1115,1420,"Easton&renwicke",,40.641424999999998,-75.352723999999995,,
1447,1029,"Hamilton&albertw",,40.607779000000001,-75.451104999999998,,
96,5976,"Rt_309&orfld_scn",,40.628998000000003,-75.582353999999995,,
428,6186,"4th&emeryw",,40.612236000000003,-75.346517000000006,,
829,4982,"Butler&14thw",,40.685636000000002,-75.229620999999995,,
1825,5658,"Main&thomasn",,40.585171000000003,-75.341238000000004,,
2157,6025,"Rt_309&lm_klns",,40.628238000000003,-75.582430000000002,,
2821,6316,"Cdr_crest&highlandn",,40.604407999999999,-75.529888,,
142,6222,"17th&turnere",,40.599235999999998,-75.493425000000002,,
474,4198,"4th&wabashn",,40.582307999999998,-75.457104999999999,,
1138,4362,"Elizabeth&highe",,40.630572000000001,-75.373580000000004,,
1470,4003,"Hamltn&krck_ctw",,40.560465000000001,-75.567905999999994,,
2134,5524,"Pa 191 & Newburg Rd S",,40.703519,-75.329465999999996,,
288,4401,"19th&tilghmann",,40.604877000000002,-75.500840999999994,,
952,1294,"Chew&19thw",,40.599665000000002,-75.498515999999995,,
2280,5096,"Stefko&glenwoodne",,40.643262,-75.345726999999997,,
2867,3141,"St Luke@centroniae",,40.585630999999999,-75.555993999999998,,
305,5395,"22nd&fairviewn",,40.687370999999999,-75.244764000000004,,
1516,4195,"Harrison&wennern",,40.544603000000002,-75.492346999999995,,
1639,4056,"Lehigh&4thw",,40.657361999999999,-75.491313000000005,,
2180,5904,"Rt_873&churchs",,40.722869000000003,-75.617547999999999,,
2844,3062,"Lehigh&4the",,40.657150999999999,-75.491489000000001,,
2967,3237,"14th&highlandn",,40.614272999999997,-75.493427999999994,,
2326,4571,"Susq&fairviewe",,40.593485999999999,-75.422279000000003,,
2990,3752,"Center Valley Rd & Promenade Sho",,40.557946000000001,-75.411006999999998,,
2472,4659,"Union&6the",,40.625191000000001,-75.392415999999997,,
3013,6947,"Weismktonwilliampennhighwyw",,40.677540999999998,-75.262725000000003,,
1702,5879,"Linden&ottw",,40.593881000000003,-75.513591000000005,,
1785,6200,"Main&eastons",,40.580075999999998,-75.340996000000004,,
2034,4092,"Main&rt_145s",,40.756594,-75.595370000000003,,
3030,6964,"Muhlenbergchewe",,40.596311999999998,-75.510273999999995,,
219,5174,"Catasqua&pennaw",,40.642617000000001,-75.426000999999999,,
766,5912,"Broadway&cdrbrkse",,40.584328999999997,-75.544725,,
1098,1413,"Easton&beechw",,40.631962000000001,-75.368637000000007,,
2094,6157,"Pres&crnrstnse",,40.634605999999998,-75.491892000000007,,
2389,1250,"Tilghmn&commw",,40.590791000000003,-75.566901000000001,,
2426,1304,"Turner&11the",,40.602710999999999,-75.481335999999999,,
2721,6270,"Ncc_pennhall",,40.671747000000003,-75.323943,,
79,6240,"17th&lehighs",,40.686740999999998,-75.235230999999999,,
328,4840,"24th&southn",,40.586481999999997,-75.503995000000003,,
411,4268,"4th&archs",,40.659832000000002,-75.476927000000003,,
574,4125,"Allen&12thw",,40.607846000000002,-75.485560000000007,,
660,4521,"Brdwy&hofferte",,40.602010999999997,-75.394003999999995,,
906,5493,"Center&unionn",,40.624895000000002,-75.375208999999998,,
1407,5238,"Grnwd&charlts",,40.681471999999999,-75.261674999999997,,
1656,1375,"Lehigh&juniatan",,40.585490999999998,-75.475426999999996,,
1739,4332,"Main&16thn",,40.684812000000001,-75.495335999999995,,
720,1171,"Broad&elmn",,40.622022000000001,-75.367062000000004,,
1052,5060,"East&chestern",,40.661890999999997,-75.349598,,
1261,5051,"Fburg&schewpse",,40.648879000000001,-75.303560000000004,,
1347,4700,"Grape&jordanw",,40.634622,-75.477614000000003,,
2675,1614,"Hamlton&23rdw",,40.593255999999997,-75.504711,,
1201,5041,"Fburg&10thw",,40.642225000000003,-75.322717999999995,,
1948,1203,"Nhampton&19the",,40.689405999999998,-75.238971000000006,,
2286,5086,"Stefko&justbornne",,40.631146999999999,-75.355543999999995,,
2529,4410,"Walbert&21stw",,40.617066000000001,-75.511242999999993,,
2535,4432,"Walbert&25thw",,40.616698,-75.520881000000003,,
514,1336,"7th&libertys",,40.609344999999998,-75.475181000000006,,
1301,5277,"Charles&nesquehoningn",,40.681883999999997,-75.205883999999998,,
1842,4727,"Marcon&irvingw",,40.639532000000003,-75.448183999999998,,
1848,5579,"Market&2ndw",,40.867055999999998,-75.207671000000005,,
2973,3233,"15th&fairviewn",,40.593988000000003,-75.486188999999996,,
73,1004,"Palmer_pk_ml&mn",,40.696339000000002,-75.258976000000004,,
1155,4140,"Emmaus&27thn",,40.561878,-75.476928000000001,,
1994,4820,"Overlk&foreste",,40.619816,-75.488270999999997,,
2827,6655,"Emrick@northmptncohsn",,40.661541,-75.294278000000006,,
3076,7010,"Allentown Treatment Center",,40.616315999999998,-75.659283000000002,,
2140,5439,"Pa 248 & Eastgate Blvd",,40.720331999999999,-75.292574000000002,,
2681,1620,"Hamlton&collegew",,40.586970000000001,-75.514810999999995,,
36,5393,"21st&lehigh(easton Hosp)n",,40.686486000000002,-75.242841999999996,,
368,4171,"33rd&lehighw",,40.555889000000001,-75.489123000000006,,
534,4396,"8th&libertyn",,40.608528999999997,-75.476757000000006,,
1530,5366,"Hecktwn&gr_pondn",,40.674272000000002,-75.328335999999993,,
391,6088,"3rd&orchrdse",,40.642575000000001,-75.473716999999994,,
889,5434,"Center&brdr_hse",,40.742556999999998,-75.318123999999997,,
1387,5274,"Grant&charlese",,40.677289000000002,-75.205391000000006,,
1553,5667,"Hllrtwn&cmmrcblvds",,40.603129000000003,-75.341244000000003,,
1885,5791,"Mill&danielsse",,40.591707,-75.617304000000004,,
2432,1312,"Turner&18the",,40.598714000000001,-75.495807999999997,,
1579,4795,"Airportctrrd&irvinge",,40.636988000000002,-75.446321999999995,,
1742,4335,"Main&17ths",,40.685647000000003,-75.496334000000004,,
2575,4807,"Washington&12thw",,40.610787999999999,-75.486951000000005,,
179,4227,"Jeferson&lehigh",,40.579445,-75.480688000000001,,
511,1345,"7th&greenleafs",,40.615129000000003,-75.477920999999995,,
1224,5306,"Fburg&balatane",,40.677208999999998,-75.244136999999995,,
1765,5548,"8th&mains(tatamy)",,40.740158999999998,-75.259422000000001,,
2761,6296,"Gordon&3rds",,40.610782999999998,-75.463838999999993,,
2884,3157,"Frmnsbrg@shopritew",,40.650575000000003,-75.293097000000003,,
1367,5115,"Goepp&centerw",,40.626246000000002,-75.375114999999994,,
2618,1447,"Wm_penn&chpmanw",,40.666755999999999,-75.283091999999996,,
1344,4710,"Fullerton&mundyn",,40.625000999999997,-75.467652000000001,,
1510,4224,"Harrison&1sts",,40.543737,-75.493303999999995,,
577,4454,"Allen&14the",,40.606484000000002,-75.490048000000002,,
1244,5286,"Fburg&kings_vwne",,40.659438000000002,-75.275086999999999,,
1908,5681,"Dryland Way&wegmansdrse",,40.713042999999999,-75.286254999999997,,
2077,5922,"Pkwy&3othne",,40.590581,-75.519763999999995,,
13,5069,"East&butztowns",,40.653450999999997,-75.348838000000001,,
136,1342,"6th&chewn",,40.606875000000002,-75.471653000000003,,
554,4737,"8th&wyomings",,40.590634999999999,-75.468660999999997,,
1218,5035,"Fburg&4thw",,40.641216999999997,-75.328864999999993,,
2718,6265,"3rd&hayesw",,40.612537000000003,-75.366291000000004,,
1287,4851,"Flexler&lndbergs",,40.573501,-75.515918999999997,,
2449,4618,"Union&14the",,40.625351999999999,-75.403289999999998,,
2698,6248,"15th&elms",,40.593027999999997,-75.485871000000003,,
385,4186,"3rd&mainw",,40.536144,-75.490373000000005,,
434,4587,"4th&filmoree",,40.610576000000002,-75.371742999999995,,
932,1400,"Chestnut&6ths",,40.533386,-75.495887999999994,,
1430,1064,"Hamilton&17the",,40.596600000000002,-75.491821999999999,,
1928,4358,"New&laureln",,40.628782000000001,-75.378118999999998,,
2057,4304,"Pine St &  2nd Ave (ns)",,40.649410000000003,-75.480312999999995,,
3053,6987,"Willard Drive & Industrial Blvd",,40.556556999999998,-75.634123000000002,,
242,4856,"Washngton&12the",,40.610616,-75.487161,,
989,5209,"Church&neww",,40.618783000000001,-75.378204999999994,,
1075,1483,"Easton&7ths",,40.659104999999997,-75.330335000000005,,
2071,5877,"Pkwy&28thw",,40.592264999999998,-75.516188999999997,,
2661,4146,"Wyoming&11the",,40.588842,-75.476071000000005,,
56,4721,"Gordon&ridge",,40.611536000000001,-75.460640999999995,,
1679,4111,"Linden&10thw",,40.602046999999999,-75.478443999999996,,
199,4381,"Emaus&4the",,40.577682000000003,-75.454509999999999,,
2114,6126,"Race15thw",,40.653888999999999,-75.455948000000006,,
2120,6128,"Race&fashionsw",,40.659574999999997,-75.443095999999997,,
2612,1497,"Wm_pen&eastonhsathlethicw",,40.680964000000003,-75.254265000000004,,
1473,4005,"Hamltn&schantw",,40.567579000000002,-75.550932000000003,,
1971,1186,"Nthpn&19thw",,40.689537999999999,-75.238928000000001,,
2014,5021,"Pembrk&rosevltw",,40.629340999999997,-75.348219,,
2512,4678,"Union&quebecw",,40.625342000000003,-75.430398999999994,,
740,1182,"Broad&prospctn",,40.738483000000002,-75.309386000000003,,
1573,5826,"Indust&nexussw",,40.575234999999999,-75.609234000000001,,
1822,5648,"Main&shopsnw",,40.567383999999997,-75.339647999999997,,
2655,5168,"Wstgte&catasqas",,40.640261000000002,-75.407466999999997,,
2904,3172,"Levans&oldposte",,40.677965,-75.548750999999996,,
99,5944,"Rt_873&wanutn",,40.752510000000001,-75.606435000000005,,
1181,4161,"Emaus&howard",,40.571139000000002,-75.469150999999997,,
285,4460,"19th&libertys",,40.602549000000003,-75.499887000000001,,
949,1291,"Chew&16thw",,40.601455999999999,-75.492025999999996,,
1281,4845,"Flexler&colleges",,40.582591000000001,-75.510081,,
594,5795,"Ambassadr&hicksw",,40.599046000000001,-75.612742999999995,,
2160,5968,"Rt_309&pennanw",,40.657620000000001,-75.601000999999997,,
2492,4622,"Union&highlande",,40.625706999999998,-75.408816000000002,,
2824,6336,"St_john&rocks",,40.676091,-75.209620999999999,,
2515,4832,"Union&schoole",,40.592646999999999,-75.495879000000002,,
2847,3077,"2nd&hokndqanw",,40.668239999999997,-75.488659999999996,,
454,4494,"4th&lindenn",,40.605176,-75.465879000000001,,
1782,5660,"Main&clarkn",,40.588301000000001,-75.340834000000001,,
2369,1228,"Tilghman&22ndw",,40.603440999999997,-75.507062000000005,,
3033,6967,"Centreberwickn",,40.678292999999996,-75.220982000000006,,
139,1184,"Nthpn&21stw",,40.689259,-75.242761000000002,,
1682,4114,"Linden&13thw",,40.600316999999997,-75.484645,,
2346,5453,"Tatamy&corrieren",,40.721350999999999,-75.256158999999997,,
2469,4609,"Union&4thw",,40.625283000000003,-75.389403999999999,,
3010,6944,"Whitehallshopctrdickssportss",,40.646565000000002,-75.490819000000002,,
162,4283,"8th&unionn",,40.599057000000002,-75.472238000000004,,
408,4489,"4th&allenn",,40.612181,-75.469251999999997,,
826,5383,"13th&washingtonne",,40.686438000000003,-75.227811000000003,,
995,6002,"Coply&n_coplyse",,40.678328999999998,-75.503234000000006,,
1072,5061,"East&thompsons",,40.660144000000003,-75.349757999999994,,
1490,1113,"Hanover&lindenw - Overlook Park",,40.611052999999998,-75.448498999999998,,
1659,1359,"Lehigh&mal_exts",,40.556590999999997,-75.489210999999997,,
2154,6024,"Rt_309&krnsvls",,40.635356999999999,-75.585125000000005,,
2323,4562,"Susq&ellsworthe",,40.591301000000001,-75.443040999999994,,
2987,3749,"Corporate Parkway & West Dr Sb",,40.551465999999998,-75.421988999999996,,
308,6031,"22nd&gordnse",,40.599451000000002,-75.505517999999995,,
849,5175,"Catasqua&vallysw",,40.641381000000003,-75.430453999999997,,
972,4073,"Chstnt&3rdw",,40.673757000000002,-75.493863000000005,,
1095,1471,"Easton&hendrsnw",,40.640129000000002,-75.356368000000003,,
1513,4221,"Harrison&3rds",,40.539985999999999,-75.496891000000005,,
2177,5952,"Rt_873&churchn",,40.722875999999999,-75.617587,,
2200,6013,"Rt_873&rt_309s",,40.673273999999999,-75.612540999999993,,
2283,5093,"Stefko&irenene",,40.639767999999997,-75.347838999999993,,
1264,5052,"Fburg&wagnere",,40.649214999999998,-75.299318999999997,,
1891,5716,"Nazrth&crestse",,40.699655,-75.266552000000004,,
2887,3160,"2nd&chestnuts",,40.674342000000003,-75.493187000000006,,
2924,3192,"Walbert&ponde",,40.614555000000003,-75.539140000000003,,
325,4838,"24th&fairviewn",,40.588777,-75.505078999999995,,
2970,3240,"Sullivan&mecos",,40.723171999999998,-75.225801000000004,,
371,6086,"3rd&americanse",,40.640158999999997,-75.472416999999993,,
1450,1062,"Hamilton&fountne",,40.600909000000001,-75.476292999999998,,
1699,5099,"Linden&falconne",,40.666567000000001,-75.349907999999999,,
2784,6436,"Convent & Mauch Chunk Ne",,40.741002999999999,-75.320507000000006,,
471,4548,"4th&tilghmans",,40.613410000000002,-75.470003000000005,,
1350,5617,"Garbldi&dewys",,40.875962000000001,-75.214257000000003,,
2137,5530,"Rt_248&jandynw",,40.731302999999997,-75.306031000000004,,
76,5440,"Northamptoncrossingwalmart",,40.715209000000002,-75.282111,,
663,4542,"Brdwy&kid_peacew",,40.597619000000002,-75.407341000000002,,
1158,4165,"Emaus&28thw",,40.561109000000002,-75.477592000000001,,
1745,4338,"Main&19thn",,40.688901999999999,-75.498356000000001,,
1991,5130,"Ostrum&tomblersw",,40.606468,-75.394711999999998,,
3073,7007,"Uhler&kesslerville W",,40.751280999999999,-75.232598999999993,,
222,4649,"Argus&lynfield",,40.609174000000003,-75.347605999999999,,
517,1344,"7th&washingtons",,40.613294000000003,-75.477012999999999,,
763,5556,"Broadway&5ths",,40.842903,-75.293846000000002,,
1058,5064,"East&johnstonn",,40.657632999999997,-75.349160999999995,,
1304,5372,"Frmersvl&eastns",,40.667149999999999,-75.306865000000002,,
1845,5483,"Market St &11th St",,40.867733000000001,-75.219475000000003,,
2386,1246,"Tilghmn&bl_brnw",,40.591963999999997,-75.589834999999994,,
700,1142,"Broad&2nde",,40.622340999999999,-75.386936000000006,,
866,5403,"Cattell&monroen",,40.702316000000003,-75.206794000000002,,
59,6228,"Church&emmaus",,40.575682999999998,-75.460391000000001,,
225,4708,"Fullerton&pershing N",,40.629196,-75.469796000000002,,
557,4103,"9th&courtw",,40.602345999999997,-75.476088000000004,,
723,1144,"Broad&grandviww",,40.623941000000002,-75.418150999999995,,
1055,5059,"East&garretts",,40.662174,-75.349830999999995,,
1221,5040,"Fburg&8the",,40.641652000000001,-75.324758000000003,,
1719,5183,"Lvhc_muhl&rehabs",,40.643867,-75.409993,,
2217,6038,"Ruch&poplase",,40.668115999999998,-75.504307999999995,,
2764,6353,"Americanpkwy&lindenn",,40.606397000000001,-75.462040999999999,,
2930,3198,"Race&10the",,40.651035999999998,-75.463679999999997,,
1911,5769,"Nestle&555_bldge",,40.572927,-75.643255999999994,,
2074,5875,"Pkwy&30thw",,40.590660999999997,-75.520127000000002,,
2738,6351,"Spillman & Lynn Eb",,40.613132999999998,-75.349211999999994,,
2907,3175,"Walbert&cdrcrstw",,40.615628999999998,-75.533833000000001,,
3070,7004,"East Braden Blvd And Uhler Rd Sb",,40.753514000000003,-75.226972000000004,,
843,6238,"Butler&25thw",,40.682246999999997,-75.247432000000003,,
892,5527,"Center&churchn",,40.742454000000002,-75.314931000000001,,
1433,1066,"Hamilton&19the",,40.595283000000002,-75.496550999999997,,
1888,5185,"Nazareth&jewelse",,40.691578999999997,-75.259226999999996,,
2097,4827,"Pres&johnsonw",,40.635312999999996,-75.496494999999996,,
2429,1300,"Turner&15the",,40.600453999999999,-75.489491000000001,,
2552,5316,"Walnut&7th_este",,40.688305,-75.218186000000003,,
33,4779,"Cdr_crst&pro",,40.565123999999997,-75.516713999999993,,
531,4691,"8th&juniatan",,40.586618000000001,-75.467292,,
1533,4912,"Hecktwn&oaknds",,40.668185000000001,-75.332460999999995,,
2031,5783,"Penn&williame",,40.579579000000003,-75.611153000000002,,
2197,5956,"Rt_873&parkn",,40.694774000000002,-75.609690000000001,,
2695,6245,"15th&fairviewse",,40.594113,-75.486389000000003,,
16,5046,"Fburg&14thw",,40.643841999999999,-75.318645000000004,,
182,4150,"S 6th St & St.john St S",,40.592889999999997,-75.465554999999995,,
580,4129,"Allen&16thw",,40.605528,-75.493973999999994,,
1241,4954,"Fburg&hopew",,40.654795999999997,-75.284460999999993,,
2572,4854,"Washington&10te",,40.611657000000001,-75.483373999999998,,
2744,6360,"Hamltn&icworldne",,40.576968999999998,-75.527958999999996,,
1390,4752,"Grape&3rde",,40.636232,-75.471102000000002,,
1931,5208,"Newwalnutn",,40.621439000000002,-75.378398000000004,,
2054,5933,"Pike&rocks",,40.562604,-75.448971999999998,,
1121,1426,"Easton&shop_ctrn",,40.651153999999998,-75.337148999999997,,
1370,5104,"Goepp&lindene",,40.626018999999999,-75.370648000000003,,
1868,5987,"Macarthur Rd & Party City",,40.644582,-75.495110999999994,,
2117,6110,"Race&cascadene",,40.661138000000001,-75.436001000000005,,
2366,1235,"Tilghman&20thw",,40.604556000000002,-75.503023999999996,,
2615,1506,"Wm_penn@farmersville Ellementary",,40.666832999999997,-75.298129000000003,,
53,4648,"Argus&lynn",,40.607432000000003,-75.349098999999995,,
600,4781,"Ave_a&2255builde",,40.649802000000001,-75.425506999999996,,
1762,4275,"Main&4th_emms",,40.673085999999998,-75.481191999999993,,
2223,5164,"Schnrsv&illcknw",,40.638322000000002,-75.397429000000002,,
2260,5272,"St_john&grantn",,40.676420999999998,-75.209576999999996,,
2758,6293,"Gordon&2nds",,40.611193,-75.462350999999998,,
743,1169,"Broad&woodn",,40.621968000000003,-75.363989000000004,,
992,4784,"City_ln&ave_c",,40.652419000000002,-75.426366999999999,,
2993,6927,"Spillman & Emery Wb",,40.613351999999999,-75.346591000000004,,
302,6030,"22nd&chewse",,40.598132,-75.504904999999994,,
388,4188,"3rd&northw",,40.537737999999997,-75.493150999999997,,
929,1386,"Chestnut&5thn",,40.534337999999998,-75.493425999999999,,
1384,5368,"Gr_pond&cty_mdwe",,40.675055999999998,-75.320925000000003,,
1925,4368,"New&fairviews",,40.627780000000001,-75.378341000000006,,
2011,5014,"Pembrk&jeninge",,40.628625,-75.357811999999996,,
3056,6990,"Freemansburg Ave & 25th E2",,40.675466,-75.245818999999997,,
537,5146,"8th&martin_twrn",,40.631239000000001,-75.395052000000007,,
786,5645,"Brodhd&4thn",,40.610551000000001,-75.381478000000001,,
1035,5619,"Center&mainn",,40.742440999999999,-75.312247999999997,,
2701,6251,"Hillcrest&oxford",,40.561926999999997,-75.493791000000002,,
637,5246,"Berwick&st_johne",,40.679324000000001,-75.210511999999994,,
1135,4372,"Elizabeth&centw",,40.630856000000001,-75.374780000000001,,
1676,4399,"Liberty&19thw",,40.602575000000002,-75.499433999999994,,
2801,6559,"Main&4thne_tatamy",,40.741872999999998,-75.253195000000005,,
245,5687,"Sullivan Trail & State Park Rd",,40.808537000000001,-75.288231999999994,,
2409,1270,"Tlghmn&30thw",,40.598782,-75.524011999999999,,
2658,5167,"Wstgte&luth_mrs",,40.641883999999997,-75.408075999999994,,
886,5502,"Center&1st_prs",,40.644919000000002,-75.376472000000007,,
1427,1042,"Hamilton&15thw",,40.597859999999997,-75.487898000000001,,
1968,1189,"Nthpn&16thw",,40.690043000000003,-75.233941000000002,,
2509,4631,"Union&plymouthe",,40.624965000000003,-75.432811999999998,,
3050,6984,"Industrialblvdbridgestonetirew",,40.563178000000001,-75.618774000000002,,
712,1136,"Broad&8the",,40.622466000000003,-75.395148000000006,,
1044,5457,"Dnfrth&col_intrw",,40.732998000000002,-75.263650999999996,,
1708,5265,"Line&coalw",,40.673910999999997,-75.217179999999999,,
2040,4099,"6th&sumnern",,40.617569000000003,-75.477074999999999,,
2372,1225,"Tilghman&25the",,40.601484999999997,-75.513694999999998,,
3036,6970,"Chew22nde",,40.597819000000001,-75.504805000000005,,
1399,4917,"Green&cambells",,40.676544999999997,-75.313693999999998,,
1731,4323,"Main&10thn",,40.678390999999998,-75.488260999999994,,
2063,4258,"Pine St & 3rd Ave (fs)",,40.648209000000001,-75.480710999999999,,
2727,6276,"Charles&kleinhansn",,40.680186999999997,-75.205641,,
3059,6993,"Broadwaycetroniae",,40.588377000000001,-75.558290999999997,,
165,4095,"Ccblvd&lvhns",,40.565300999999998,-75.518488000000005,,
497,1331,"6th&macarthn",,40.620144000000003,-75.480057000000002,,
2086,6065,"Postal&fedexsw",,40.642861000000003,-75.448823000000004,,
2418,1259,"Tlghmn&sprghsw",,40.594372,-75.540101000000007,,
2773,6372,"Dorneyparkrd&lincolnave",,40.576433000000002,-75.537549999999996,,
2896,3165,"Linden&4thw",,40.605480999999997,-75.465970999999996,,
211,1175,"Broad&centere",,40.622157999999999,-75.375139000000004,,
875,1315,"Cdr_crest&fairn",,40.607920999999997,-75.530940999999999,,
1539,6189,"Hellertownsilvexe",,40.598455000000001,-75.340781000000007,,
1877,4256,"Mickley&schadts",,40.643039000000002,-75.483791999999994,,
2541,4477,"Walbert&28the",,40.616061999999999,-75.527741000000006,,
188,5839,"Snwdrft&stngt",,40.596029000000001,-75.607192999999995,,
311,5982,"22nd&lbrtynw",,40.600566000000001,-75.505868000000007,,
852,5215,"Catsqua&dahliase",,40.641007000000002,-75.415234999999996,,
1190,4248,"Fairmont Ave & 5th St",,40.624158999999999,-75.473082000000005,,
2518,4677,"Union&shermanw",,40.625543999999998,-75.428096999999994,,
1585,4229,"Jeferson&leh_pkyn",,40.584843999999997,-75.478711000000004,,
1831,5649,"Main&walnutn",,40.572307000000002,-75.341335999999998,,
2495,4639,"Union&jeromee",,40.624276999999999,-75.440156000000002,,
2913,3181,"Tilghman@villageweste",,40.598163,-75.525602000000006,,
480,4644,"4th&williamw",,40.611629999999998,-75.354862999999995,,
898,5494,"Center&goeppn",,40.626367999999999,-75.375163999999998,,
1021,5333,"Davis&wiliamn",,40.675246999999999,-75.211850999999996,,
1808,6201,"Main&penns",,40.577610999999997,-75.340781000000007,,
2226,5210,"Schnrsvl&ilicksse",,40.638683999999998,-75.398246,,
2349,5462,"Tatamynewlinsmilln",,40.727500999999997,-75.257053999999997,,
125,5543,"Mcfadden & Schutt Bldgn",,40.731493999999998,-75.265096,,
374,4755,"3rd&chestnuts",,40.634948999999999,-75.470793999999998,,
2627,1450,"Wm_penn&hodlee",,40.667667999999999,-75.277817999999996,,
65,4546,"Roma Corporate Center",,40.614249000000001,-75.531606999999994,,
1061,5073,"East&lansdales",,40.650263000000002,-75.350323000000003,,
1940,1211,"Nhampton&11the",,40.690434000000003,-75.224543999999995,,
1004,5416,"Courtny&highlndn",,40.669412000000001,-75.375574,,
2332,4565,"Susq&halsteadw",,40.592207000000002,-75.437036000000006,,
19,5127,"Ostrum&st_lkessw",,40.609515999999999,-75.391861000000006,,
2687,1223,"Tilghman&28the",,40.599739,-75.519970000000001,,
3019,6953,"Lehighvalleyhospmuhlsthentn",,40.643839999999997,-75.407471999999999,,
958,1282,"Chew&7thw",,40.606551000000003,-75.473546999999996,,
1794,5662,"Main&highn",,40.590643999999998,-75.339898000000005,,
317,4091,"Sullivan&forkstwpofficen",,40.715330999999999,-75.219939999999994,,
520,5142,"8th&broads",,40.623033,-75.395058000000006,,
1645,1372,"Lehigh&9ths",,40.590795999999997,-75.471203000000003,,
2186,5961,"Rt_873&foxcrftn",,40.682307000000002,-75.613248999999996,,
2481,4626,"Union&clube",,40.626175000000003,-75.420198999999997,,
171,1581,"Nhampton&21st",,40.689118000000001,-75.242827000000005,,
420,4699,"S4th&chapels",,40.587600999999999,-75.460060999999996,,
666,4519,"Brdwy&lynne",,40.601067,-75.396887000000007,,
1499,1118,"Hanover&tacomaw",,40.621940000000002,-75.425718000000003,,
1748,4273,"Main&1sts",,40.668214999999996,-75.480965999999995,,
2581,5350,"Washngtn&16thw",,40.686356000000004,-75.233238,,
25,4351,"Helddrivecherrysquares",,40.697271000000001,-75.500876000000005,,
271,4100,"17th&allens",,40.604947000000003,-75.496285,,
1107,1418,"Easton&majore",,40.640082,-75.355892999999995,,
1353,5612,"Garbldi&wbstrse",,40.883184999999997,-75.218141000000003,,
1894,5444,"Nazrth&kingstnnw",,40.706645000000002,-75.275923000000006,,
2435,1309,"Turner&jbirneycrume",,40.596662000000002,-75.503266999999994,,
795,5515,"Brodhd&mowrw",,40.678742999999997,-75.364073000000005,,
961,4076,"Chsntnt&11the",,40.668331000000002,-75.501845000000003,,
1293,4918,"Fmvill&greenn",,40.677387000000003,-75.307818999999995,,
1791,4272,"Main&greens",,40.665720999999998,-75.480958000000001,,
1957,4015,"Nhampton&philpw",,40.686447000000001,-75.256326000000001,,
2455,4830,"Union&17the",,40.593944,-75.491172000000006,,
2953,3221,"Levans&wolfholloww",,40.655298999999999,-75.590546000000003,,
440,4271,"4th&groves",,40.662917999999998,-75.481127000000001,,
938,1403,"Chestnut&9ths",,40.530611,-75.502262999999999,,
1436,1070,"Hamilton&23rde",,40.592944000000003,-75.504919000000001,,
1602,5601,"Kesslersville Rd & Uhler Rd N",,40.751325000000001,-75.232264000000001,,
1934,4366,"New&unions",,40.625236999999998,-75.378440999999995,,
2100,6156,"Pres&mickleyse",,40.634433000000001,-75.489569000000003,,
583,4994,"Allen&8the",,40.609898000000001,-75.477673999999993,,
2169,6014,"Rt_309&spruces",,40.671160999999998,-75.609403999999998,,
105,5993,"Main&church - Egypt",,40.680393000000002,-75.529742999999996,,
228,4865,"13th&overlks",,40.620477000000001,-75.493466999999995,,
1101,1469,"Easton&jeningsw",,40.638623000000003,-75.360642999999996,,
2810,6654,"Sullivan@forksuccs",,40.751500999999998,-75.249858000000003,,
460,4199,"4th&montgomerys",,40.583579,-75.458291000000003,,
626,5201,"Berwick&filbrte",,40.678984999999997,-75.214153999999994,,
1124,1436,"Easton&washngtne",,40.664552,-75.318624,,
2126,5814,"Rt_873&oak_drs",,40.720514000000001,-75.621284000000003,,
2624,1459,"Wm_penn&filbarw",,40.672643000000001,-75.266621999999998,,
2790,6472,"Broadway&sullivans",,40.833993,-75.297135999999995,,
483,4290,"5th&floridan",,40.622273999999997,-75.473031000000006,,
1977,1196,"Nthpn&9thw",,40.690750999999999,-75.220921000000004,,
2641,1456,"Wm_penn&emrickblvde",,40.666879000000002,-75.295271999999997,,
85,5611,"Garibaldi Ave & North St S",,40.884444000000002,-75.219184999999996,,
752,5870,"Broadway&38thw",,40.584350999999998,-75.536839000000001,,
1416,5194,"Grnwood&washngts",,40.684531,-75.261842999999999,,
1834,5654,"Main&watern",,40.579540999999999,-75.340778,,
2498,4681,"Union&kiowaw",,40.624631999999998,-75.438074,,
2667,4281,"Wyoming&lehighs",,40.589078999999998,-75.474451000000002,,
62,4130,"Liberty&bnaiw",,40.604030999999999,-75.494138000000007,,
603,5176,"Ave_c&city_linn",,40.652662999999997,-75.425900999999996,,
726,1148,"Broad&highlandw",,40.623221000000001,-75.408901,,
775,5467,"Broadway&males",,40.837806999999998,-75.296531000000002,,
1316,6045,"Front&centrs",,40.665246000000003,-75.488508999999993,,
1857,5486,"Market&1ste",,40.866906,-75.206745999999995,,
2767,6357,"Movietavmillcrke",,40.555632000000003,-75.576796999999999,,
42,5219,"Catsqua&penna",,40.642426,-75.425623000000002,,
291,4463,"19th&washngtons",,40.606754000000002,-75.501902999999999,,
2710,6259,"Lv Hosp West Lot",,40.567354999999999,-75.527057999999997,,
2959,3227,"Coplay&ncoplayn",,40.678260000000002,-75.502926000000002,,
397,4190,"3rd&seemw",,40.538961999999998,-75.495288000000002,,
895,5497,"Center&elizabn",,40.631104000000001,-75.375045999999998,,
