parent_station,stop_lat,wheelchair_boarding,stop_code,stop_lon,stop_timezone,stop_url,stop_id,stop_desc,stop_name,location_type,platform_code,zone_id
,40.634128,,6169,-75.488906,,,2099_merged_671199,,Presidential at Mickley EB,0,,
,40.674048,,6073,-75.49267,,,344,,2nd at Chestnut NB,0,,
,40.672754,,6040,-75.491328,,,347,,2nd at Coplay SB,0,,
,40.67143245,,6075,-75.48974878,,,342,,2nd at Center NB,0,,
,40.67160157,,6041,-75.48998673,,,343,,2nd at Center SB,0,,
,40.648798,,3186,-75.468229,,,2918,,Race at Front NB,0,,
,40.621668,,6249,-75.480777,,,2699_merged_671191,,Jordan Parkway WB,0,,
,40.610609,,1343,-75.475764,,,71_merged_671213,,Allen Street WB,0,,
,40.591158,,4500,-75.446744,,,2318,,Susquehanna at Carlisle WB,0,,
,40.591017,,4561,-75.446954,,,2319,,Susquehanna at Carlisle EB,0,,
,40.594411,,4512,-75.417799,,,2316,,Susquehanna at Brook WB,0,,
,40.593949,,4572,-75.419829,,,2317,,Susquehanna at Forest EB,0,,
,40.590875,,4560,-75.448996,,,2314,,Susquehanna at Bradford EB,0,,
,40.593969,,4511,-75.420364,,,2315,,Susquehanna at Forest WB,0,,
,40.590747,,4559,-75.45093,,,2312,,Susquehanna at Albert EB,0,,
,40.591019,,4499,-75.448771,,,2313,,Susquehanna at Bradford WB,0,,
,40.590889,,4498,-75.450637,,,2311,,Susquehanna at Albert WB,0,,
,40.685819,,5392,-75.242912,,,298,,21st at Washington,0,,
,40.867592,,5582,-75.206392,,,294,,1st at Municipal,0,,
,40.646159,,6089,-75.474773,,,292,,1st at Allen,0,,
,40.645575,,6055,-75.474388,,,293,,1st at Bridge,0,,
,40.606556,,4402,-75.501633,,,290,,19th at Washington NB,0,,
,40.606754,,4463,-75.501903,,,291,,19th at Washington SB,0,,
,40.60534,,4456,-75.49394,,,270,,16th at Allen,0,,
,40.604947,,4100,-75.496285,,,271,,17th at Allen SB,0,,
,40.603754,,4101,-75.495713,,,272,,17th at Liberty SB,0,,
,40.603501,,4106,-75.495444,,,273,,17th at Liberty NB,0,,
,40.597771,,4997,-75.492726,,,274,,17th at Linden NB,0,,
,40.685276,,5352,-75.236474,,,275,,18th at Butler,0,,
,40.603631,,4400,-75.500247,,,276,,19th at Allen NB,0,,
,40.603787,,4461,-75.50048,,,277,,19th at Allen SB,0,,
,40.614582,,4407,-75.505439,,,278,,19th at Fairmont NB,0,,
,40.61476,,4468,-75.505692,,,279,,19th at Fairmont SB,0,,
,40.619338,,4944,-75.442244,,,3211,,Irving at Tilghman NB,0,,
,40.682484,,5281,-75.208611,,,2268,,St Joseph at Folk,0,,
,40.682303,,5279,-75.210443,,,2269,,St John at St Joseph,0,,
,40.675063,,5270,-75.209351,,,2262,,St John at Palmer NB,0,,
,40.676421,,5272,-75.209577,,,2260,,St John at Grant,0,,
,40.681648,,5197,-75.210607,,,2261,,St John at Nesquehoning SB,0,,
,40.682371,,5283,-75.210046,,,2266,,St Joseph at St John EB,0,,
,40.680544,,5198,-75.210207,,,2267,,St John at Wilkes Barre NB,0,,
,40.675944,,5271,-75.209494,,,2264,,St John at Rock NB,0,,
,40.715807,,4663,-75.22047,,,2442,,Sullivan Trail at Forks City Hall SB,0,,
,40.625428,,4662,-75.397278,,,2440,,Union at 10th WB,0,,
,40.62527,,4614,-75.397558,,,2441,,Union at 10th EB,0,,
,40.625472,,4664,-75.400261,,,2444,,Union at 12th WB,0,,
,40.625324,,4616,-75.400589,,,2445,,Union at 12th EB,0,,
,40.625495,,4666,-75.40305,,,2448,,Union at 14th WB,0,,
,40.625352,,4618,-75.40329,,,2449,,Union at 14th EB,0,,
,40.595629,,5797,-75.607271,,,108,,Snowdrift at Stonegate NB,0,,
,40.586248,,5843,-75.613824,,,109,,Windsor at Tilghman SB,0,,
,40.659155,,4059,-75.487267,,,103,,Front at Lehigh,0,,
,40.743156,,5940,-75.6106,,,100,,Rt 873 at Grove,0,,
,40.583854,,5869,-75.538621,,,106,,Broadway at 39th WB,0,,
,40.667181,,4075,-75.503788,,,104,,Chestnut at Ruch - Coplay,0,,
,40.680393,,5993,-75.529743,,,105,,Main at Church WB,0,,
,40.610956,,1340,-75.473591,,,2747_merged_671181,,Allen Street EB & NB,0,,
,40.867271,,5476,-75.259731,,,2044,,Pennsylvania at C EB,0,,
,40.867412,,5563,-75.259561,,,2045,,Pennsylvania at C WB,0,,
,40.867608,,5477,-75.258476,,,2042,,Pennsylvania at B EB,0,,
,40.867797,,5564,-75.258152,,,2043,,Pennsylvania at B WB,0,,
,40.617569,,4099,-75.477075,,,2040,,6th at Sumner,0,,
,40.869078,,5622,-75.210075,,,2041,,Pennsylvania at 4th,0,,
,40.73556497,,5951,-75.61539836,,,2188,,Rt 873 at Friedens SB,0,,
,40.676775,,5338,-75.207672,,,1297,,Grant at Folk SB,0,,
,40.868073,,5478,-75.256786,,,2048,,Pennsylvania at Lobb WB,0,,
,40.868315,,5565,-75.256255,,,2049,,Pennsylvania at Lobb EB,0,,
,40.743409,,6926,-75.273425,,,2992,,1520 Van Buren,0,,
,40.629654,,4754,-75.483787,,,3239,,LV Mall at MacArthur,0,,
,40.586887,,60000,-75.477112,,,2689,,Allentown Garage,0,,
,40.576175,,1624,-75.530792,,,2685,,Hamilton at Dorney Park WB,0,,
,40.59913791,,1222,-75.52213307,,,2686,,Tilghman at 29th EB,0,,
,40.599739,,1223,-75.51997,,,2687,,Tilghman at 28th EB,0,,
,40.58697,,1620,-75.514811,,,2681,,Hamilton at College WB,0,,
,40.585696,,1621,-75.515775,,,2682,,Hamilton at Reading WB,0,,
,40.583235,,1622,-75.52028,,,2683,,Cedar Point East Hamilton Entrance,0,,
,40.75251,,5944,-75.606435,,,99,,Rt 873 at Walnut EB,0,,
,40.693829,,5957,-75.609526,,,98,,5629 Rt 873 NB,0,,
,40.738951,,5539,-75.337711,,,91,,Gracedale,0,,
,40.622328,,1164,-75.375633,,,90,,Broad at Center WB,0,,
,40.673758,,5509,-75.382596,,,92,,Commerce at Brodhead SB,0,,
,40.5918706,,1256,-75.54908964,,,95,,Tilghman at Parkway WB,0,,
,40.663875,,5966,-75.609963,,,97,,LCCC Main Entrance,0,,
,40.628998,,5976,-75.582354,,,96,,Rt 309 at Lime Kiln NB,0,,
,40.606468,,5130,-75.394712,,,1991,,Ostrum at Tombler,0,,
,40.625178,,4802,-75.442905,,,3206,,Airport at Livingston NB,0,,
,40.687569,,4049,-75.222381,,,1621,,Lehigh at 10th,0,,
,40.620521,,4818,-75.491887,,,1992,,Overlook at Corinth EB,0,,
,40.687206,,4045,-75.229984,,,1627,,Lehigh at 14th,0,,
,40.687484,,4046,-75.224267,,,1626,,Lehigh at 11th,0,,
,40.621279,,4821,-75.484961,,,1997,,Overlook at Mickley NB,0,,
,40.687391,,4047,-75.226185,,,1624,,Lehigh at 12th - Easton,0,,
,40.620072,,4867,-75.488966,,,1999,,Overlook at Olympic,0,,
,40.621382,,4869,-75.485046,,,1998,,Overlook at Mickley SB,0,,
,40.687032,,4043,-75.233766,,,1629,,Lehigh at 16th,0,,
,40.687301,,4044,-75.228088,,,1628,,Lehigh at 13th,0,,
,40.620928,,4942,-75.442819,,,3209,,Irving at Dieruff SB,0,,
,40.623533,,4941,-75.443545,,,3208,,Irving at Clay SB,0,,
,40.578607,,3006,-75.454911,,,2860,,4th at Baker SB,0,,
,40.613561,,3007,-75.476891,,,2861,,Washington at 7th,0,,
,40.608257,,4484,-75.478883,,,559,,9th at Liberty,0,,
,40.606918,,4485,-75.478232,,,558,,9th at Gordon,0,,
,40.615158,,3012,-75.477632,,,2866,,Greenleaf at 7th,0,,
,40.585631,,3141,-75.555994,,,2867,,St Luke's West End EB,0,,
,40.634862,,3142,-75.435494,,,2868,,Hoover at Lloyd,0,,
,40.590635,,4737,-75.468661,,,554,,8th at Wyoming SB,0,,
,40.602346,,4103,-75.476088,,,557,,9th at Court,0,,
,40.605535,,4486,-75.477589,,,556,,9th at Chew,0,,
,40.625067,,5144,-75.395005,,,551,,8th at Union SB,0,,
,40.625181,,5143,-75.394825,,,550,,8th at Union NB,0,,
,40.600132,,4686,-75.472745,,,552,,8th at Walnut,0,,
,40.612371,,6186,-75.346716,,,428_merged_671192,,4th at Emery WB,0,,
,40.612581,,6266,-75.377776,,,2719_merged_671196,,Fahy Bridge South WB,0,,
,40.624326,,4250,-75.476388,,,1199,,Fairmont at Virginia EB,0,,
,40.64121,,3132,-75.400867,,,3342,,Schoenersville at Jacksonville WB,0,,
,40.624159,,4248,-75.473082,,,1190,,Fairmont at 5th,0,,
,40.624424,,4293,-75.475997,,,1193,,Fairmont at Virginia WB,0,,
,40.624316,,4249,-75.473947,,,1192,,Fairmont at 6th,0,,
,40.624209,,4252,-75.481356,,,1195,,Fairmont at MacArthur EB,0,,
,40.624651,,4251,-75.478349,,,1197,,Fairmont at Kay EB,0,,
,40.624784,,4295,-75.478248,,,1196,,Fairmont at Kay WB,0,,
,40.669653,,4274,-75.481021,,,1758,,Main at 2nd SB - Northampton,0,,
,40.669352,,4318,-75.480868,,,1757,,Main at 2nd NB - Northampton,0,,
,40.696796,,4347,-75.499163,,,1756,,Main at 24th,0,,
,40.694621,,4345,-75.499797,,,1754,,Main at 23rd SB,0,,
,40.694386,,4344,-75.499726,,,1753,,Main at 23rd NB,0,,
,40.692706,,4343,-75.500247,,,1752,,Main at 22nd SB,0,,
,40.692541,,4342,-75.500084,,,1751,,Main at 22nd NB,0,,
,40.690836,,4341,-75.499506,,,1750,,Main at 21st,0,,
,40.565292,,4139,-75.474817,,,1177,,Emaus at 26th NB,0,,
,40.572741,,4159,-75.465801,,,1174,,Emaus at 9th SB,0,,
,40.572554,,4136,-75.465971,,,1173,,Emaus at 9th NB,0,,
,40.573786,,4158,-75.463428,,,1172,,Emaus at 8th SB,0,,
,40.573548,,4135,-75.463675,,,1171,,Emaus at 8th NB,0,,
,40.575903,,4156,-75.458565,,,1170,,Emaus at Law SB,0,,
,40.61746,,4946,-75.441809,,,3213,,Irving at Dent NB,0,,
,40.644898,,5410,-75.376307,,,1006,,Center at Moreland NB,0,,
,40.654858,,4033,-75.497321,,,513,,7th at Lehigh SB,0,,
,40.580579,,4897,-75.511511,,,1285,,Flexler at Green Acres,0,,
,40.573501,,4851,-75.515919,,,1287,,Flexler at Lindberg SB,0,,
,40.669412,,5416,-75.375574,,,1004,,Courtney at Highland NB,0,,
,40.582591,,4845,-75.510081,,,1281,,Flexler at College NB,0,,
,40.576412,,4900,-75.514227,,,1283,,Flexler at Debbie SB,0,,
,40.576081,,4849,-75.514267,,,1282,,Flexler at Debbie NB,0,,
,40.573795,,4901,-75.515926,,,1288,,Flexler at Lindberg NB,0,,
,40.609345,,1336,-75.475181,,,514,,7th at Liberty,0,,
,40.636988,,4795,-75.446322,,,1579,,Airport Center at Irving,0,,
,40.634951,,4729,-75.446643,,,1578,,Irving at Cedar Hill,0,,
,40.555362,,5936,-75.420544,,,1001,,3500 Corporate Parkway SB,0,,
,40.575235,,5826,-75.609234,,,1573,,2248 Industrial,0,,
,40.568625,,5823,-75.610146,,,1571,,Industrial at Morris,0,,
,40.622504,,1134,-75.397655,,,686,,Broad at 10th EB,0,,
,40.63116,,4730,-75.445619,,,1577,,Irving at American Parkway,0,,
,40.582083,,1376,-75.477605,,,1623,,Lehigh at 12th NB - Allentown,0,,
,40.646088,,6056,-75.473117,,,682,,Bridge at Columbia,0,,
,40.878927,,5616,-75.214629,,,1348,,Garibaldi at Chestnut,0,,
,40.677505,,4974,-75.243925,,,1225,,Freemansburg at Balata WB,0,,
,40.641652,,5040,-75.324758,,,1221,,Freemansburg at 8th EB,0,,
,40.567085,,4094,-75.516422,,,2036,,1245 Professional Park SB,0,,
,40.673382,,4970,-75.249633,,,1243,,Freemansburg at Keane WB,0,,
,40.679134,,5200,-75.212584,,,624,,Berwick at Davis WB,0,,
,40.596501,,4093,-75.487531,,,2035,,15th at Walnut SB,0,,
,40.626149,,5117,-75.370293,,,1371,,Goepp at Linden WB,0,,
,40.626019,,5104,-75.370648,,,1370,,Goepp at Linden EB,0,,
,40.625995,,5105,-75.368951,,,1372,,Goepp at Maple,0,,
,40.611011,,4722,-75.462561,,,1375,,Gordon at 2nd EB,0,,
,40.641324,,6087,-75.47304,,,402,,3rd at Union SB,0,,
,40.641148,,6053,-75.472811,,,401,,3rd at Union NB,0,,
,40.693368,,5398,-75.209398,,,400,,3rd at Spring Garden,0,,
,40.608814,,4724,-75.470626,,,1379,,Gordon at 5th EB,0,,
,40.869129,,5623,-75.207125,,,2033,,Pennsylvania at 1st,0,,
,40.610877,,4490,-75.468635,,,452,,4th at Liberty NB,0,,
,40.612313,,4549,-75.469506,,,409,,4th at Allen SB,0,,
,40.612181,,4489,-75.469252,,,408,,4th at Allen NB,0,,
,40.62225,,4762,-75.465009,,,1343,,Fullerton at Lincoln SB,0,,
,40.605176,,4494,-75.465879,,,454,,4th at Linden NB,0,,
,40.623516,,4940,-75.443359,,,3207,,Irving at Clay NB,0,,
,40.659808,,4956,-75.274682,,,1245,,Freemansburg at Kingview WB,0,,
,40.640159,,6086,-75.472417,,,371,,3rd at American SB,0,,
,40.639859,,6052,-75.472175,,,370,,3rd at American NB,0,,
,40.634102,,4706,-75.470548,,,373,,3rd at Chestnut NB,0,,
,40.637129,,6050,-75.470859,,,375,,3rd at Catasauqua,0,,
,40.634949,,4755,-75.470794,,,374,,3rd at Chestnut SB,0,,
,40.626544,,4620,-75.417989,,,3189_merged_671218,,Union at Eaton EB,0,,
,40.745149,,4189,-75.243194,,,376,,Uhler at Sullivan Trail EB,0,,
,40.625083,,4801,-75.443125,,,3205,,Airport at Livingston SB,0,,
,40.632636,,4756,-75.470472,,,393,,3rd at Park,0,,
,40.642575,,6088,-75.473717,,,391,,3rd at Orchard SB,0,,
,40.642708,,6054,-75.473625,,,390,,3rd at Orchard NB,0,,
,40.538962,,4190,-75.495288,,,397,,3rd at Seem WB,0,,
,40.536998,,4217,-75.492058,,,396,,3rd at Ridge EB,0,,
,40.536961,,4187,-75.491806,,,395,,3rd at Ridge WB,0,,
,40.694108,,4930,-75.209269,,,399,,3rd at Bushkill,0,,
,40.538812,,4220,-75.495242,,,398,,3rd at Seem EB,0,,
,40.590358,,4557,-75.455999,,,2308,,Susquehanna at 2nd EB,0,,
,40.767672,,5581,-75.272788,,,2305,,Sullivan Trail at Rt 191 SB,0,,
,40.767846,,5608,-75.272743,,,2304,,Sullivan Trail at Rt 191 NB,0,,
,40.590537,,4496,-75.455618,,,2307,,Susquehanna at 2nd WB,0,,
,40.627316,,4799,-75.442527,,,3203,,Airport at Congress SB,0,,
,40.808537,,5687,-75.288232,,,245,,Sullivan Trail at State Park SB,0,,
,40.610616,,4856,-75.487161,,,242,,Washington at 12th EB,0,,
,40.618014,,4816,-75.492825,,,249,,13th at Fairmont NB,0,,
,40.635826,,5110,-75.350488,,,2274,,Stefko at Bayard SB,0,,
,40.642013,,5095,-75.346479,,,2277,,Stefko at Glenmere,0,,
,40.633167,,5088,-75.352972,,,2276,,Stefko at Crawford,0,,
,40.547786,,1352,-75.489723,,,2271,,State at Harrison SB,0,,
,40.550542,,1354,-75.491204,,,2270,,Lehigh at Bevin NB,0,,
,40.635378,,5090,-75.350523,,,2273,,Stefko at Bayard NB,0,,
,40.548785,,1353,-75.490229,,,2272,,State at Harrison NB,0,,
,40.64364058,,5083,-75.34572699,,,2278,,Stefko at Glenwood SB,0,,
,40.593549,,4882,-75.493041,,,2458,,Union at 18th WB,0,,
,40.593944,,4830,-75.491172,,,2455,,Union at 17th EB,0,,
,40.594724,,4880,-75.488779,,,2454,,Union at 16th WB,0,,
,40.593382,,4831,-75.493208,,,2457,,Union at 18th EB,0,,
,40.594138,,4881,-75.490925,,,2456,,Union at 17th WB,0,,
,40.625364,,4619,-75.404654,,,2451,,Union at 15th EB - Bethlehem,0,,
,40.625532,,4667,-75.40428,,,2450,,Union at 15th WB - Bethlehem,0,,
,40.594535,,4829,-75.489031,,,2453,,Union at 16th EB,0,,
,40.579445,,4227,-75.480688,,,179,,Jefferson at Lehigh NB,0,,
,40.654391,,4262,-75.475422,,,178,,Pine at Front NB,0,,
,40.617108,,1108,-75.441631,,,177,,Hanover at Irving WB,0,,
,40.607272,,4126,-75.487643,,,176,,Allen at 13th WB,0,,
,40.588427,,4231,-75.479258,,,175,,Jefferson at Wyoming NB,0,,
,40.610407,,4578,-75.378173,,,174,,4th at New EB,0,,
,40.591732,,4564,-75.438977,,,173,,Susquehanna at Gilmore EB,0,,
,40.689118,,1581,-75.242827,,,171,,Northampton at 21st EB,0,,
,40.67835,,5252,-75.220764,,,170,,Berwick at Centre EB,0,,
,40.623329,,1117,-75.421749,,,1502,,Hanover at Wahneta EB,0,,
,40.561704,,5888,-75.448187,,,2053,,Pike at Rock NB,0,,
,40.634991,,3143,-75.435474,,,3200,,Hoover at Lloyd SB,0,,
,40.562604,,5933,-75.448972,,,2054,,Pike at Rock SB,0,,
,40.64941,,4304,-75.480313,,,2057,,Pine at 2nd NB - Whitehall,0,,
,40.649312,,4259,-75.480461,,,2059,,Pine at 2nd SB - Whitehall,0,,
,40.655201,,4306,-75.474439,,,2058,,Pine at 2nd NB - Catasauqua,0,,
,40.622282,,1116,-75.424132,,,1500,,Hanover at Ulster EB,0,,
,40.622516,,1119,-75.423903,,,1501,,Hanover at Ulster WB,0,,
,40.770331,,6062,-75.59896,,,3089,,Rt 145 at Valley Dr NB,0,,
,40.614421,,3238,-75.493459,,,2968,,Highland at 14th,0,,
,40.606153,,4530,-75.388789,,,653,,Broadway at Fiot SB,0,,
,40.626246,,5115,-75.375115,,,1367,,Goepp at Center WB,0,,
,40.64379,,4297,-75.490034,,,2584_merged_671209,,Mickley at Hammond,0,,
,40.781661,,6060,-75.603548,,,3087,,Rt 145 at Rt 248 NB,0,,
,40.543711,,4194,-75.493165,,,1509,,Harrison at 1st NB,0,,
,40.610119,,7445,-75.381556,,,3225,,Brodhead at 4th SB,0,,
,40.593028,,6248,-75.485871,,,2698,,15th at Elm SB,0,,
,40.594113,,6245,-75.486389,,,2695,,15th at Fairview SB,0,,
,40.602117,,4533,-75.393998,,,659,,Broadway at Hoffert WB,0,,
,40.673691,,5624,-75.259017,,,1603,,Greenwood at Division SB,0,,
,40.605641,,6241,-75.530458,,,2691,,Cedar Crest at Oxford SB,0,,
,40.608791,,7446,-75.381287,,,3226,,Brodhead at Southside Commons,0,,
,40.605744,,7440,-75.383574,,,3221,,Summit at Carlton NB,0,,
,40.744998,,5606,-75.243748,,,1607,,Uhler at Sullivan Trail WB,0,,
,40.641425,,1420,-75.352724,,,1115,,Easton at Renwick EB,0,,
,40.57227,,7438,-75.390472,,,3232,,PA 378 at Oakhurst,0,,
,40.586382,,7436,-75.386762,,,3230,,PA 378 at Saucon Valley Square SB,0,,
,40.581132,,7437,-75.388333,,,3231,,PA 378 at Black River SB,0,,
,40.690043,,1189,-75.233941,,,1968,,Northampton at 16th WB,0,,
,40.632748,,4747,-75.484405,,,3237,,Grape at MacArthur WB,0,,
,40.633335,,4703,-75.482281,,,3235,,Grape at Whitehall Mall WB,0,,
,40.690507,,1193,-75.226183,,,1964,,Northampton at 12th WB,0,,
,40.690422,,1192,-75.227961,,,1965,,Northampton at 13th WB,0,,
,40.690321,,1191,-75.230017,,,1966,,Northampton at 14th WB,0,,
,40.690232,,1190,-75.231994,,,1967,,Northampton at 15th WB,0,,
,40.690675,,1195,-75.222218,,,1962,,Northampton at 10th WB,0,,
,40.690599,,1194,-75.224229,,,1963,,Northampton at 11th WB,0,,
,40.612236,,6186,-75.346517,,,428_merged_671161,,4th at Emery WB,0,,
,40.688964,,3000,-75.209638,,,2872,,EITC - Easton Intermodal Transit Center,0,,
,40.55617765,,3145,-75.57683554,,,2871,,Commercial Center at Hamilton WB,0,,
,40.60745085,,3149,-75.3305355,,,2877,,2785 Commerce WB,0,,
,40.607273,,3148,-75.330471,,,2876,,2785 Commerce EB,0,,
,40.604149,,3147,-75.336064,,,2875,,Commerce at Gilchrist WB,0,,
,40.603675,,3146,-75.338475,,,2874,,Commerce at Gilchrist EB,0,,
,40.740699,,3151,-75.276272,,,2879,,Van Buren at Main,0,,
,40.620141,,1331,-75.480043,,,497_merged_671206,,MacArthur at New York,0,,
,40.676848,,4322,-75.487149,,,1768,,Main at 9th NB,0,,
,40.677125,,4278,-75.487546,,,1769,,Main at 9th SB,0,,
,40.673086,,4275,-75.481192,,,1762,,Main at 4th SB,0,,
,40.741998,,5549,-75.253061,,,1763,,Main at 4th SB - Tatamy,0,,
,40.672772,,4319,-75.480971,,,1760,,Main at 4th NB,0,,
,40.740645,,5464,-75.260156,,,1761,,Main at 8th WB - Tatamy,0,,
,40.674967,,4321,-75.485825,,,1766,,Main at 7th NB - Northampton,0,,
,40.674992,,4277,-75.486024,,,1767,,Main at 7th SB - Northampton,0,,
,40.859241,,6480,-75.273805,,,2791,,Penn at Sanders SB,0,,
,40.557761,,6148,-75.481507,,,1145,,Emaus at 30th NB,0,,
,40.614273,,3237,-75.493428,,,2967,,14th at Highland,0,,
,40.614837,,4813,-75.491521,,,1546,,Highland at 13th,0,,
,40.668377,,5506,-75.379033,,,1547,,Highland at Burgess WB,0,,
,40.622541,,1132,-75.400737,,,690,,Broad at 12th EB,0,,
,40.622722,,1153,-75.400281,,,691,,Broad at 12th WB,0,,
,40.597799,,5796,-75.606982,,,1542,,Hickory at Snowdrift WB,0,,
,40.610191,,6187,-75.340571,,,1540,,Hellertown at Shimersville NB,0,,
,40.597643,,5838,-75.607857,,,1541,,Hickory at Snowdrift EB,0,,
,40.622621,,1128,-75.406055,,,698,,Broad at 16th EB,0,,
,40.622805,,1149,-75.405747,,,699,,Broad at 16th WB,0,,
,40.667899,,5414,-75.382279,,,1548,,Highland at Adler EB,0,,
,40.668065,,5505,-75.381982,,,1549,,Highland at Adler WB,0,,
,40.633223,,6160,-75.395623,,,542,,8th at Eaton SB,0,,
,40.588716,,4739,-75.467742,,,547,,8th at Susquehanna,0,,
,40.591448,,4687,-75.468922,,,544,,8th at St John NB,0,,
,40.842903,,5556,-75.293846,,,763,,Broadway at 5th SB,0,,
,40.611238,,6210,-75.478031,,,548,,8th at Tilghman,0,,
,40.604399,,4285,-75.474842,,,549,,8th at Turner,0,,
,40.582077,,5656,-75.340989,,,1784,,Main at Depot NB,0,,
,40.580076,,6200,-75.340996,,,1785,,Main at Warren SB,0,,
,40.580739,,5655,-75.340884,,,1786,,Main at Warren NB,0,,
,40.836635,,5552,-75.296482,,,765,,Broadway at A,0,,
,40.610341,,4576,-75.381164,,,414,,4th at Brodhead,0,,
,40.610767,,4592,-75.36918,,,415,,4th at Buchanan WB,0,,
,40.610655,,4591,-75.369005,,,416,,4th at Buchanan EB,0,,
,40.660755,,4312,-75.478033,,,417,,4th at Buttonwood WB,0,,
,40.659738,,4311,-75.476603,,,410,,4th at Arch WB,0,,
,40.636135,,4705,-75.472108,,,1389,,Grape at 4th,0,,
,40.675056,,5368,-75.320925,,,1384,,Green Pond at Country Meadows EB,0,,
,40.676681,,5273,-75.207861,,,1385,,Grant at Folk WB,0,,
,40.677582,,5337,-75.205398,,,1386,,Charles at Grant SB,0,,
,40.677289,,5274,-75.205391,,,1387,,Grant at Charles,0,,
,40.660911,,4269,-75.478461,,,418,,4th at Buttonwood EB,0,,
,40.658866,,4310,-75.475348,,,419,,4th at Chapel WB,0,,
,40.612111,,4720,-75.458571,,,1382,,Gordon at Front EB,0,,
,40.67641,,5369,-75.313657,,,1383,,Green Pond at Campbell EB,0,,
,40.555889,,4171,-75.489123,,,368,,33rd at Lehigh,0,,
,40.555241,,4170,-75.486541,,,366,,33rd at Berger WB,0,,
,40.669189,,6042,-75.489101,,,362,,2nd at Schreiber SB,0,,
,40.612881,,6261,-75.373231,,,2714_merged_671164,,Polk at 2nd SB,0,,
,40.539834,,4191,-75.496801,,,381,,3rd at Harrison NB,0,,
,40.638283,,6051,-75.471391,,,382,,3rd at Jefferson NB,0,,
,40.638058,,6085,-75.471333,,,383,,3rd at Jefferson SB,0,,
,40.536144,,4186,-75.490373,,,385,,3rd at Main WB,0,,
,40.535992,,4216,-75.490341,,,386,,3rd at Main EB,0,,
,40.691843,,5397,-75.209091,,,387,,3rd at Northampton,0,,
,40.537738,,4188,-75.493151,,,388,,3rd at North,0,,
,40.74813867,,5900,-75.61167636,,,2190,,Rt 873 at Franklin SB,0,,
,40.702254,,5906,-75.613368,,,2191,,Rt 873 at Glencrest NB,0,,
,40.70201947,,5954,-75.61325727,,,2192,,Rt 873 at Glencrest SB,0,,
,40.729018,,5958,-75.618017,,,2193,,Rt 873 at Hill NB,0,,
,40.693833,,6007,-75.609648,,,2194,,5629 Rt 873 SB,0,,
,40.7127401,,6008,-75.62398458,,,2195,,Rt 873 at Terrace SB,0,,
,40.71224626,,5953,-75.62387068,,,2196,,Rt 873 at Terrace NB,0,,
,40.69471706,,5956,-75.60964708,,,2197,,Rt 873 at Park NB,0,,
,40.62257,,5685,-75.360131,,,252,,Stefko at Broad,0,,
,40.674204,,5963,-75.612885,,,2199,,Rt 873 at Schneck,0,,
,40.618204,,4864,-75.493083,,,250,,13th at Fairmont SB,0,,
,40.615018,,4862,-75.491562,,,251,,13th at Highland,0,,
,40.616406,,4815,-75.492059,,,256,,13th at Pennsylvania NB,0,,
,40.616634,,4863,-75.492332,,,257,,13th at Pennsylvania SB,0,,
,40.735766,,5684,-75.235323,,,255,,Sullivan Trail at American General SB,0,,
,40.673274,,6013,-75.612541,,,2200,,Rt 873 at Rt 309,0,,
,40.74677397,,5950,-75.61108415,,,2201,,Rt 873 at South SB,0,,
,40.746577,,5902,-75.610873,,,2202,,Rt 873 at South NB,0,,
,40.75665619,,5949,-75.59485361,,,2204,,Main at Best EB,0,,
,40.68711951,,5959,-75.61096298,,,2205,,Rt 873 at Washington NB,0,,
,40.687645,,6009,-75.610754,,,2207,,Rt 873 at Washington SB,0,,
,40.698527,,6005,-75.609373,,,2208,,Rt 873 at Woodland SB,0,,
,40.6773,,5962,-75.613929,,,2209,,Rt 873 at William Penn NB,0,,
,40.621234,,4943,-75.442758,,,3210,,Irving at Dieruff NB,0,,
,40.601029,,1301,-75.48741,,,2428,,Turner at 14th,0,,
,40.600454,,1300,-75.489491,,,2429,,Turner at 15th,0,,
,40.595026,,1260,-75.537518,,,2420,,Tilghman at Trexler Park WB,0,,
,40.59496,,1275,-75.537045,,,2421,,Tilghman at Trexler Park EB,0,,
,40.674032,,5132,-75.345355,,,2422,,3859 Nazareth Pike SB,0,,
,40.605851,,5131,-75.393845,,,2423,,Tombler at Delaware,0,,
,40.603251,,1305,-75.479363,,,2425,,Turner at 10th,0,,
,40.602711,,1304,-75.481336,,,2426,,Turner at 11th,0,,
,40.602197,,1303,-75.483167,,,2427,,Turner at 12th,0,,
,40.628736,,5496,-75.375107,,,901,,Center at Laurel,0,,
,40.752678,,5896,-75.605842,,,168,,Rt 873 at Walnut WB,0,,
,40.611973,,5009,-75.380241,,,169,,3rd at Banana Factory,0,,
,40.601849,,4107,-75.494655,,,164,,17th at Gordon - LVHN ER Entrance,0,,
,40.565301,,4095,-75.518488,,,165,,Cedar Crest at Lehigh Valley Hospital,0,,
,40.630467,,4364,-75.371466,,,166,,Elizabeth at Mdison EB,0,,
,40.61394822,,5725,-75.35793833,,,161,,Wind Creek Casino,0,,
,40.599057,,4283,-75.472238,,,162,,8th at Jackson,0,,
,40.558685,,5935,-75.402283,,,163,,PSU LV,0,,
,40.869974,,8007,-75.815516,,,3257,,New Columbus Fire WB,0,,
,40.61913,,4945,-75.442327,,,3212,,Irving at Tilghman SB,0,,
,40.625544,,4677,-75.428097,,,2518,,Union at Sherman WB,0,,
,40.592141,,4884,-75.498176,,,2519,,Union at St Elmo WB,0,,
,40.625565,,4668,-75.406609,,,2514,,Union at Mt Airy WB,0,,
,40.592647,,4832,-75.495879,,,2515,,Union at Lafayette EB,0,,
,40.592699,,4883,-75.496141,,,2516,,Union at Lafayette WB,0,,
,40.625392,,4629,-75.428092,,,2517,,Union at Sherman EB,0,,
,40.625166,,4679,-75.432522,,,2510,,Plymouth WB,0,,
,40.681798,,5343,-75.221557,,,908,,Centre at Canal,0,,
,40.625342,,4678,-75.430399,,,2512,,Union at Quebec WB,0,,
,40.628015,,4670,-75.409858,,,2513,,Union at Raymond,0,,
,40.649448,,9500,-75.289959,,,2736,,St Luke's Anderson,0,,
,40.607912,,6350,-75.32417019,,,2737,,3025 Commerce Center,0,,
,40.59096,,6281,-75.453319,,,2733,,Front at Susquehanna SB,0,,
,40.613133,,6351,-75.349212,,,2738,,Spillman at Lynn EB,0,,
,40.565214,,6310,-75.516901,,,2739,,1251 Professional Park SB,0,,
,40.64106032,,1472,-75.35405687,,,1106,,Easton at Lincoln WB,0,,
,40.591605,,6192,-75.340043,,,1817,,Main at Roth SB,0,,
,40.574328,,6204,-75.340844,,,1810,,Main at Pine SB,0,,
,40.574253,,5650,-75.340712,,,1811,,Main at Pine NB,0,,
,40.863874,,6525,-75.266533,,,2795,,Pennsylvania at George EB,0,,
,40.749917,,5603,-75.235036,,,1608,,Uhler at Conroy,0,,
,40.594469,,7435,-75.389744,,,3229,,PA 378 at Mountain SB,0,,
,40.60571,,7448,-75.383874,,,3228,,Summit at Carlton SB,0,,
,40.690751,,1196,-75.220921,,,1977,,Northampton at 9th WB,0,,
,40.711061,,5355,-75.217735,,,1600,,Knox at Sullivan Trail NB,0,,
,40.691041,,1198,-75.214757,,,1975,,Northampton at 6th WB,0,,
,40.751325,,5601,-75.232264,,,1602,,Uhler at Kesslerville EB,0,,
,40.746181,,5604,-75.241541,,,1605,,Uhler at Ian,0,,
,40.594614,,7433,-75.389616,,,3220,,PA 378 at Mountain NB,0,,
,40.689538,,1186,-75.238928,,,1971,,Northampton at 19th WB,0,,
,40.689751,,1187,-75.236787,,,1970,,Northampton at 18th WB,0,,
,40.676536,,5510,-75.378712,,,802,,Brodhead at Schelden WB,0,,
,40.676777,,5419,-75.377728,,,801,,Brodhead at Schelden EB,0,,
,40.677777,,5512,-75.371746,,,805,,Brodhead at Township Line WB,0,,
,40.680681,,5519,-75.346894,,,804,,Brodhead at Tracy,0,,
,40.666433,,3078,-75.48846,,,2848,,Front at North NB,0,,
,40.664977,,3079,-75.488383,,,2849,,Front at Center NB,0,,
,40.66922809,,3076,-75.48899106,,,2846,,2nd at Schreiber NB,0,,
,40.66796942,,3077,-75.48853528,,,2847,,2nd at Hokendauqua NB,0,,
,40.657151,,3062,-75.491489,,,2844,,Lehigh at 4th EB,0,,
,40.67284833,,3074,-75.49128199,,,2845,,2nd at Coplay NB,0,,
,40.65789343,,3061,-75.48950656,,,2843,,Lehigh at 3rd EB,0,,
,40.829005,,8103,-75.889648,,,3320,,Bertsch at Sharpe EB,0,,
,40.831902,,8104,-75.88562,,,3321,,Panther Valley Mini Mall WB,0,,
,40.831695,,8105,-75.885837,,,3322,,Panther Valley Mini Mall EB,0,,
,40.827472,,8106,-75.868584,,,3323,,Pine at Hazard SB,0,,
,40.828041,,8107,-75.868628,,,3324,,Pine at Fell NB,0,,
,40.82621,,8108,-75.869819,,,3325,,White at Oak WB,0,,
,40.825637,,8109,-75.873138,,,3326,,White at Market WB,0,,
,40.825059,,8110,-75.876431,,,3327,,White at Poplar WB,0,,
,40.824004,,8111,-75.878731,,,3328,,Linden at Ludlow SB,0,,
,40.823659,,8112,-75.876793,,,3329,,Ludlow at Poplar EB,0,,
,40.75445123,,5942,-75.59850574,,,1775,,Main at Cherry EB,0,,
,40.753383,,5895,-75.60109,,,1774,,Main at Canal WB,0,,
,40.593053,,5664,-75.340029,,,1777,,Main at Kichline NB,0,,
,40.75483177,,5894,-75.59827106,,,1776,,Main at Cherry WB,0,,
,40.623166,,4119,-75.381818,,,1771,,Main at North NB,0,,
,40.75334485,,5943,-75.60088723,,,1773,,Main at Canal EB,0,,
,40.604222,,5666,-75.340867,,,1551,,Hellertown and Commerce NB,0,,
,40.561109,,4165,-75.477592,,,1158,,Emaus at 28th SB,0,,
,40.668228,,5415,-75.379329,,,1550,,Highland at Burgess EB,0,,
,40.561878,,4140,-75.476928,,,1155,,Emaus at 27th,0,,
,40.565677,,4163,-75.474787,,,1154,,Emaus at 26th SB,0,,
,40.560638,,4141,-75.477715,,,1157,,Emaus at 28th NB,0,,
,40.568994,,4205,-75.471771,,,1153,,Emaus at 12th SB,0,,
,40.568368,,4162,-75.472041,,,1152,,Emaus at 12th NB,0,,
,40.613913,,1338,-75.474994,,,501_merged_671172,,6th at Washington,0,,
,40.614956,,6377,-75.477628,,,2778_merged_671174,,7th at Greenleaf NB,0,,
,40.668021,,6932,-75.319643,,,2998,,Oakland at Brandeis NB,0,,
,40.667788,,6933,-75.319387,,,2999,,Oakland at Brandeis SB,0,,
,40.603129,,5667,-75.341244,,,1553,,Hellertown and Commerce SB,0,,
,40.600866,,5665,-75.340579,,,1552,,Hellertown at Crest,0,,
,40.599554,,6972,-75.498505,,,3038,,Chew at 19th EB,0,,
,40.600132,,6973,-75.496414,,,3039,,Chew at 18th EB,0,,
,40.57731,,1079,-75.528,,,55,,Hamilton at Birch WB,0,,
,40.590697,,6969,-75.512084,,,3035,,Ott at Honochick SB,0,,
,40.629111,,4757,-75.470026,,,57,,Fullerton at Pershing SB,0,,
,40.611536,,4721,-75.460641,,,56,,Gordon at Ridge EB,0,,
,40.591923,,4503,-75.438747,,,51,,Susquehanna at Gilmore WB,0,,
,40.596812,,6965,-75.508864,,,3031,,Chew at Muhlenberg WB,0,,
,40.607432,,4648,-75.349099,,,53,,Argus at Lynn,0,,
,40.712991,,6931,-75.280531,,,2997,,Corriere at Nazareth,0,,
,40.631239,,5146,-75.395052,,,537,,8th at Martin Tower NB,0,,
,40.591447,,6968,-75.512268,,,3034,,Ott at Honochick NB,0,,
,40.608529,,4396,-75.476757,,,534,,8th at Liberty,0,,
,40.592039,,4240,-75.469396,,,533,,8th at Lehigh,0,,
,40.587061,,4740,-75.467456,,,532,,8th at Juniata SB,0,,
,40.586618,,4691,-75.467292,,,531,,8th at Juniata NB,0,,
,40.575796,,6214,-75.542115,,,54,,Cedar Village Apartments,0,,
,40.597819,,6970,-75.504805,,,3036,,Chew at 22nd EB,0,,
,40.5930373939,,4282,-75.4696563497,,,539,,8th at Pittston NB,0,,
,40.593202,,4241,-75.469883,,,538,,8th at Pittston SB,0,,
,40.690894,,1197,-75.218058,,,1976,,Northampton at 7th WB,0,,
,40.621903,,1347,-75.481164,,,1729_merged_671201,,Jordan Parkway EB,0,,
,40.596312,,6964,-75.510274,,,3030,,Chew at Muhlenberg EB,0,,
,40.614909,,6929,-75.352234,,,2995,,1555 Spillman,0,,
,40.822939,,8315,-75.720691,,,3294,,St Lukes Emergicenter SB,0,,
,40.597434,,6930,-75.492733,,,2996,,17th at Linden - Bartholomew Building,0,,
,40.818085,,8316,-75.728365,,,3295,,Blakeslee Blvd WB,0,,
,40.610522,,4579,-75.378237,,,52,,4th at New WB,0,,
,40.832873,,8311,-75.726415,,,3290,,St Lukes Gnaden Hutten NB,0,,
,40.828443,,8313,-75.721414,,,3292,,9th at Alum SB,0,,
,40.676545,,4917,-75.313694,,,1399,,Green Pond and Campbell WB,0,,
,40.634325,,4753,-75.477983,,,1398,,Grape at Jordon EB,0,,
,40.587315,,4201,-75.459918,,,421,,4th at Chapel NB,0,,
,40.587601,,4699,-75.460061,,,420,,4th at Chapel SB,0,,
,40.661776,,4313,-75.479502,,,423,,4th at Cypress WB,0,,
,40.658977,,4267,-75.475719,,,422,,4th at Chapel EB,0,,
,40.611451,,4603,-75.357253,,,425,,4th at Edward WB,0,,
,40.661954,,4270,-75.479952,,,424,,4th at Cypress EB,0,,
,40.61189565,,5668,-75.34893973,,,427,,4th at Lynn EB,0,,
,40.611323,,4602,-75.357356,,,426,,4th at Edward EB,0,,
,40.601569,,4284,-75.473466,,,530,,8th at Hamilton,0,,
,40.685954,,6010,-75.612184,,,2183,,Rt 873 at Crestwood SB,0,,
,40.685766,,5960,-75.612229,,,2182,,Rt 873 at Crestwood NB,0,,
,40.683143,,6011,-75.613337,,,2181,,Rt 873 at Foxcroft SB,0,,
,40.722869,,5904,-75.617548,,,2180,,Rt 873 at Church SB - Washington Twp,0,,
,40.735007,,5903,-75.615605,,,2187,,Rt 873 at Friedens NB,0,,
,40.682307,,5961,-75.613249,,,2186,,Rt 873 at Foxcroft NB,0,,
,40.75158469,,5898,-75.61299379,,,2185,,Rt 873 at Dowell SB,0,,
,40.620477,,4865,-75.493467,,,228,,13th at Overlook SB,0,,
,40.612894,,4406,-75.504638,,,227,,19th at Pennsylvania NB,0,,
,40.603875,,4457,-75.49428,,,226,,Liberty at 16th EB,0,,
,40.629196,,4708,-75.469796,,,225,,Fullerton at Pershing NB,0,,
,40.611729,,4770,-75.460391,,,224,,Gordon at Ridge WB,0,,
,40.609174,,4649,-75.347606,,,222,,Argus at Lynfield,0,,
,40.60839,,4552,-75.467614,,,221,,4th at Chew SB,0,,
,40.627349,,4625,-75.415234,,,220,,Union at Pennsylvania EB,0,,
,40.67073549,,6035,-75.50580983,,,2213,,Ruch at Ash SB,0,,
,40.67092642,,6069,-75.50606277,,,2212,,Ruch at Ash NB,0,,
,40.698189,,5955,-75.60921,,,2211,,Rt 873 at Woodland NB,0,,
,40.677343,,6012,-75.614036,,,2210,,Rt 873 at William Penn SB,0,,
,40.66792883,,6038,-75.50410415,,,2217,,Ruch at Poplar,0,,
,40.66882717,,6036,-75.50463566,,,2215,,Ruch at Oak SB,0,,
,40.66897355,,6070,-75.50488422,,,2214,,Ruch at Oak NB,0,,
,40.57339759,,5931,-75.45170988,,,2219,,4th at Mountain SB,0,,
,40.66983583,,6037,-75.50524539,,,2218,,Ruch at Walnut,0,,
,40.643411,,4297,-75.490529,,,2584_merged_671178,,Mickley at Royal,0,,
,40.623957,,4638,-75.444033,,,151,,Irving EB,0,,
,40.62958711,,6226,-75.42678034,,,150,,Pennsylvania at Tacoma,0,,
,40.601622,,1302,-75.485273,,,2439,,Turner at 13th,0,,
,40.621883,,1115,-75.425746,,,152,,Hanover at Tacoma EB,0,,
,40.686277,,5351,-75.234985,,,155,,Washington at 17th,0,,
,40.673663,,5263,-75.219997,,,157,,Line at Centre WB,0,,
,40.598136,,1311,-75.497929,,,2433,,Turner at 19th,0,,
,40.577509,,4438,-75.455076,,,158,,Emaus at 4th SB,0,,
,40.599297,,1313,-75.493691,,,2431,,Turner at 17th,0,,
,40.599868,,1299,-75.491574,,,2430,,Turner at 16th,0,,
,40.604435,,1307,-75.475088,,,2437,,Turner at 8th,0,,
,40.606014,,1308,-75.469304,,,2436,,Turner at 5th,0,,
,40.596662,,1309,-75.503267,,,2435,,Turner at 22nd,0,,
,40.597726,,1310,-75.499409,,,2434,,Turner at 20th,0,,
,40.624965,,4631,-75.432812,,,2509,,Plymouth EB,0,,
,40.627098,,4623,-75.409783,,,2508,,Union at Paul,0,,
,40.625107,,4655,-75.38368,,,2507,,Union at Monocacy EB,0,,
,40.625415,,4621,-75.406776,,,2506,,Union at Mt Airy EB,0,,
,40.624841,,4680,-75.435877,,,2504,,Union at Maxwell WB,0,,
,40.624721,,4632,-75.43539,,,2503,,Union at Maxwell EB,0,,
,40.625225,,4654,-75.383853,,,2502,,Union at Monocacy WB,0,,
,40.625058,,4606,-75.382041,,,2501,,Union at Main,0,,
,40.62257635,,4640,-75.45103336,,,2500,,Ballpark WB,0,,
,40.680187,,6276,-75.205641,,,2727,,Charles at Kleinhans NB,0,,
,40.681735,,6275,-75.208335,,,2726,,Nesquehoning at Folk,0,,
,40.677603,,6272,-75.261723,,,2723,,William Penn Plaza EB,0,,
,40.669108,,6271,-75.257752,,,2722,,Freemansburg at Berks WB,0,,
,40.671747,,6270,-75.323943,,,2721,,NCC Penn Hall,0,,
,40.780582,,6278,-75.278343,,,2729,,Sullivan at Belfast NB,0,,
,40.780635,,6277,-75.278533,,,2728,,Sullivan at Belfast SB,0,,
,40.615129,,1345,-75.477921,,,511_merged_671166,,7th at Greenleaf SB,0,,
,40.623916,,4653,-75.382019,,,1807,,Main at North SB,0,,
,40.575432,,6203,-75.340654,,,1803,,Main at Magnolia,0,,
,40.586588,,5659,-75.341326,,,1801,,Main at Linden,0,,
,40.578024,,5653,-75.340651,,,1809,,Main at Penn NB,0,,
,40.577611,,6201,-75.340781,,,1808,,Main at Penn SB,0,,
,40.865091,,8009,-75.809061,,,3258,,Senior Center  EB,0,,
,40.865273,,8010,-75.80891,,,3259,,Senior Center  WB,0,,
,40.689406,,1203,-75.238971,,,1948,,Northampton at 19th EB,0,,
,40.688916,,1217,-75.245124,,,1949,,Northampton at 22nd EB,0,,
,40.690247,,1209,-75.228537,,,1942,,Northampton at 13th EB,0,,
,40.690162,,1208,-75.230227,,,1943,,Northampton at 14th EB,0,,
,40.690434,,1211,-75.224544,,,1940,,Northampton at 11th EB,0,,
,40.690345,,1210,-75.226421,,,1941,,Northampton at 12th EB,0,,
,40.865986,,8004,-75.812686,,,3254,,Mermon at Rhume SB,0,,
,40.689597,,1204,-75.236859,,,1947,,Northampton at 18th EB,0,,
,40.690065,,1207,-75.232211,,,1944,,Northampton at 15th EB,0,,
,40.689872,,1206,-75.234196,,,1945,,Northampton at 16th EB,0,,
,40.704268,,4937,-75.207949,,,815,,Cattell at Burke SB,0,,
,40.675748,,5690,-75.260163,,,817,,Greenwood at Grove SB,0,,
,40.580154,,3005,-75.455876,,,2859,,4th at Dixon,0,,
,40.579928,,3004,-75.455566,,,2858,,4th at Cooper,0,,
,40.66091983,,3081,-75.48797939,,,2851,,Front at South NB,0,,
,40.66213128,,3080,-75.48815079,,,2850,,Front at Iron NB,0,,
,40.659886,,3137,-75.420877,,,2853,,Schoenersville at Grove SB,0,,
,40.660256,,3134,-75.420906,,,2852,,Schoenersville at Grove NB,0,,
,40.650783,,3140,-75.49560986,,,2854,,7th at Eberhart NB,0,,
,40.657321,,3003,-75.279279,,,2857,,Freemansburg at Ohio EB,0,,
,40.609909,,4397,-75.477386,,,2856,,8th at Allen,0,,
,40.611053,,1113,-75.448499,,,1490,,Hanover at Linden SB,0,,
,40.618395,,1098,-75.434621,,,1491,,Hanover at Maxwell EB,0,,
,40.618545,,1105,-75.434863,,,1492,,Hanover at Maxwell WB,0,,
,40.62802,,4800,-75.44217,,,3204,,Airport at Congress NB,0,,
,40.619545,,1100,-75.431227,,,1494,,Hanover at Plymouth EB,0,,
,40.619619,,1104,-75.431453,,,1495,,Hanover at Plymouth WB,0,,
,40.620403,,1103,-75.429787,,,1496,,Hanover at Quebec WB,0,,
,40.621333,,1101,-75.427588,,,1497,,Hanover at Sherman EB,0,,
,40.621587,,1102,-75.427241,,,1498,,Hanover at Sherman WB,0,,
,40.62194,,1118,-75.425718,,,1499,,Hanover at Tacoma WB,0,,
,40.836066,,8121,-75.865917,,,3338,,Lansford Townhouses WB,0,,
,40.635573,,4702,-75.474034,,,1395,,Grape at 6th WB,0,,
,40.619816,,4820,-75.488271,,,1994,,Overlook at Forest EB,0,,
,40.668546,,5114,-75.348457,,,1700,,Linden at Oakland,0,,
,40.667617,,5098,-75.349233,,,1701,,Linden at Santee Mill,0,,
,40.593881,,5879,-75.513591,,,1702,,Ott at Parkway SB,0,,
,40.582352,,1379,-75.477672,,,1625,,Lehigh at 12th SB - Allentown,0,,
,40.673911,,5265,-75.21718,,,1708,,Line at Coal WB,0,,
,40.673786,,5329,-75.217477,,,1709,,Line at Coal EB,0,,
,40.620106,,4819,-75.489751,,,1996,,Overlook at Marathon,0,,
,40.635743,,4751,-75.473166,,,1392,,Grape at 5th,0,,
,40.636232,,4752,-75.471102,,,1390,,Grape at 3rd,0,,
,40.63282218,,1465,-75.36770208,,,1128,,Easton at Woodlawn WB,0,,
,40.632809,,1412,-75.367553,,,1129,,Easton at Woodlawn EB,0,,
,40.665041,,1484,-75.317068,,,1120,,Easton at Oakland EB,0,,
,40.651154,,1426,-75.337149,,,1121,,Easton at 3050 Shopping Center NB,0,,
,40.664552,,1436,-75.318624,,,1124,,Easton at Redwood EB,0,,
,40.64180063,,1473,-75.35229391,,,1125,,Easton at Renwick WB,0,,
,40.653321,,1429,-75.335273,,,1126,,Easton at Willow Park NB,0,,
,40.653424,,1481,-75.335381,,,1127,,Easton at Willlow Park SB,0,,
,40.554938,,3751,-75.421109,,,2989,,3500 Corporate Parkway NB,0,,
,40.55350352,,3750,-75.42270928,,,2988,,3701 Corporate Parkway NB,0,,
,40.676414,,6963,-75.220643,,,3029,,Centre at Milton NB,0,,
,40.554884,,6961,-75.58372,,,3027,,Hamilton at Mill Creek WB,0,,
,40.554578,,6960,-75.584011,,,3026,,Hamilton at Mill Creek EB,0,,
,40.554599,,6959,-75.580331,,,3025,,Mill Creek Plaza WB - Trexlertown,0,,
,40.554481,,6958,-75.580115,,,3024,,Mill Creek Plaza EB - Trexlertown,0,,
,40.687495,,6957,-75.253048,,,3023,,Nazareth at Sales,0,,
,40.742564,,6956,-75.320444,,,3022,,Convent at Center SB,0,,
,40.663585,,3253,-75.604361,,,2985,,Rt 309 at Elberta NB,0,,
,40.643775,,6954,-75.407331,,,3020,,LVHN Muhlenberg Westgate Entrance EB,0,,
,40.630139,,5151,-75.395225,,,524,,8th at Martin Tower SB,0,,
,40.633588,,5150,-75.395412,,,526,,8th at Eaton NB,0,,
,40.623033,,5142,-75.395058,,,520,,8th at Broad SB,0,,
,40.605851,,4394,-75.475484,,,521,,8th at Chew,0,,
,40.589467,,4689,-75.467958,,,522,,8th at Cumberland NB,0,,
,40.589719,,4738,-75.468221,,,523,,8th at Cumberland SB,0,,
,40.607237,,4395,-75.476128,,,528,,8th at Gordon,0,,
,40.635444,,5408,-75.374972,,,1011,,Center at Washington NB,0,,
,40.672051,,4968,-75.252131,,,1234,,Freemansburg at Dunkle WB,0,,
,40.664601,,4959,-75.266159,,,1235,,Freemansburg at Eichlin WB,0,,
,40.647871,,5049,-75.308158,,,1236,,Freemansburg at Farmersville EB,0,,
,40.647886,,5050,-75.308448,,,1237,,Freemansburg at Farmersville WB,0,,
,40.681889,,5310,-75.240176,,,1230,,Freemansburg at Center,0,,
,40.671945,,5300,-75.252042,,,1233,,Freemansburg at Dunkle EB,0,,
,40.669901,,4965,-75.256347,,,1238,,Freemansburg at Grandview WB,0,,
,40.672701,,4969,-75.250855,,,1239,,Freemansburg at Hobson WB,0,,
,40.616861,,4244,-75.471653,,,438,,4th at Greenleaf,0,,
,40.662753,,4314,-75.480907,,,439,,4th at Grove NB,0,,
,40.722574,,4551,-75.225109,,,436,,Sullivan Trail at Meco NB,0,,
,40.610576,,4587,-75.371743,,,434,,4th at Filmore EB,0,,
,40.60942,,4491,-75.467937,,,435,,4th at Gordon NB,0,,
,40.610688,,4588,-75.372138,,,433,,4th at Filmore WB,0,,
,40.626175,,4626,-75.420199,,,2481,,Gateway EB,0,,
,40.609559,,4905,-75.479491,,,555,,9th at Allen,0,,
,40.680012,,6625,-75.247134,,,3162,,25th at Birch NB,0,,
,40.637966,,4871,-75.490775,,,69_merged_671171,,Whitehall Square North,0,,
,40.681701,,6626,-75.247879,,,3163,,25th at William Penn NB,0,,
,40.590666,,4887,-75.503515,,,2464,,Union at 23rd WB,0,,
,40.677956,,6624,-75.246692,,,3161,,25th at Lennox NB,0,,
,40.652182,,4785,-75.429296,,,991,,City Line at Airport,0,,
,40.686592,,4925,-75.243032,,,230,,21st at Lehigh SB,0,,
,40.725944,,5545,-75.269839,,,232,,2320 Newlins Mill,0,,
,40.600107,,4775,-75.479956,,,233,,11th at Hamilton,0,,
,40.665053,,3212,-75.387104,,,2944,,Stoke Park at Wegmans NB,0,,
,40.593856,,5851,-75.608353,,,2228,,6681 Snowdrift SB,0,,
,40.592402,,5852,-75.609145,,,2229,,Snowdrift at Grant SB,0,,
,40.638684,,5210,-75.398246,,,2226,,Schoenersville at Illicks Mill SB,0,,
,40.652121,,5227,-75.412871,,,2227,,Schoenersville at Industrial NB,0,,
,40.652414,,5181,-75.413502,,,2224,,Schoenersville at Industrial SB,0,,
,40.652419,,4784,-75.426367,,,992,,City Line at Avenue C,0,,
,40.638322,,5164,-75.397429,,,2223,,Schoenersville at Illicks Mill NB,0,,
,40.654548,,5180,-75.415136,,,2221,,Schoenersville at Valley Center NB,0,,
,40.610906,,1325,-75.538633,,,1,,Winchester at Pond,0,,
,40.621016,,6225,-75.439634,,,146,,Jerome at Washington - Dieruff HS,0,,
,40.559269,,1361,-75.487496,,,147,,Lehigh at 31st NB,0,,
,40.601942,,6213,-75.472516,,,145,,Hamilton at Hall,0,,
,40.599236,,6222,-75.493425,,,142,,17th at Turner NB,0,,
,40.582552,,4776,-75.519586,,,143,,Cedar Point East Hamilton Exit,0,,
,40.689092,,6001,-75.507802,,,140,,Main at 2nd EB - Cementon,0,,
,40.574952,,4157,-75.460811,,,141,,Emaus at Church SB,0,,
,40.625152,,4657,-75.389744,,,2468,,Union at 4th EB,0,,
,40.598067,,4133,-75.493053,,,148,,17th at Linden SB,0,,
,40.558986,,1369,-75.487897,,,149,,Lehigh at 31st SB,0,,
,40.644139,,4725,-75.446381,,,2088,,Postal at Hangar WB,0,,
,40.645274,,4788,-75.438899,,,2089,,Postal at Marcon EB,0,,
,40.613117,,1326,-75.538537,,,2081,,1575 Pond Road,0,,
,40.642861,,6065,-75.448823,,,2086,,901 Postal WB,0,,
,40.644039,,4790,-75.446261,,,2087,,Postal at Hangar EB,0,,
,40.614229,,1327,-75.538708,,,2084,,Pond at Walbert,0,,
,40.642772,,6066,-75.448717,,,2085,,901 Postal EB,0,,
,40.616394,,4475,-75.523205,,,2538,,Walbert at 26th EB,0,,
,40.616381,,4434,-75.524878,,,2539,,Walbert at 27th WB,0,,
,40.641277,,3133,-75.401316,,,3343,,Schoenersville at Jacksonville EB,0,,
,40.616891,,4431,-75.518471,,,2533,,Walbert at 24th WB,0,,
,40.616958,,4471,-75.5113,,,2530,,Walbert at 21st EB,0,,
,40.617111,,4411,-75.513801,,,2531,,Walbert at 22nd,0,,
,40.616574,,4474,-75.520922,,,2536,,Walbert at 25th EB,0,,
,40.61654,,4433,-75.522757,,,2537,,Walbert at 26th WB,0,,
,40.616758,,4473,-75.518724,,,2534,,Walbert at 24th EB,0,,
,40.616698,,4432,-75.520881,,,2535,,Walbert at 25th WB,0,,
,40.557441,,8000,-75.619026,,,2712,,650 Boulder,0,,
,40.567355,,6259,-75.527058,,,2710,,LVHN Cedar Crest West Lot,0,,
,40.566505,,9000,-75.520324,,,2711,,LVHN Cedar Crest 1250 Building,0,,
,40.613273,,6263,-75.368542,,,2716,,2nd at Founders Way WB,0,,
,40.612261,,6264,-75.366736,,,2717,,3rd at Hayes EB,0,,
,40.613195,,6262,-75.368131,,,2715,,2nd at Founders Way EB,0,,
,40.612537,,6265,-75.366291,,,2718,,3rd at Hayes WB,0,,
,40.737949,,6460,-75.262637,,,3093,,Trolley Line at Chrin Commerce Center NB,0,,
,40.617127,,3016,-75.478873,,,3344,,7th at Sumner Bridge SB,0,,
,40.673499,,4320,-75.483039,,,1832,,Main at Washington WB,0,,
,40.673344,,4276,-75.483634,,,1833,,Main at Washington EB,0,,
,40.572307,,5649,-75.341336,,,1831,,Main at Walnut NB,0,,
,40.579541,,5654,-75.340778,,,1834,,Main at Water,0,,
,40.589622,,5661,-75.340296,,,1838,,Main at Wilson,0,,
,40.635357,,6024,-75.585125,,,2154,,Rt 309 at Kernsville SB,0,,
,40.654716,,5969,-75.599895,,,2155,,Rt 309 at Levans NB,0,,
,40.654171,,6018,-75.599999,,,2156,,Rt 309 at Levans SB,0,,
,40.628238,,6025,-75.58243,,,2157,,Rt 309 at Lime Kiln SB,0,,
,40.650281,,5970,-75.597803,,,2150,,Rt 309 at Golden NB,0,,
,40.650221,,6019,-75.597957,,,2151,,Rt 309 at Golden SB,0,,
,40.620188,,5977,-75.580582,,,2152,,Rt 309 at Huckleberry NB,0,,
,40.634817,,5975,-75.584567,,,2153,,Rt 309 at Kernsville NB,0,,
,40.531795,,1388,-75.499275,,,933,,Chestnut at 7th EB - Emmaus,0,,
,40.533386,,1400,-75.495888,,,932,,Chestnut at 6th WB - Emmaus,0,,
,40.533134,,1387,-75.496195,,,931,,Chestnut at 6th EB - Emmaus,0,,
,40.53439,,1399,-75.493588,,,930,,Chestnut at 5th WB - Emmaus,0,,
,40.656825,,6017,-75.601031,,,2158,,Rt 309 at Pennsylvania SB,0,,
,40.668188,,6015,-75.60699,,,2159,,Rt 309 at Sand Spring NB,0,,
,40.599377,,1269,-75.521895,,,2408,,Tilghman at 29th WB,0,,
,40.598782,,1270,-75.524012,,,2409,,Tilghman at 30th WB,0,,
,40.618783,,5209,-75.378205,,,989_merged_671188,,Church at New,0,,
,40.734794,,5458,-75.265493,,,3091,,McFadden at Carson NB,0,,
,40.687886,,4014,-75.248587,,,1955,,Northampton at Ferry EB,0,,
,40.686447,,4015,-75.256326,,,1957,,Northampton at Communty WB,0,,
,40.685974,,4012,-75.258871,,,1956,,Northampton at Kathryn WB,0,,
,40.690581,,1213,-75.221317,,,1953,,Northampton at 9th EB,0,,
,40.690735,,1214,-75.218391,,,1952,,Northampton at 7th EB,0,,
,40.612555,,7462,-75.473501,,,3249,,Tilghman at Law EB,0,,
,40.626148,,7461,-75.414046,,,3248,,Pennsylvania at Badger EB,0,,
,40.641529,,6363,-75.490177,,,3242,,MacArthur at Schadt NB,0,,
,40.612855,,4857,-75.479,,,3241,,Washington at 8th EB,0,,
,40.635747,,4824,-75.49174,,,3240,,Whitehall Square NB,0,,
,40.626254,,7460,-75.413952,,,3247,,Pennsylvania at Badger WB,0,,
,40.630724,,6366,-75.485391,,,3244,,MacArthur at Alta SB,0,,
,40.685512,,5381,-75.229844,,,828,,Butler at 14th EB,0,,
,40.760183,,5384,-75.269318,,,825,,Rt 191 at Ariel NB,0,,
,40.760525,,5385,-75.269726,,,824,,Rt 191 at Ariel SB,0,,
,40.644586,,6034,-75.489017,,,130_merged_671216,,Whitehall Central,0,,
,40.666197,,5693,-75.310606,,,820,,Easton at Farmersville EB,0,,
,40.620651,,4866,-75.491909,,,1993,,Overlook at Corinth WB,0,,
,40.615272,,1110,-75.445295,,,1482,,Hanover at Graham WB,0,,
,40.615491,,1093,-75.444744,,,1481,,Hanover at Graham EB,0,,
,40.618128,,1097,-75.437322,,,1487,,Hanover at Kiowa EB,0,,
,40.617606,,1107,-75.439861,,,1486,,Hanover at Jasper WB,0,,
,40.617471,,1096,-75.439748,,,1485,,Hanover at Jasper EB,0,,
,40.821534,,8901,-75.914081,,,3309,,Miner's Hospital,0,,
,40.805705,,8409,-75.609634,,,3306,,Columbia at 4th,0,,
,40.804419,,8410,-75.612873,,,3307,,Columbia at 3rd,0,,
,40.611182,,1090,-75.448294,,,1489,,Hanover at Linden NB,0,,
,40.618324,,1106,-75.437154,,,1488,,Hanover at Kiowa WB,0,,
,40.802422,,8405,-75.608001,,,3302,,Delaware at 4th EB,0,,
,40.805283,,8406,-75.601898,,,3303,,6th at Delaware NB,0,,
,40.799636,,8403,-75.61506,,,3300,,Delaware at 1st EB,0,,
,40.799774,,8404,-75.615222,,,3301,,Delaware at 1st WB,0,,
,40.674244,,5330,-75.215229,,,1713,,Philadelphia at Line,0,,
,40.535212,,1398,-75.491502,,,928,,Chestnut at 4th WB - Emmaus,0,,
,40.678743,,5515,-75.364073,,,795,,Brodhead at Mowrere WB,0,,
,40.67861,,5424,-75.363602,,,794,,Brodhead at Mowrere EB,0,,
,40.673687,,5328,-75.218668,,,1715,,Line at Reynolds,0,,
,40.680801,,5429,-75.344865,,,790,,Brodhead at Fritch EB,0,,
,40.643867,,5183,-75.409993,,,1719,,LVHN Muhlenberg 1770 Building SB 2,0,,
,40.645159,,5184,-75.410221,,,1718,,LVHN Muhlenberg 1770 Building SB,0,,
,40.677689,,5422,-75.371464,,,798,,Brodhead at Township Line EB,0,,
,40.597373,,1276,-75.528529,,,2415,,Tilghman at Cedar Crest EB,0,,
,40.598046,,1261,-75.526765,,,2414,,Tilghman at Cedar Crest WB,0,,
,40.63068232,,4373,-75.373105,,,1139,,Elizabeth at High WB,0,,
,40.630572,,4362,-75.37358,,,1138,,Elizabeth at High EB,0,,
,40.619857,,4868,-75.487843,,,1995,,Overlook at Forest WB,0,,
,40.634664,,1414,-75.36574,,,1131,,Easton at Washington EB,0,,
,40.63503179,,1467,-75.36551013,,,1130,,Easton at Washington WB,0,,
,40.630971,,4371,-75.376756,,,1137,,Elizabeth at Chelsea WB,0,,
,40.630847,,4360,-75.376958,,,1136,,Elizabeth at Chelsea EB,0,,
,40.630799,,4361,-75.375343,,,1134,,Elizabeth at Center EB,0,,
,40.621903,,1347,-75.481164,,,1729_merged_671170,,MacArthur at Jordan SB,0,,
,40.594372,,1259,-75.540101,,,2418,,Tilghman at Springhouse WB,0,,
,40.655831,,4307,-75.473688,,,2062,,Pine at 3rd NB - Catasauqua,0,,
,40.64384,,6953,-75.407472,,,3019,,LVHN Muhlenberg Westgate Entrance WB,0,,
,40.585764,,6946,-75.555991,,,3012,,St Luke's West End WB,0,,
,40.677541,,6947,-75.262725,,,3013,,William Penn Plaza WB,0,,
,40.687962,,6945,-75.248811,,,3011,,Northampton at Ferry WB,0,,
,40.596029,,5839,-75.607193,,,188,,Snowdrift at Stonegate SB,0,,
,40.66935279,,6948,-75.45183301,,,3014,,Fed Ex Willowbrook,0,,
,40.863951,,6539,-75.266621,,,2797,,Pennsylvania at George WB,0,,
,40.635415,,5149,-75.395692,,,519,,8th at Bradford NB,0,,
,40.635868,,5148,-75.395948,,,518,,8th at Bradford SB,0,,
,40.656406,,5413,-75.377883,,,1009,,Center at Johnston,0,,
,40.640044,,5409,-75.375625,,,1008,,Center at Dewberry NB,0,,
,40.650636,,5411,-75.377131,,,1007,,Center at Bridle Path NB,0,,
,40.607904,,1335,-75.474485,,,510,,7th at Gordon,0,,
,40.669401,,5507,-75.375722,,,1005,,Courtney at Highland SB,0,,
,40.647561,,6020,-75.595082,,,2148,,Rt 309 at View SB,0,,
,40.672985,,5508,-75.377074,,,1003,,Commerce at Courtney EB,0,,
,40.673103,,5417,-75.377162,,,1002,,Commerce at Courtney WB,0,,
,40.613294,,1344,-75.477013,,,517,,7th at Washington,0,,
,40.55131424,,5938,-75.42231474,,,1000,,3773 Corporate Parkway SB,0,,
,40.679248,,5247,-75.212372,,,623,,Berwick at Davis WB,0,,
,40.678704,,5250,-75.218006,,,621,,Berwick at Coal WB,0,,
,40.677209,,5306,-75.244137,,,1224,,Freemansburg at Balata EB,0,,
,40.674438,,5303,-75.247218,,,1223,,Freemansburg at 27th EB,0,,
,40.641789,,5039,-75.324737,,,1222,,Freemansburg at 8th WB,0,,
,40.679101,,5248,-75.213907,,,625,,Berwick at Filbert WB,0,,
,40.641438,,5037,-75.326951,,,1220,,Freemansburg at 6th WB,0,,
,40.669543,,5297,-75.256694,,,1229,,Freemansburg at Grandview EB,0,,
,40.592844,,3154,-75.485641,,,2882,,15th at Elm NB,0,,
,40.744736,,3155,-75.242126,,,2883,,Sullivan Trail at Uhler SB,0,,
,40.730871,,3152,-75.276365,,,2880,,Van Buren at Hollo SB,0,,
,40.58232,,3153,-75.477688,,,2881,,12th at Lehigh,0,,
,40.646945,,3902,-75.491374,,,3197,,Whitehall Shopping Cntr SB,0,,
,40.650575,,3157,-75.293097,,,2884,,Freemansburg Madison Farms,0,,
,40.640066,,3161,-75.401693,,,2888,,Catasauqua at Holly WB,0,,
,40.639921,,3162,-75.401555,,,2889,,Catasauqua at Holly EB,0,,
,40.596959,,4086,-75.524726,,,2,,Village West,0,,
,40.613258,,6370,-75.363051,,,2816_merged_671190,,Daly at Sands WB,0,,
,40.665608,,1488,-75.315212,,,10,,Easton at Oakland WB,0,,
,40.653451,,5069,-75.348838,,,13,,East at Butztown SB,0,,
,40.674842,,5055,-75.342428,,,12,,Bethlehem Square,0,,
,40.632643,,5109,-75.353942,,,14,,Stefko at Walters SB,0,,
,40.643842,,5046,-75.318645,,,16,,Freemansburg at 14th,0,,
,40.609516,,5127,-75.391861,,,19,,Ostrum at Mohican,0,,
,40.629198,,5019,-75.350599,,,18,,Pembroke at Marvine,0,,
,40.877489,,8211,-75.730244,,,3274,,North at 8th NB,0,,
,40.878765,,8212,-75.729225,,,3275,,North at 9th SB,0,,
,40.875728,,8209,-75.732135,,,3272,,North at 6th SB,0,,
,40.643365,,5211,-75.405085,,,2654_merged_671215,,Westgate Mall EB,0,,
,40.875485,,8210,-75.732196,,,3273,,North at 6th NB,0,,
,40.873643,,8207,-75.734145,,,3270,,North at Fourth  SB,0,,
,40.873432,,8208,-75.734168,,,3271,,North at Fourth  NB,0,,
,40.637966,,4871,-75.490775,,,69_merged_671202,,Whitehall Square SB Stop 2,0,,
,40.534338,,1386,-75.493426,,,929,,Chestnut at 5th EB - Emmaus,0,,
,40.575056,,4134,-75.460289,,,200,,Emaus at Church NB,0,,
,40.653168,,5070,-75.348586,,,204,,East at Butztown NB,0,,
,40.633981,,6239,-75.351942,,,207,,Stefko at Hilton NB,0,,
,40.674807,,5367,-75.32416,,,209,,Green Pond at NCC EB,0,,
,40.663465,,5288,-75.267858,,,208,,Freemansburg at Stones Crossing EB,0,,
,40.646518,,6057,-75.471035,,,685,,Bridge at Lehigh,0,,
,40.622681,,1155,-75.397281,,,687,,Broad at 10th WB,0,,
,40.594103,,5840,-75.608061,,,2231,,6681 at Snowdrift NB,0,,
,40.584711,,5853,-75.613084,,,2230,,7200 Windsor NB,0,,
,40.590011,,5842,-75.610508,,,2233,,Snowdrift at Tilghman SB,0,,
,40.592091,,5841,-75.609146,,,2232,,Snowdrift at Grant NB,0,,
,40.569925,,4948,-75.543396,,,3190,,Wescosville P&R,0,,
,40.757304,,5607,-75.265909,,,1574,,Main at Industrial SB,0,,
,40.610952,,4996,-75.473803,,,229,,Allen at 6th,0,,
,40.635037,,4876,-75.495271,,,2095,,Presidential at Eisenhower,0,,
,40.635313,,4827,-75.496495,,,2097,,Presidential at Johnson,0,,
,40.635503,,4874,-75.499858,,,2096,,Presidential at Hoover,0,,
,40.645231,,4786,-75.435108,,,2091,,1000 Postal WB,0,,
,40.645437,,4787,-75.439181,,,2090,,Postal at Marcon WB,0,,
,40.644862,,4789,-75.443799,,,2092,,981 Postal,0,,
,40.74856633,,5948,-75.61171161,,,2189,,Rt 873 at Franklin NB,0,,
,40.67727738,,6003,-75.50279306,,,2525,,W Coplay at Coplay WB,0,,
,40.673489,,6004,-75.506351,,,2524,,5290 W Coplay WB,0,,
,40.616269,,4408,-75.506549,,,2527,,Walbert at 19th WB,0,,
,40.615311,,4085,-75.535158,,,2526,,Walbert at Cedar Crest EB,0,,
,40.625739,,4676,-75.426106,,,2521,,Union at Tacoma WB,0,,
,40.625553,,4628,-75.426384,,,2520,,Union at Tacoma EB,0,,
,40.625954,,4675,-75.423732,,,2523,,Union at Van Buren WB,0,,
,40.625826,,4627,-75.423475,,,2522,,Union at Van Buren EB,0,,
,40.617066,,4410,-75.511243,,,2529,,Walbert at 21st WB,0,,
,40.616244,,4469,-75.50686,,,2528,,Walbert at 19th EB,0,,
,40.592611,,6255,-75.438859,,,2705,,Gilmore at Cumberland,0,,
,40.608378,,6257,-75.461263,,,2707,,2nd at Turner SB,0,,
,40.561927,,6251,-75.493791,,,2701,,Hillcrest at Oxford,0,,
,40.56313539,,6250,-75.4959578,,,2700,,Devonshire at Oxford,0,,
,40.572645,,6205,-75.341388,,,1829,,Main at Walnut SB,0,,
,40.585171,,5658,-75.341238,,,1825,,Main at Thomas NB,0,,
,40.584802,,6197,-75.341368,,,1824,,Main at Thomas SB,0,,
,40.591761,,5663,-75.339891,,,1827,,Main at Wagner NB,0,,
,40.742251,,5465,-75.251242,,,1826,,Main at Bushkill WB - Tatamy,0,,
,40.576238,,5652,-75.340534,,,1821,,Main at Saucon NB,0,,
,40.576291,,6202,-75.340688,,,1820,,Main at Saucon SB,0,,
,40.683639,,5996,-75.52283,,,1823,,Main at Spruce EB,0,,
,40.567384,,5648,-75.339648,,,1822,,Main at Polk Valley NB,0,,
,40.648032,,5971,-75.595353,,,2147,,Rt 309 at View NB,0,,
,40.611525,,6028,-75.567771,,,2146,,Walbert at 309 EB,0,,
,40.64422,,6022,-75.59176,,,2145,,Rt 309 at Boxwood SB,0,,
,40.644308,,5973,-75.591583,,,2144,,Rt 309 at Boxwood NB,0,,
,40.612335,,6027,-75.571549,,,2143,,Rt 309 at Chapmans EB,0,,
,40.612664,,5978,-75.571629,,,2142,,Rt 309 at Chapmans WB,0,,
,40.591448,,1271,-75.550001,,,2417,,Tilghman at Parkway EB,0,,
,40.720332,,5439,-75.292574,,,2140,,Rt 248 at Eastgate WB,0,,
,40.594242,,1274,-75.539917,,,2419,,Tilghman at Springhouse EB,0,,
,40.529541,,1391,-75.504409,,,921,,Chestnut at 10th EB - Emmaus,0,,
,40.529814,,1404,-75.504067,,,922,,Chestnut at 10th WB - Emmaus,0,,
,40.619461,,6026,-75.580742,,,2149,,Rt 309 at Huckleberry SB,0,,
,40.534887,,1385,-75.492209,,,927,,Chestnut at 4th EB - Emmaus,0,,
,40.617717,,3015,-75.478925,,,2895_merged_671173,,7th at Sumner,0,,
,40.593025,,1273,-75.544275,,,2411,,Tilghman at 40th EB,0,,
,40.62284893,,4354,-75.37834236,,,1920,,New at Raspberry,0,,
,40.88055,,8214,-75.727326,,,3277,,North at 11th NB,0,,
,40.6308834,,4359,-75.37803799,,,1922,,New at Elizabeth NB,0,,
,40.630276,,4370,-75.378247,,,1923,,New at Elizabeth SB,0,,
,40.627382,,4357,-75.378161,,,1924,,New at Fairview NB,0,,
,40.62778,,4368,-75.378341,,,1925,,New at Fairview SB,0,,
,40.626056,,4356,-75.378203,,,1926,,New at Goepp NB,0,,
,40.626373,,4367,-75.378407,,,1927,,New at Goepp SB,0,,
,40.628782,,4358,-75.378119,,,1928,,New at Laurel NB,0,,
,40.629103,,4369,-75.378316,,,1929,,New at Laurel SB,0,,
,40.881289,,8215,-75.726805,,,3278,,North at 11th SB,0,,
,40.880414,,8216,-75.725274,,,3279,,Jim Thorpe High School,0,,
,40.685258,,5379,-75.233417,,,832,,Butler at 16th EB,0,,
,40.685408,,4980,-75.233187,,,833,,Butler at 16th WB,0,,
,40.685561,,4981,-75.231337,,,831,,Butler at 15th,0,,
,40.683413,,5390,-75.24411,,,836,,Butler at 22nd EB,0,,
,40.685046,,5378,-75.235615,,,834,,Butler at 17th,0,,
,40.684721,,4979,-75.236499,,,835,,Freemansburg at Butler,0,,
,40.601289,,4102,-75.494546,,,3,,17th at Chew,0,,
,40.831633,,8115,-75.881096,,,3332,,Bertsch at Walnut EB,0,,
,40.829082,,8102,-75.889767,,,3319,,Bertsch at Sharpe WB,0,,
,40.826634,,8101,-75.894966,,,3318,,Boyer's  EB,0,,
,40.614956,,6377,-75.477628,,,2778_merged_671205,,Greenleaf WB,0,,
,40.625142,,4630,-75.430869,,,2511,,Union at Quebec EB,0,,
,40.821519,,8903,-75.910493,,,3311,,Phillips at 6th EB,0,,
,40.821572,,8902,-75.91071,,,3310,,Phillips at 6th WB,0,,
,40.822725,,8905,-75.907169,,,3313,,Phillips at 4th EB,0,,
,40.822886,,8904,-75.907083,,,3312,,Phillips at 4th WB,0,,
,40.824044,,8907,-75.903526,,,3315,,Phillips at 2nd EB,0,,
,40.824214,,8906,-75.90341,,,3314,,Phillips at 2nd WB,0,,
,40.825053,,8909,-75.900475,,,3317,,Black Diamond Park EB,0,,
,40.824954,,8908,-75.901179,,,3316,,Black Diamond Park WB,0,,
,40.610551,,5645,-75.381478,,,786,,Brodhead at 4th,0,,
,40.824825,,8114,-75.87131,,,3331,,Ludlow at Chestnut EB,0,,
,40.845539,,5558,-75.292674,,,781,,Broadway at West,0,,
,40.623574,,1346,-75.481946,,,1728,,MacArthur at Fairmont SB,0,,
,40.608176,,7442,-75.381064,,,3223,,Brodhead at Packer NB,0,,
,40.624621,,1348,-75.482169,,,1727,,MacArthur at Fairmont NB,0,,
,40.608924,,4645,-75.349315,,,1724,,Lynn at 8th,0,,
,40.644848,,5225,-75.410016,,,1721,,LVHN Muhlenberg 1770 Building NB,0,,
,40.823967,,8113,-75.874282,,,3330,,Ludlow Park EB,0,,
,40.608242,,6223,-75.461017,,,153,,2nd at Turner NB,0,,
,40.592802,,4202,-75.463233,,,61,,5th at Wyoming NB,0,,
,40.604031,,4130,-75.494138,,,62,,Liberty at 16th WB,0,,
,40.603928,,1306,-75.476913,,,2438,,Turner at 9th,0,,
,40.608465,,6935,-75.472277,,,3001,,Gordon at 6th,0,,
,40.614249,,4546,-75.531607,,,65,,1605 Office Center,0,,
,40.596211,,4143,-75.487236,,,66,,15th at Walnut NB,0,,
,40.607959,,6936,-75.474119,,,3002,,Gordon at 7th,0,,
,40.620602,,4817,-75.493362,,,68,,13th at Overlook NB,0,,
,40.674941,,5267,-75.214644,,,1985,,Old Philadelphia at Seitz WB,0,,
,40.59107882,,6943,-75.45318346,,,3009,,Front at Susquehanna NB,0,,
,40.621516,,4823,-75.481651,,,1588,,Jordan at MacArthur,0,,
,40.621089,,4870,-75.483702,,,1589,,Mickley at Jordan,0,,
,40.583227,,4235,-75.478984,,,1582,,Jefferson at 12th SB,0,,
,40.587033,,4233,-75.479243,,,1583,,Jefferson at Cumberland SB,0,,
,40.598836,,4353,-75.472494,,,1580,,Jackson at 8th,0,,
,40.583099,,4228,-75.478796,,,1581,,Jefferson at 12th NB,0,,
,40.584309,,4234,-75.478835,,,1586,,Jefferson at Lehigh Parkway SB,0,,
,40.586921,,4230,-75.479029,,,1584,,Jefferson at Cumberland NB,0,,
,40.584844,,4229,-75.478711,,,1585,,Jefferson at Lehigh Parkway NB,0,,
,40.580545,,4745,-75.457786,,,1039,,Dixon at 5th EB,0,,
,40.598714,,1312,-75.495808,,,2432,,Turner at 18th,0,,
,40.874509,,5618,-75.213427,,,1033,,Division at 3rd,0,,
,40.653352,,4034,-75.496997,,,505,,7th at Crescent SB,0,,
,40.613351,,4027,-75.357263,,,502,,Daly at Minsi Trail WB,0,,
,40.580669,,4695,-75.457925,,,1037,,Dixon at 5th WB,0,,
,40.871086,,5620,-75.212294,,,1034,,Division at Columbia,0,,
,40.674587,,4971,-75.247361,,,1212,,Freemansburg at 27th WB,0,,
,40.640554,,5031,-75.331081,,,1213,,Freemansburg at 2nd EB,0,,
,40.679428,,4975,-75.242113,,,1210,,Freemansburg at 23rd,0,,
,40.678418,,5307,-75.242696,,,1211,,Freemansburg at 24th,0,,
,40.678453,,5204,-75.219661,,,634,,Berwick at Reynolds EB,0,,
,40.641041,,5036,-75.329157,,,1217,,Freemansburg at 4th EB,0,,
,40.640761,,5032,-75.330827,,,1214,,Freemansburg at 2nd WB,0,,
,40.679324,,5246,-75.210512,,,637,,Berwick at St John EB,0,,
,40.641217,,5035,-75.328865,,,1218,,Freemansburg at 4th WB,0,,
,40.641308,,5038,-75.326982,,,1219,,Freemansburg at 6th EB,0,,
,40.609651,,4772,-75.467975,,,1378,,Gordon at 4th,0,,
,40.600801,,1266,-75.516635,,,2416,,Tilghman at Ott WB,0,,
,40.834439,,8118,-75.872048,,,3335,,Patterson at Pardee EB,0,,
,40.664845,,3167,-75.563933,,,2899,,Levans at Mauch Chunk WB,0,,
,40.680163,,3166,-75.530207,,,2898,,Main at Church EB,0,,
,40.573991,,3156,-75.633707,,,2897,,7880 Nestle Way Entrance,0,,
,40.605481,,3165,-75.465971,,,2896,,Linden at 4th,0,,
,40.639903,,3163,-75.403821,,,2891,,Catasauqua at Westfield WB,0,,
,40.639804,,3164,-75.403279,,,2892,,Catasauqua at Westfield EB,0,,
,40.590234,,1074,-75.512103,,,1454,,Hamilton at Ott,0,,
,40.640082,,1418,-75.355893,,,1107,,Easton at Henderson EB,0,,
,40.58314693,,1078,-75.51764804,,,1456,,Hamilton at VA,0,,
,40.640681,,1419,-75.354422,,,1105,,Easton at Lincoln EB,0,,
,40.60091715,,1062,-75.4762179,,,1450,,Hamilton at Fountain,0,,
,40.580996,,1080,-75.523566,,,1451,,Cedar Point West,0,,
,40.638326,,1416,-75.361019,,,1100,,Easton at Jennings EB,0,,
,40.63855787,,1469,-75.36060008,,,1101,,Easton at Jennings WB,0,,
,40.642257,,1421,-75.350816,,,1108,,Easton at Lexington EB,0,,
,40.63928101,,1470,-75.35852268,,,1109,,Easton at Carlisle WB,0,,
,40.606551,,1282,-75.473547,,,958,,Chew at 7th,0,,
,40.634338,,6156,-75.489043,,,2100_merged_671211,,Presidential at Mickley WB,0,,
,40.686012,,5314,-75.235132,,,216,,17th at Washington,0,,
,40.644222,,1503,-75.346284,,,217,,Easton at Stefko EB,0,,
,40.868612,,5479,-75.254729,,,214,,Pennsylvania at Robinson EB,0,,
,40.672386,,5301,-75.251203,,,215,,Freemansburg at Hobson EB,0,,
,40.673675,,5418,-75.382363,,,210,,Commerce at Brodhead NB,0,,
,40.622158,,1175,-75.375139,,,211,,Broad at Center EB,0,,
,40.610491,,4583,-75.374585,,,218,,4th at Taylor EB,0,,
,40.642617,,5174,-75.426001,,,219,,Catasauqua at Pennsylvania WB,0,,
,40.738403,,6461,-75.263,,,3094,,Trolley Line at Chrin Commerce Center SB,0,,
,40.833888,,8305,-75.710146,,,3284,,Wine and Spirits EB,0,,
,40.690696,,5318,-75.214569,,,2550,,Walnut at 6th EB,0,,
,40.686889,,4987,-75.221947,,,2551,,Washington at 10th,0,,
,40.688305,,5316,-75.218186,,,2552,,Walnut at 7th EB - Easton,0,,
,40.600701,,6209,-75.471182,,,2553,,Walnut at 7th - Allentown,0,,
,40.688726,,5346,-75.21776,,,2554,,Walnut at 7th WB - Easton,0,,
,40.606889,,6938,-75.478016,,,3004,,Gordon at 9th,0,,
,40.834703,,8304,-75.709214,,,3283,,Community Bank WB,0,,
,40.689237,,5317,-75.216768,,,2559,,Walnut at Ferry NB,0,,
,40.589139,,1239,-75.603311,,,2396,,Tilghman at Ruppsville EB,0,,
,40.589277,,1244,-75.603746,,,2397,,Tilghman at Ruppsville WB,0,,
,40.593168,,1248,-75.576383,,,2394,,Tilghman at Werley WB,0,,
,40.613129,,4467,-75.504912,,,63,,19th at Pennsylvania SB,0,,
,40.591253,,1252,-75.569597,,,2392,,5151 Tilghman EB,0,,
,40.591314,,1249,-75.569045,,,2393,,5151 Tilghman WB,0,,
,40.589962,,1254,-75.564256,,,2398,,Tilghman at Westfield EB,0,,
,40.589888,,1251,-75.563149,,,2399,,Tilghman at Westfield WB,0,,
,40.664835,,6378,-75.318266,,,2779,,Easton at Redwood WB,0,,
,40.607399,,6937,-75.476146,,,3003,,Gordon at 8th,0,,
,40.833858,,8303,-75.708732,,,3282,,Lehighton Elderly Apts SB,0,,
,40.624319,,6362,-75.48146,,,2770,,Fairmont at MacArthur WB,0,,
,40.59714,,6368,-75.616209,,,2771,,6950 Ambassador EB,0,,
,40.584277,,6369,-75.613115,,,2772,,7200 Windsor SB,0,,
,40.576433,,6372,-75.53755,,,2773,,Dorney Park at Lincoln WB,0,,
,40.690907,,6373,-75.214779,,,2774,,Northampton at 6th EB,0,,
,40.555179,,6374,-75.486754,,,2775,,33rd at Berger EB,0,,
,40.558851,,6375,-75.479751,,,2776,,Emaus at 29th NB,0,,
,40.598061,,6376,-75.467634,,,2777,,Lehigh at MLK NB,0,,
,40.684065,,6629,-75.250035,,,3166,,25th at Easton Area HS SB,0,,
,40.604901,,1010,-75.471036,,,3167,,ATC - Platform A,0,,
,40.786842,,5574,-75.281454,,,1858,,Sullivan Trail at Oak Tree SB,0,,
,40.867494,,5485,-75.215821,,,1859,,Market at 8th EB,0,,
,40.683271,,6628,-75.249206,,,3165,,25th at Easton Area HS NB,0,,
,40.82995,,8302,-75.701776,,,3281,,Weissport Park EB,0,,
,40.867103,,5489,-75.209811,,,1851,,Market at 4th WB,0,,
,40.867218,,5577,-75.210038,,,1852,,Market at 4th EB,0,,
,40.867347,,5575,-75.212055,,,1856,,Market at 6th,0,,
,40.866906,,5486,-75.206746,,,1857,,Market at 1st,0,,
,40.641138,,5974,-75.588726,,,2172,,Rt 309 at Wolfs Crossing NB,0,,
,40.611441,,5979,-75.568804,,,2170,,Walbert at 309 WB,0,,
,40.641121,,6023,-75.58896,,,2171,,Rt 309 at Wolfs Crossing SB,0,,
,40.729839,,5897,-75.618135,,,2176,,Rt 873 at Hill SB,0,,
,40.72274387,,5952,-75.61747703,,,2177,,Rt 873 at Church NB - Washington Twp,0,,
,40.871608,,5482,-75.233453,,,2174,,Blue Valley at American Bangor EB,0,,
,40.751387,,5945,-75.612764,,,2175,,Rt 873 at Dowell NB,0,,
,40.75036721,,5947,-75.61248315,,,2178,,Rt 873 at Church NB - Slatington,0,,
,40.75022031,,5899,-75.61257709,,,2179,,Rt 873 at Church SB - Slatington,0,,
,40.583276,,5845,-75.618731,,,2604,,7450 Windsor WB,0,,
,40.583095,,5856,-75.618977,,,2605,,7450 Windsor EB,0,,
,40.583937,,5847,-75.62304575,,,2606,,Windsor at Imperial NB,0,,
,40.583668,,5844,-75.616752,,,2600,,7350 Windsor WB,0,,
,40.583412,,5855,-75.617401,,,2601,,7350 Windsor EB,0,,
,40.582933,,5846,-75.620749,,,2602,,7540 Windsor WB,0,,
,40.582928,,5857,-75.621753,,,2603,,7540 Windsor EB,0,,
,40.68139,,1498,-75.251164,,,2608,,William Penn at 27th WB,0,,
,40.624825,,4355,-75.378259,,,1933,,New at Union NB,0,,
,40.623739,,4365,-75.378509,,,1932,,New at North,0,,
,40.621439,,5208,-75.378398,,,1931,,New at Walnut NB,0,,
,40.621537,,5160,-75.378711,,,1930,,New at Walnut SB,0,,
,40.862753,,8202,-75.738205,,,3265,,Woods Ice Cream NB,0,,
,40.862932,,8201,-75.738319,,,3264,,Susquehanna at Race SB,0,,
,40.87172,,8204,-75.73599,,,3267,,North at 2nd SB,0,,
,40.625237,,4366,-75.378441,,,1934,,New at Union SB,0,,
,40.87231,,8206,-75.73515,,,3269,,North at Third NB,0,,
,40.8715,,8205,-75.735977,,,3268,,2nd at North WB,0,,
,40.690524,,1212,-75.222673,,,1939,,Northampton at 10th EB,0,,
,40.716302,,5532,-75.282421,,,1938,,3750 Northampton Crossing,0,,
,40.641939,,5172,-75.418528,,,847,,Catasauqua at Grove,0,,
,40.642579,,5173,-75.423411,,,845,,Catasauqua at Aster WB,0,,
,40.641598,,5171,-75.417148,,,844,,Catasauqua at Allwood WB,0,,
,40.682247,,6238,-75.247432,,,843,,Butler at 25th WB,0,,
,40.682008,,1411,-75.247649,,,842,,Butler at 25th EB,0,,
,40.683615,,5389,-75.243891,,,840,,Butler at 22nd WB,0,,
,40.597589,,1043,-75.488237,,,1426,,Hamilton at 15th EB,0,,
,40.641381,,5175,-75.430454,,,849,,Catasauqua at Valley Plaza Entrance SB,0,,
,40.640547,,5169,-75.412644,,,848,,Catasauqua at Kelchner WB,0,,
,40.613202,,6371,-75.362308,,,2817_merged_671220,,Greenway EB,0,,
,40.621668,,6249,-75.480777,,,2699_merged_671160,,MacArthur at Jordan NB,0,,
,40.638104,,6067,-75.438592,,,1048_merged_671177,,Airport Shopping Center Entrance,0,,
,40.684812,,4332,-75.495336,,,1739,,Main at 16th NB,0,,
,40.683525,,4331,-75.494229,,,1738,,Main at 15th SB,0,,
,40.612215,,6261,-75.371829,,,2714_merged_671195,,Southside Station WB,0,,
,40.678391,,4323,-75.488261,,,1731,,Main at 10th NB,0,,
,40.619679,,1351,-75.480112,,,1730,,MacArthur at Mickley SB,0,,
,40.681047,,4326,-75.491593,,,1733,,Main at 13th NB,0,,
,40.678655,,4279,-75.488596,,,1732,,Main at 10th SB,0,,
,40.682449,,4328,-75.492982,,,1735,,Main at 14th NB,0,,
,40.680941,,4327,-75.491667,,,1734,,Main at 13th SB,0,,
,40.683658,,4330,-75.494173,,,1737,,Main at 15th NB,0,,
,40.682549,,4329,-75.493262,,,1736,,Main at 14th SB,0,,
,40.620144,,1331,-75.480057,,,497_merged_671175,,6th at MacArthur,0,,
,40.841232,,5469,-75.294743,,,753,,Broadway at 3rd NB,0,,
,40.584351,,5870,-75.536839,,,752,,Broadway at 38th WB,0,,
,40.584261,,5917,-75.536586,,,751,,Broadway at 38th EB,0,,
,40.585082,,5871,-75.534124,,,750,,Broadway at 37th WB,0,,
,40.583875,,5866,-75.543076,,,757,,Broadway at 41st WB,0,,
,40.583837,,5913,-75.543279,,,756,,Broadway at 41st EB,0,,
,40.841467,,5554,-75.294793,,,754,,Broadway at 3rd SB,0,,
,40.585145,,5865,-75.546548,,,759,,Broadway at 42nd WB,0,,
,40.585117,,5911,-75.546943,,,758,,Broadway at 42nd EB,0,,
,40.753514,,7004,-75.226972,,,3070,,East Braden and Uhler NB,0,,
,40.749285,,7005,-75.225813,,,3071,,4325 East Braden SB,0,,
,40.749174,,7006,-75.225632,,,3072,,4325 East Braden NB,0,,
,40.751281,,7007,-75.232599,,,3073,,Uhler at Kesslerville WB,0,,
,40.67656486,,3226,-75.5032878,,,2958,,W Coplay at Coplay EB,0,,
,40.67821728,,3227,-75.50286699,,,2959,,Coplay at Coplay NB,0,,
,40.616316,,7010,-75.659283,,,3076,,Allentown Treatment Center,0,,
,40.650767,,4036,-75.495775,,,507,,7th at Eberhart SB,0,,
,40.677497,,7012,-75.374212,,,3078,,Brodhead at Commerce NB,0,,
,40.529086,,3223,-75.505752,,,2955,,Chestnut at 11th - Emmaus,0,,
,40.67340094,,3225,-75.50619755,,,2957,,5290 W Coplay EB,0,,
,40.706777,,5407,-75.215438,,,1598,,Knox at Fairfield,0,,
,40.690965,,3220,-75.213203,,,2952,,Northampton at 5th EB,0,,
,40.655299,,3221,-75.590546,,,2953,,Levans at Wolf Hollow WB,0,,
,40.605166,,5133,-75.394388,,,1025,,Delaware at Clewell SB,0,,
,40.603585,,5136,-75.395875,,,1027,,Delaware at Hoffert SB,0,,
,40.602593,,5138,-75.396807,,,1023,,Delaware at Bergen SB,0,,
,40.869222,,5621,-75.211714,,,1036,,Division at Pennsylvania,0,,
,40.604338,,5135,-75.395172,,,1028,,Delaware at Kieffer SB,0,,
,40.601666,,1264,-75.513482,,,2402,,Tilghman at 25th WB,0,,
,40.601264,,4026,-75.468969,,,500,,6th at Walnut,0,,
,40.655651,,5222,-75.422621,,,605,,2123 Avenue C,0,,
,40.655844,,5177,-75.422523,,,604,,2124 Avenue C,0,,
,40.657078,,5224,-75.419201,,,606,,Avenue C at Schoenersville EB,0,,
,40.649802,,4781,-75.425507,,,600,,2255 Avenue A,0,,
,40.652663,,5176,-75.425901,,,603,,Avenue C at City Line,0,,
,40.682672,,4977,-75.239411,,,1206,,Freemansburg at 20th,0,,
,40.642225,,5041,-75.322718,,,1201,,Freemansburg at 10th WB,0,,
,40.642074,,5042,-75.322676,,,1200,,Freemansburg at 10th EB,0,,
,40.642631,,5043,-75.320896,,,1203,,Freemansburg at 12th WB,0,,
,40.642918,,5044,-75.319926,,,1202,,Freemansburg at 12th EB,0,,
,40.678566,,5251,-75.219453,,,633,,Berwick at Reynolds WB,0,,
,40.678938,,5249,-75.215632,,,635,,Berwick at Seitz WB,0,,
,40.611258,,4580,-75.387479,,,3108,,3rd at 4th EB,0,,
,40.611227,,4581,-75.387028,,,3109,,4th at 3rd WB,0,,
,40.584356,,6917,-75.557541,,,3104,,Cetronia at Robert Morris,0,,
,40.589332,,6916,-75.559213,,,3105,,Tilghman at Towne Center,0,,
,40.559209,,5829,-75.628677,,,3106,,8400 Industrial Blvd,0,,
,40.60828,,4527,-75.385785,,,3107,,Broadway at Wyandotte NB,0,,
,40.687568,,4985,-75.210938,,,3100,,4th at Larry Holmes,0,,
,40.66762,,6949,-75.456566,,,3101,,Willowbrook at GEODIS,0,,
,40.587966,,6919,-75.557672,,,3102,,Cetronia at Broadway,0,,
,40.584665,,6918,-75.559339,,,3103,,Integrated Health Campus,0,,
,40.647988,,1478,-75.341101,,,1111,,Easton at Nottingham WB,0,,
,40.648255,,1425,-75.340476,,,1110,,Easton at Nottingham EB,0,,
,40.665834,,1438,-75.312957,,,1113,,Easton at Reeve EB,0,,
,40.660974,,1487,-75.327971,,,1112,,Easton at 9th WB,0,,
,40.616819,,1095,-75.441908,,,5,,Hanover at Irving EB,0,,
,40.604768,,1023,-75.462177,,,1442,,Hamilton at American Parkway EB,0,,
,40.605511,,1028,-75.460168,,,1441,,Hamilton at 2nd WB,0,,
,40.605382,,1024,-75.460074,,,1440,,Hamilton at 2nd EB,0,,
,40.609033,,6934,-75.470177,,,3000,,Gordon at 5th WB,0,,
,40.586579,,1076,-75.514831,,,1449,,Hamilton at College EB,0,,
,40.602436,,1020,-75.470768,,,1448,,Hamilton at Church,0,,
,40.875962,,5617,-75.214257,,,1350,,Garibaldi at Dewy,0,,
,40.612809,,4028,-75.356306,,,489,,Daly at Minsi Trail EB,0,,
,40.621358,,4246,-75.473242,,,488,,5th at New York SB,0,,
,40.621168,,4289,-75.473113,,,487,,5th at New York NB,0,,
,40.594874,,4203,-75.464266,,,486,,5th at Harrison,0,,
,40.616176,,4243,-75.473928,,,485,,Greenleaf at 5th WB,0,,
,40.622584,,4247,-75.473139,,,484,,5th at Florida SB,0,,
,40.622274,,4290,-75.473031,,,483,,5th at Florida NB,0,,
,40.611474,,4604,-75.354942,,,481,,4th at William EB,0,,
,40.61163,,4644,-75.354863,,,480,,4th at William WB,0,,
,40.612865,,6267,-75.378734,,,2720_merged_671162,,2nd at Northampton,0,,
,40.577682,,4381,-75.45451,,,199,,Emaus at 4th NB,0,,
,40.580736,,4741,-75.467033,,,198,,Dixon at Mack EB,0,,
,40.566093,,4010,-75.554135,,,194,,Hamilton at Brookside EB,0,,
,40.690518,,5762,-75.60873,,,197,,Rt 873 at Bellview,0,,
,40.582216,,4777,-75.521449,,,193,,Cedar Point East Exit,0,,
,40.616991,,4470,-75.515779,,,2543,,Walbert at Whitehall EB,0,,
,40.616837,,4409,-75.507753,,,2542,,Walbert at Columbia,0,,
,40.616062,,4477,-75.527741,,,2541,,Walbert at 28th EB,0,,
,40.616207,,4476,-75.525475,,,2540,,Walbert at 27th EB,0,,
,40.61713,,4412,-75.515257,,,2545,,Walbert at Whitehall WB,0,,
,40.615888,,4547,-75.530094,,,2544,,Walbert at Office Center,0,,
,40.6423037,,1474,-75.35117751,,,1104,,Easton at Lexington WB,0,,
,40.603222,,1279,-75.507411,,,2381,,Tilghman at 22nd EB,0,,
,40.615728,,4022,-75.462365,,,2380,,6th Ward WB,0,,
,40.591739,,1241,-75.589723,,,2385,,Tilghman at Blue Barn EB,0,,
,40.591964,,1246,-75.589835,,,2386,,Tilghman at Blue Barn WB,0,,
,40.590791,,1250,-75.566901,,,2389,,5100 Tilghman WB,0,,
,40.590771,,1253,-75.567655,,,2388,,5100 Tilghman EB,0,,
,40.595871,,6358,-75.494568,,,2768,,Hamilton at 18th EB,0,,
,40.574723,,1081,-75.533457,,,1452,,Hamilton at Lincoln,0,,
,40.600951,,6300,-75.471173,,,2763,,7th at Walnut,0,,
,40.569974,,6298,-75.481875,,,2762,,Lehigh at 24th NB,0,,
,40.610783,,6296,-75.463839,,,2761,,Gordon at 3rd EB,0,,
,40.610683,,6295,-75.463758,,,2760,,Gordon at 3rd WB,0,,
,40.55617815,,6357,-75.57635712,,,2767,,Commercial Center at Hamilton EB,0,,
,40.606368,,6354,-75.462741,,,2765,,Linden at Race,0,,
,40.606397,,6353,-75.462041,,,2764,,American at Linden,0,,
,40.654122,,5504,-75.377799,,,902,,Center at Macada,0,,
,40.740776,,5437,-75.309447,,,903,,Broad at Belvidere NB,0,,
,40.632341,,5499,-75.375188,,,900,,Center at Greenwich SB,0,,
,40.867056,,5579,-75.207671,,,1848,,Market at 2nd WB,0,,
,40.624895,,5493,-75.375209,,,906,,Center at Union,0,,
,40.634936,,5500,-75.375102,,,907,,Center at Washington SB,0,,
,40.623734,,5492,-75.375253,,,905,,Center at North,0,,
,40.639532,,4727,-75.448184,,,1842,,Marcon at Irving EB,0,,
,40.645111,,4794,-75.435286,,,1841,,1000 Postal EB,0,,
,40.866972,,5491,-75.207708,,,1847,,Market at 2nd EB,0,,
,40.867796,,5571,-75.218935,,,1846,,Market at 11th EB,0,,
,40.867733,,5483,-75.219475,,,1845,,Market at 11th WB,0,,
,40.638964,,4728,-75.451632,,,1844,,Marcon at Roble SB,0,,
,40.612488,,7463,-75.474194,,,3250,,Tilghman at 6th WB,0,,
,40.67105928,,6014,-75.60943082,,,2169,,Rt 309 at Spruce SB,0,,
,40.671159,,5964,-75.609352,,,2168,,Rt 309 at Spruce NB,0,,
,40.636759,,4825,-75.491712,,,2596_merged_671207,,Whitehall Square SB,0,,
,40.645931,,5972,-75.593296,,,2165,,Rt 309 at Shankweiler NB,0,,
,40.659652,,6016,-75.602118,,,2164,,Rt 309 at Ritters SB,0,,
,40.645736,,6021,-75.593317,,,2166,,Rt 309 at Shankweiler SB,0,,
,40.65762,,5968,-75.601001,,,2160,,Rt 309 at Pennsylvania NB,0,,
,40.659331,,5967,-75.601714,,,2163,,Rt 309 at Ritter NB,0,,
,40.681231,,1509,-75.251398,,,2616,,William Penn at 27th EB,0,,
,40.666833,,1506,-75.298129,,,2615,,William Penn at William Penn EB,0,,
,40.863006,,8003,-75.816069,,,3253,,Catawissa at Allen WB,0,,
,40.680964,,1497,-75.254265,,,2612,,William Penn at North WB,0,,
,40.678364,,1496,-75.259345,,,2611,,William Penn at Hartley WB,0,,
,40.666871,,1512,-75.304104,,,2610,,William Penn at Church,0,,
,40.6664749,,1494,-75.28988641,,,2619,,William Penn at Country Club,0,,
,40.66676007,,1447,-75.28311078,,,2618,,William Penn at Chipman WB,0,,
,40.79995,,8401,-75.664204,,,3298,,White at Forge,0,,
,40.797743,,8402,-75.665245,,,3299,,Bowmanstown St. Lukes SB,0,,
,40.713043,,5681,-75.286255,,,1908,,Dryland at Wegmans,0,,
,40.680357,,4984,-75.221225,,,1909,,Nesquehoning at Centre,0,,
,40.704172,,5446,-75.272455,,,1906,,Nazareth at Van Buren WB,0,,
,40.704019,,5445,-75.272539,,,1907,,Nazareth at Van Buren EB,0,,
,40.810051,,8317,-75.739071,,,3296,,Walmart,0,,
,40.814601,,8318,-75.732942,,,3297,,Carbon Plaza,0,,
,40.710741,,5536,-75.280658,,,1902,,3701 Nazareth Road NB,0,,
,40.828278,,8312,-75.721231,,,3291,,9th at Alum NB,0,,
,40.710557,,5537,-75.280821,,,1900,,3701 Nazareth Road SB,0,,
,40.711234,,5535,-75.281571,,,1901,,3756 Nazareth Road,0,,
,40.640368,,5214,-75.412429,,,854,,Catasauqua at Kelchner EB,0,,
,40.640821,,5220,-75.430456,,,855,,Catasauqua at Valley Plaza Entrance NB,0,,
,40.642078,,5217,-75.419717,,,856,,Catasauqua at Woodmont,0,,
,40.704039,,5405,-75.207671,,,857,,Cattell at Burke NB,0,,
,40.640108,,5221,-75.432942,,,850,,Catasauqua at Airport,0,,
,40.642417,,5218,-75.423777,,,851,,Catasauqua at Aster EB,0,,
,40.641007,,5215,-75.415235,,,852,,Catasauqua at Dahlia,0,,
,40.641561,,5216,-75.417561,,,853,,Catasauqua at Allwood EB,0,,
,40.698833,,4931,-75.205164,,,859,,Cattell at Clinton SB,0,,
,40.823329,,8314,-75.720576,,,3293,,St Lukes Emergicenter NB,0,,
,40.738483,,1182,-75.309386,,,740,,Broad at Prospect NB,0,,
,40.621968,,1169,-75.363989,,,743,,Broad at Wood EB,0,,
,40.622139,,1170,-75.363662,,,744,,Broad at Wood WB,0,,
,40.840509,,5468,-75.295229,,,747,,Broadway at 2nd NB,0,,
,40.840823,,5553,-75.295226,,,748,,Broadway at 2nd SB,0,,
,40.584864,,5918,-75.534349,,,749,,Broadway at 37th EB,0,,
,40.576604,,6997,-75.537194,,,3063,,Dorney Park at Lincoln EB,0,,
,40.588227,,6994,-75.557198,,,3060,,Broadway at Cetronia,0,,
,40.60881629,,7001,-75.3166467,,,3067,,3419 Commerce,0,,
,40.611814,,7000,-75.309755,,,3066,,3967 Commerce Center,0,,
,40.789807,,6999,-75.282711,,,3065,,Sullivan Trail at Frable NB,0,,
,40.789675,,6998,-75.282802,,,3064,,Sullivan Trail at Frable SB,0,,
,40.753446,,7003,-75.227097,,,3069,,East Braden and Uhler SB,0,,
,40.745281,,7002,-75.227505,,,3068,,4200 East Braden,0,,
,40.665071,,3211,-75.387268,,,2943,,Stoke Park at Wegmans SB,0,,
,40.66073,,3210,-75.38941,,,2942,,330 Stoke Park EB,0,,
,40.660795,,3209,-75.390115,,,2941,,330 Stoke Park WB,0,,
,40.659849,,3208,-75.397323,,,2940,,Stoke Park at Jacksonville EB,0,,
,40.646131,,5071,-75.349517,,,1051,,East at Lewis NB,0,,
,40.661891,,5060,-75.349598,,,1052,,East at Chester NB,0,,
,40.644031,,5082,-75.348625,,,1053,,East at Easton NB,0,,
,40.644124,,5081,-75.348934,,,1054,,East at Easton SB,0,,
,40.662174,,5059,-75.349831,,,1055,,East at Chester SB,0,,
,40.656157,,5066,-75.349023,,,1056,,East at Hasting,0,,
,40.657633,,5064,-75.349161,,,1058,,East at Johnston NB,0,,
,40.657988,,5063,-75.349439,,,1059,,East at Johnston SB,0,,
,40.634606,,6157,-75.491892,,,2094_merged_671167,,Presidential at Cornerstone WB,0,,
,40.602717,,4110,-75.476001,,,1696,,Linden at 9th,0,,
,40.671215,,5100,-75.346761,,,1697,,Nazareth Pike at Christian Spring,0,,
,40.603223,,4109,-75.474154,,,1695,,Linden at 8th,0,,
,40.604671,,4104,-75.46883,,,1693,,Linden at 5th,0,,
,40.66259,,5927,-75.603914,,,1690,,Rt 309 at Elberta SB,0,,
,40.668126,,5880,-75.607132,,,1691,,Rt 309 at Sand Spring SB,0,,
,40.666011,,5101,-75.350038,,,1698,,Linden at Falcon NB,0,,
,40.666567,,5099,-75.349908,,,1699,,Linden at Falcon SB,0,,
,40.579269,,4898,-75.512344,,,1278,,Flexler at Andrea SB,0,,
,40.572946,,4902,-75.516246,,,1279,,Flexler at Catherine,0,,
,40.645616,,5048,-75.315064,,,1270,,Freemansburg at Washington EB,0,,
,40.645696,,5047,-75.315275,,,1271,,Freemansburg at Washington WB,0,,
,40.579301,,4847,-75.512157,,,1277,,Flexler at Andrea NB,0,,
,40.831799,,8116,-75.880971,,,3333,,Bertsch at Walnut WB,0,,
,40.602371,,5123,-75.396844,,,3119,,Delaware at Bergen NB,0,,
,40.60159,,5121,-75.39752,,,3118,,Lynn at Delaware,0,,
,40.623198,,5017,-75.335126,,,3117,,Main at Freemansburg Bridge NB,0,,
,40.626203,,5013,-75.335027,,,3116,,Main at Monroe NB,0,,
,40.629211,,5012,-75.335238,,,3115,,Main at Washington NB,0,,
,40.62955,,5011,-75.338682,,,3114,,Washington at Chestnut WB,0,,
,40.629732,,5010,-75.341853,,,3113,,Washington at Freemansburg WB,0,,
,40.610286,,4586,-75.383051,,,3112,,4th at Broadway EB,0,,
,40.610306,,4585,-75.384445,,,3111,,4th at Wyandotte WB,0,,
,40.610216,,4582,-75.384796,,,3110,,4th at Wyandotte EB,0,,
,40.5675627,,4005,-75.55087031,,,1473,,Hamilton at Schantz WB,0,,
,40.560465,,4003,-75.567906,,,1470,,Hamilton at Krocks WB,0,,
,40.567496,,4008,-75.550708,,,1471,,Hamilton at Schantz EB,0,,
,40.609604,,1112,-75.448611,,,1476,,Hanover at Carlisle WB,0,,
,40.614021,,1091,-75.446548,,,1477,,Hanover at Fenwick EB,0,,
,40.594728,,1067,-75.498643,,,1474,,Hamilton at 20th EB,0,,
,40.60912029,,1089,-75.4486135,,,1475,,Hanover at Carlisle EB,0,,
,40.83596,,8120,-75.865829,,,3337,,Lansford Townhouses EB,0,,
,40.620449,,1114,-75.429334,,,1478,,Hanover at Quebec EB,0,,
,40.614229,,1111,-75.446565,,,1479,,Hanover at Fenwick WB,0,,
,40.834595,,8119,-75.871963,,,3336,,Patterson at Pardee WB,0,,
,40.66715,,5372,-75.306865,,,1304,,Farmersville at Easton SB,0,,
,40.67076,,5371,-75.307241,,,1305,,Farmersville at King Charles SB,0,,
,40.674389,,5370,-75.307799,,,1306,,Farmersville at Rexford,0,,
,40.678331,,5339,-75.205381,,,1300,,Charles at Bird NB,0,,
,40.681884,,5277,-75.205884,,,1301,,Charles at Nesquehoning NB,0,,
,40.680997,,5340,-75.205756,,,1303,,Charles at Wilkes Barre NB,0,,
,40.83252,,8117,-75.876091,,,3334,,Lansford Midrise,0,,
,40.612311,,1339,-75.474237,,,498,,6th at Tilghman,0,,
,40.86841,,8014,-75.791086,,,3263,,St Lukes WB,0,,
,40.609677,,1341,-75.472979,,,495,,6th at Liberty,0,,
,40.609968,,4030,-75.349202,,,496,,6th at Lynn,0,,
,40.608297,,1333,-75.472324,,,492,,6th at Gordon,0,,
,40.615512,,1337,-75.475763,,,493,,6th at Greenleaf,0,,
,40.64363611,,1475,-75.3481218,,,24,,Easton at East WB,0,,
,40.697271,,4351,-75.500876,,,25,,Held at Cherryville NB,0,,
,40.654319,,4261,-75.475696,,,26,,Pine at Front SB,0,,
,40.634427,,4120,-75.483843,,,27,,Whitehall Mall,0,,
,40.601164,,5140,-75.397076,,,20,,Lynn at Broadway,0,,
,40.663523,,4958,-75.268127,,,21,,Freemansburg at Stones Crossing WB,0,,
,40.665994,,5374,-75.295932,,,22,,Emrick at William Penn SB,0,,
,40.674948,,4915,-75.324068,,,23,,Green Pond at NCC WB,0,,
,40.631277,,1003,-75.47857573,,,28,,LVM - Lehigh Valley Mall Transit Center,0,,
,40.580143,,6232,-75.480891,,,29,,Jefferson at Lehigh SB,0,,
,40.644586,,6034,-75.489017,,,130_merged_671185,,Royal at Sackett,0,,
,40.868343,,8013,-75.790685,,,3262,,Dollar General EB,0,,
,40.551205,,5756,-75.607187,,,3182,,Trexlertown Rd at Railroad St SB,0,,
,40.654796,,4954,-75.284461,,,1241,,Freemansburg at Hope WB,0,,
,40.544603,,4195,-75.492347,,,1516,,Harrison at Wenner NB,0,,
,40.642017,,4255,-75.484301,,,1875,,MacArthur at Wolf SB,0,,
,40.643262,,5096,-75.345727,,,2280,,Stefko at Glenwood NB,0,,
,40.638301,,5092,-75.348711,,,2281,,Stefko at Gresham NB,0,,
,40.638751,,5112,-75.348727,,,2282,,Stefko at Gresham SB,0,,
,40.639768,,5093,-75.347839,,,2283,,Stefko at Irene,0,,
,40.631147,,5086,-75.355544,,,2286,,Stefko at Radclyffe NB,0,,
,40.686609,,5347,-75.227741,,,2578,,Washington at 13th,0,,
,40.686517,,5348,-75.229701,,,2579,,Washington at 14th,0,,
,40.612424,,4804,-75.480991,,,2576,,Washington at 9th WB,0,,
,40.612315,,4853,-75.480965,,,2577,,Washington at 9th EB,0,,
,40.611114,,4855,-75.485329,,,2574,,Washington at 11th EB,0,,
,40.610788,,4807,-75.486951,,,2575,,Washington at 12th WB,0,,
,40.611657,,4854,-75.483374,,,2572,,Washingtonat 10th EB,0,,
,40.611305,,4806,-75.485073,,,2573,,Washington at 11th WB,0,,
,40.686933,,4989,-75.221024,,,2570,,Washington at 9th,0,,
,40.611834,,4805,-75.483144,,,2571,,Washingotn at 10th WB,0,,
,40.600619,,1224,-75.516842,,,2378,,Tilghman at Ott EB,0,,
,40.615529,,4018,-75.462622,,,2379,,6th Ward EB,0,,
,40.616145,,4019,-75.460345,,,2374,,Tilghman at Front EB,0,,
,40.616198,,4023,-75.460656,,,2375,,Tilghman at Front WB,0,,
,40.613813,,4017,-75.46891,,,2376,,Tilghman at Jordan EB,0,,
,40.613998,,4020,-75.468785,,,2377,,Tilghman at Jordan WB,0,,
,40.602648,,1227,-75.509489,,,2370,,Tilghman at 23rd EB,0,,
,40.602066,,1226,-75.511603,,,2371,,Tilghman at 24th EB,0,,
,40.601485,,1225,-75.513695,,,2372,,Tilghman at 25th EB,0,,
,40.615207,,4021,-75.464283,,,2373,,Tilghman at 2nd,0,,
,40.675303,,5332,-75.212155,,,2597,,Williams at Davis EB,0,,
,40.610953,,1323,-75.534475,,,2599,,Winchester at Cedar Crest,0,,
,40.643205,,4301,-75.483571,,,1876,,Mickley at Schadt NB,0,,
,40.643039,,4256,-75.483792,,,1877,,Mickley at Schadt SB,0,,
,40.641926,,4300,-75.484191,,,1874,,MacArthur at Wolf NB,0,,
,40.639134,,1417,-75.358558,,,1084,,Easton at Carlisle EB,0,,
,40.641107,,4254,-75.485132,,,1872,,Mickley at Mickley SB,0,,
,40.640757,,4299,-75.485279,,,1873,,Mickley at Mickley NB,0,,
,40.621164,,4822,-75.483375,,,1870,,Jordan at Mickley,0,,
,40.637483,,4298,-75.485701,,,1878,,MacArthur at American NB,0,,
,40.589401,,5832,-75.615519,,,1879,,Mill at Ambassador NB,0,,
,40.67099716,,4069,-75.49794518,,,976,,Chestnut at 7th WB - Coplay,0,,
,40.67232102,,4071,-75.49599181,,,974,,Chestnut at 5th WB - Coplay,0,,
,40.673757,,4073,-75.493863,,,972,,Chestnut at 3rd WB - Coplay,0,,
,40.705894,,4065,-75.620706,,,971,,Rt 873 at Oakwood EB,0,,
,40.6683681,,4066,-75.50184797,,,970,,Chestnut at 11th WB - Coplay,0,,
,40.528361,,1392,-75.507081,,,979,,Chestnut at Cedar Crest,0,,
,40.66964941,,4067,-75.49992467,,,978,,Chestnut at 9th WB - Coplay,0,,
,40.59289,,4150,-75.465555,,,182,,6th at St John,0,,
,40.659312,,6108,-75.443496,,,2119,,Race at Fashion EB,0,,
,40.66728,,6039,-75.503418,,,186,,Ruch at Chestnut,0,,
,40.583741,,5916,-75.538452,,,187,,Broadway at 39th EB,0,,
,40.658654,,6048,-75.487449,,,185,,Lehigh at 2nd EB,0,,
,40.6534229,,6125,-75.45719081,,,2112,,Race at 14th,0,,
,40.653661,,6106,-75.456204,,,2113,,Race at 15th NB,0,,
,40.65389917,,6126,-75.4559024,,,2114,,Race at 15th SB,0,,
,40.660829,,6109,-75.438573,,,2116,,1701 Race,0,,
,40.66710734,,1493,-75.29522614,,,2622,,William Penn at Emrick WB,0,,
,40.67215862,,1458,-75.26697137,,,2623,,William Penn at Filbar EB,0,,
,40.669528,,1454,-75.272441,,,2620,,William Penn at Edamy EB,0,,
,40.669758,,1455,-75.272069,,,2621,,William Penn at Edamy WB,0,,
,40.667668,,1450,-75.277818,,,2627,,William Penn at Bethman EB,0,,
,40.672643,,1459,-75.266622,,,2624,,William Penn at Filbar WB,0,,
,40.668237,,1451,-75.276542,,,2628,,William Penn at Bethman WB,0,,
,40.66632414,,1443,-75.28854609,,,2629,,William Penn at Hope EB,0,,
,40.611866,,5163,-75.378463,,,1919,,New at 3rd,0,,
,40.570409,,5815,-75.631908,,,1918,,Nestle at T478,0,,
,40.832687,,8310,-75.718401,,,3289,,Mahoning at 7th WB,0,,
,40.832473,,8309,-75.718689,,,3288,,Mahoning at 7th EB,0,,
,40.572927,,5769,-75.643256,,,1911,,700 Nestle Way EB,0,,
,40.681555,,5278,-75.210301,,,1910,,Nesquehoning at St John,0,,
,40.572638,,5770,-75.646368,,,1913,,861 Nestle Way EB,0,,
,40.573077,,5816,-75.643281,,,1912,,700 Nestle Way WB,0,,
,40.572703,,5768,-75.632973,,,1915,,405 Nestle Way SB,0,,
,40.571592,,5817,-75.649693,,,1914,,861 Nestle Way WB,0,,
,40.567341,,5767,-75.631801,,,1917,,Nestle at Oldt,0,,
,40.830052,,8301,-75.701986,,,3280,,Weissport Park WB,0,,
,40.701625,,5402,-75.206442,,,868,,Cattell at Parsons,0,,
,40.586359,,5854,-75.613692,,,189,,Windsor at Tilghman NB,0,,
,40.700637,,4933,-75.206092,,,861,,Cattell at High SB,0,,
,40.700679,,5401,-75.205959,,,860,,Cattell at High NB,0,,
,40.705017,,5406,-75.208023,,,863,,Cattell at Lafayette,0,,
,40.699694,,4932,-75.205609,,,865,,Cattell at March SB,0,,
,40.699572,,5400,-75.205383,,,864,,Cattell at March NB,0,,
,40.702454,,4935,-75.207063,,,867,,Cattell at Monroe SB,0,,
,40.702316,,5403,-75.206794,,,866,,Cattell at Monroe NB,0,,
,40.627247,,5154,-75.364366,,,2024,,Pembroke at Wood EB,0,,
,40.579091,,5784,-75.613776,,,2025,,7346 Penn,0,,
,40.628316,,5152,-75.361192,,,2020,,Pembroke at Minsi Trail EB,0,,
,40.628482,,5639,-75.360973,,,2021,,Pembroke at Minsi Trail WB,0,,
,40.627135,,5641,-75.365048,,,2022,,Pembroke at Wood WB,0,,
,40.626342,,5155,-75.366933,,,2023,,Pembroke at Elm EB,0,,
,40.675215,,6925,-75.209481,,,2828,,St John at Palmer SB,0,,
,40.566358,,5828,-75.611812,,,2028,,Industrial at Rt 100,0,,
,40.578591,,5785,-75.617365,,,2029,,Penn at Keebler,0,,
,40.611193,,6293,-75.462351,,,2758,,Gordon at 2nd WB,0,,
,40.613546,,6294,-75.459004,,,2759,,Front at Liberty NB,0,,
,40.570275,,4024,-75.518991,,,883,,Cedar Crest at Columbus NB,0,,
,40.569941,,4025,-75.519271,,,882,,Cedar Crest at Columbus SB,0,,
,40.582014,,1322,-75.521269,,,881,,Cedar Point East Entrance,0,,
,40.599213,,1319,-75.528467,,,880,,Cedar Crest at Washington SB,0,,
,40.644919,,5502,-75.376472,,,886,,Center at Moreland SB,0,,
,40.565821,,4778,-75.515885,,,884,,1255 Professional Park NB,0,,
,40.742557,,5434,-75.318124,,,889,,Center at Forest WB,0,,
,40.650633,,5503,-75.377295,,,888,,Center at Bridle Path SB,0,,
,40.676091,,6336,-75.209621,,,2824,,St John at Rock SB,0,,
,40.633914,,6379,-75.352324,,,2825,,Stefko at Hilton SB,0,,
,40.837807,,5467,-75.296531,,,775,,Broadway at Male,0,,
,40.586315,,5909,-75.550469,,,777,,Broadway at Parkway,0,,
,40.585901,,5864,-75.548673,,,771,,Broadway at Chew WB,0,,
,40.585793,,5910,-75.548843,,,770,,Broadway at Chew EB,0,,
,40.715209,,5440,-75.282111,,,76,,Northampton Crossings - Walmart,0,,
,40.665431,,5259,-75.295237,,,75,,Emrick at William Penn NB,0,,
,40.673308,,5269,-75.211102,,,74,,Easton Food Market,0,,
,40.696339,,1004,-75.258976,,,73,,Palmer Park Mall,0,,
,40.68856,,5232,-75.254018,,,72,,25th St Shopping Center,0,,
,40.728777,,6992,-75.276033,,,3058,,Van Buren at Hollo NB,0,,
,40.588786,,6993,-75.559608,,,3059,,Broadway at Tilghman,0,,
,40.732988,,3232,-75.616944,,,2972,,Rt 873 at Star NB,0,,
,40.593988,,3233,-75.486189,,,2973,,15th at Fairview NB,0,,
,40.723172,,3240,-75.225801,,,2970,,Sullivan Trail at Meco SB,0,,
,40.726349,,6989,-75.228211,,,3055,,Sullivan Trail at Kesslerville SB,0,,
,40.55258,,6986,-75.631347,,,3052,,Fed Ex Willard,0,,
,40.556557,,6987,-75.634123,,,3053,,Willard at Industrial,0,,
,40.686741,,6240,-75.235231,,,79,,17th at Lehigh,0,,
,40.584785,,6985,-75.625719,,,3051,,Tilghman at 100 WB,0,,
,40.580584,,4744,-75.459468,,,1042,,Dixon at Church EB,0,,
,40.580672,,4743,-75.463639,,,1041,,Dixon at 7th EB,0,,
,40.580774,,4693,-75.462965,,,1040,,Dixon at 7th WB,0,,
,40.659782,,5062,-75.349503,,,1049,,East at Barrett NB,0,,
,40.613945,,1338,-75.475481,,,501_merged_671203,,Washington at 6th,0,,
,40.601001,,4113,-75.482239,,,1681,,Linden at 12th,0,,
,40.601533,,4112,-75.480279,,,1680,,Linden at 11th,0,,
,40.599819,,4115,-75.48654,,,1683,,Linden at 14th,0,,
,40.600317,,4114,-75.484645,,,1682,,Linden at 13th,0,,
,40.70604226,,5883,-75.62060827,,,1687,,Rt 873 at Oakwood WB,0,,
,40.720307,,5929,-75.62119,,,1686,,Rt 873 at Oak NB,0,,
,40.73252077,,5881,-75.617395,,,1689,,Rt 873 at Star SB,0,,
,40.665877,,4961,-75.263759,,,1269,,Freemansburg at Whitney,0,,
,40.594678,,4543,-75.415225,,,669,,Susquehanna at Center WB,0,,
,40.662203,,4957,-75.270284,,,1263,,Freemansburg at Sheridan,0,,
,40.551466,,3749,-75.421989,,,2987,,3773 Corporate Parkway NB,0,,
,40.601198,,4535,-75.396843,,,665,,Broadway at Lynn WB,0,,
,40.684108,,5353,-75.237483,,,1260,,Freemansburg at Ridge WB,0,,
,40.597619,,4542,-75.407341,,,663,,Broadway at Kids Peace WB,0,,
,40.649504,,5053,-75.298722,,,1265,,Freemansburg at Wagner WB,0,,
,40.649215,,5052,-75.299319,,,1264,,Freemansburg at Wagner EB,0,,
,40.542552,,4223,-75.494419,,,1507,,Harrison at Keystone SB,0,,
,40.833897,,8307,-75.713608,,,3286,,Mahoning at 5th EB,0,,
,40.736071,,6462,-75.263906,,,3095,,Commerce at McFadden EB,0,,
,40.833944,,8306,-75.714123,,,3285,,Mahoning at 5th WB,0,,
,40.673674,,5257,-75.227953,,,3128,,Packer at Williams SB,0,,
,40.673269,,5325,-75.223291,,,3129,,Line at Iron EB,0,,
,40.607635,,5134,-75.391875,,,3122,,Delaware at Fiot NB,0,,
,40.606497,,5137,-75.392955,,,3123,,Delaware at Bishopthorpe NB,0,,
,40.603374,,5126,-75.395898,,,3120,,Delaware at Hoffert NB,0,,
,40.605135,,5128,-75.394243,,,3121,,Delaware at Clewell NB,0,,
,40.686825,,5233,-75.25201,,,3126,,25th at Northampton NB,0,,
,40.677737,,5256,-75.228389,,,3127,,Berwick at Packer WB,0,,
,40.610392,,5139,-75.389414,,,3124,,Delaware at Dakotah NB,0,,
,40.678139,,5207,-75.223978,,,3125,,Berwick at Iron WB,0,,
,40.56023,,4000,-75.567876,,,1468,,Hamilton at Krocks EB,0,,
,40.557851,,4004,-75.574627,,,1465,,Hamilton at Grange WB,0,,
,40.557934,,4001,-75.573615,,,1464,,Hamilton at Grange EB,0,,
,40.56894,,4009,-75.547661,,,1467,,Hamilton at Kressler WB,0,,
,40.568916,,4006,-75.547285,,,1466,,Hamilton at Kressler EB,0,,
,40.576161,,1085,-75.530105,,,1463,,Hamilton at Dorney Park EB,0,,
,40.676232,,5282,-75.211975,,,1019,,Davis at Old Philadelphia NB,0,,
,40.66523583,,6045,-75.48852778,,,1316,,Front at Center SB,0,,
,40.615066,,4767,-75.459808,,,1312,,Front at Allen SB,0,,
,40.614751,,4718,-75.459518,,,1311,,Front at Allen NB,0,,
,40.878792,,8213,-75.729022,,,3276,,North at 9th NB,0,,
,40.612328,,4769,-75.458633,,,1318,,Front at Gordon,0,,
,40.604256,,1012,-75.470327,,,3169_merged_671186,,ATC - Platform C,0,,
,40.661581,,5412,-75.382036,,,1010,,Bath Pike at Park NB,0,,
,40.602982,,5984,-75.507035,,,318,,22nd at Tilghman,0,,
,40.686673,,4927,-75.244825,,,313,,22nd at Lehigh,0,,
,40.600721,,6032,-75.506063,,,312,,22nd at Liberty SB,0,,
,40.600566,,5982,-75.505868,,,311,,22nd at Liberty NB,0,,
,40.636231,,4090,-75.500037,,,310,,Madison at Hoover,0,,
,40.715331,,4091,-75.21994,,,317,,Sullivan Trail at Forks City Hall NB,0,,
,40.688709,,5396,-75.244867,,,315,,22nd at Northampton,0,,
,40.620677,,4715,-75.463075,,,1334,,Fullerton at Cherry,0,,
,40.610847,,4595,-75.366531,,,441,,4th at Hayes WB,0,,
,40.634288,,6169,-75.489612,,,2099_merged_671168,,Presidential at Mickley EB,0,,
,40.591454,,4502,-75.442728,,,2322,,Susquehanna at Ellsworth WB,0,,
,40.617917,,5161,-75.379965,,,1921_merged_671169,,New at Church,0,,
,40.572265,,5818,-75.632421,,,2751,,405 Nestle Way NB,0,,
,40.616396,,4766,-75.460377,,,1330,,Front at Tilghman SB,0,,
,40.643206,,5211,-75.406522,,,2654_merged_671184,,Westgate at LVHN EB,0,,
,40.640943,,5113,-75.347401,,,2293,,Stefko at Stanhope SB,0,,
,40.641121,,5094,-75.347016,,,2292,,Stefko at Stanhope NB,0,,
,40.631525,,5107,-75.355371,,,2291,,Stefko at Radclyffe SB,0,,
,40.629391,,5085,-75.357759,,,2297,,Stefko at Washington NB,0,,
,40.629739,,5106,-75.357662,,,2296,,Stefko at Washington SB,0,,
,40.631954,,5087,-75.354514,,,2294,,Stefko at Walters NB,0,,
,40.686688,,4992,-75.226249,,,2569,,Washington at 12th,0,,
,40.686801,,4991,-75.223916,,,2568,,Washington at 11th,0,,
,40.626544,,4620,-75.417989,,,3189_merged_671187,,Union at Easton EB,0,,
,40.689181,,5345,-75.217035,,,2560,,Walnut at Ferry SB,0,,
,40.690775,,5387,-75.214643,,,2562,,Walnut at 6th WB,0,,
,40.603441,,1228,-75.507062,,,2369,,Tilghman at 22nd WB,0,,
,40.603987,,1234,-75.505073,,,2368,,Tilghman at 21st WB,0,,
,40.603762,,1229,-75.505452,,,2367,,Tilghman at 21st EB,0,,
,40.604556,,1235,-75.503024,,,2366,,Tilghman at 20th WB,0,,
,40.604385,,1230,-75.503194,,,2365,,Tilghman at 20th EB,0,,
,40.605276,,1236,-75.500423,,,2364,,Tilghman at 19th WB,0,,
,40.605716,,1237,-75.498786,,,2362,,Tilghman at 18th,0,,
,40.605159,,1232,-75.500388,,,2361,,Tilghman at 19th EB,0,,
,40.605951,,1233,-75.497496,,,2360,,Tilghman at 17th,0,,
,40.646821,,5986,-75.490886,,,2583,,Whitehall Shopping Center NB,0,,
,40.686356,,5350,-75.233238,,,2581,,Washington at 16th,0,,
,40.686434,,5349,-75.231542,,,2580,,Washington at 15th,0,,
,40.786812,,5484,-75.281289,,,1861,,Sullivan Trail at Oak Tree NB,0,,
,40.867565,,5573,-75.215355,,,1860,,Market at 8th WB,0,,
,40.727378,,5459,-75.266733,,,1867,,McFadden at Newlins Mill NB,0,,
,40.728857,,5544,-75.266928,,,1866,,14 McFadden,0,,
,40.637917,,4253,-75.485801,,,1869,,MacArthur at American SB,0,,
,40.67213893,,4081,-75.49607513,,,964,,Chestnut at 5th EB - Coplay,0,,
,40.67079821,,4079,-75.4980591,,,966,,Chestnut at 7th EB - Coplay,0,,
,40.605502,,1284,-75.477343,,,960,,Chew at 9th,0,,
,40.6682659,,4076,-75.50178867,,,961,,Chestnut at 11th EB - Coplay,0,,
,40.66943194,,4077,-75.50006203,,,968,,Chestnut at 9th EB - Coplay,0,,
,40.635291,,4873,-75.497377,,,2102,,Presidential at Peachtree,0,,
,40.609755,,4404,-75.503148,,,286,,19th at Livingston NB,0,,
,40.634589,,4872,-75.491816,,,2104,,Presidential at Cornerstone EB,0,,
,40.555284,,4172,-75.491539,,,30,,South Mall,0,,
,40.668693,,1452,-75.274763,,,2639,,William Penn at Sheridan EB,0,,
,40.68092054,,1508,-75.25394668,,,2634,,William Penn at North EB,0,,
,40.666476,,1442,-75.307521,,,2637,,Easton at Falmer,0,,
,40.676162,,1464,-75.262234,,,2631,,William Penn at Kingwood WB,0,,
,40.66644452,,1495,-75.28864904,,,2630,,William Penn at Hope WB,0,,
,40.666693,,1446,-75.283675,,,2633,,William Penn at Chipman EB,0,,
,40.678223,,1507,-75.259277,,,2632,,William Penn at Hartley EB,0,,
,40.644582,,5987,-75.495111,,,1868_merged_671179,,Macarthur at Sutler Parking Lot 2570,0,,
,40.871317,,5570,-75.232422,,,641,,Blue Valley at American Bangor WB,0,,
,40.678856,,5202,-75.215496,,,636,,Berwick at Seitz EB,0,,
,40.605893,,1316,-75.530344,,,878,,Cedar Crest Oxford NB,0,,
,40.602822,,1317,-75.529587,,,879,,Cedar Crest at Livingston SB,0,,
,40.601097,,1318,-75.529052,,,876,,Cedar Crest at Greenleaf SB,0,,
,40.604421,,1321,-75.530083,,,877,,Cedar Crest at Highland SB,0,,
,40.607749,,1320,-75.531065,,,874,,Cedar Crest at Edinburgh SB,0,,
,40.607921,,1315,-75.530941,,,875,,Cedar Crest at Edinburgh NB,0,,
,40.698681,,5399,-75.204932,,,872,,Cattell at Clinton NB,0,,
,40.613089,,1314,-75.533241,,,873,,Cedar Crest at Office Center,0,,
,40.703228,,5404,-75.207281,,,870,,Cattell at Pierce NB,0,,
,40.703345,,4936,-75.207485,,,871,,Cattell at Pierce SB,0,,
,40.595096,,4096,-75.487009,,,2037,,Union at 15th - Allentown,0,,
,40.565734,,6311,-75.515994,,,2740,,1255 Professional Park SB,0,,
,40.717019,,6355,-75.221362,,,2743,,Sullivan Trail at Park Plaza SB,0,,
,40.673305,,5302,-75.249496,,,1242,,Freemansburg at Keane EB,0,,
,40.580411,,6361,-75.524332,,,2745,,Haines Mill at Hamilton,0,,
,40.57701382,,6360,-75.52802874,,,2744,,Hamilton at Birch EB,0,,
,40.579579,,5783,-75.611153,,,2031,,Penn at William,0,,
,40.575926,,5786,-75.619457,,,2030,,Penn at Star,0,,
,40.666696,,1491,-75.306433,,,2748,,Easton at Farmersville WB 2,0,,
,40.567244,,4097,-75.516301,,,2038,,1245 Professional Park NB,0,,
,40.742543,,5528,-75.309878,,,891,,Center at Broad WB,0,,
,40.742563,,5435,-75.314286,,,893,,Center at Church WB,0,,
,40.640441,,5501,-75.375863,,,894,,Center at Dewberry SB,0,,
,40.631104,,5497,-75.375046,,,895,,Center at Elizabeth NB,0,,
,40.630949,,6168,-75.375221,,,896,,Center at Elizabeth SB,0,,
,40.627486,,5495,-75.375141,,,897,,Center at Fairview,0,,
,40.626368,,5494,-75.375164,,,898,,Center at Goepp,0,,
,40.632413,,5498,-75.375014,,,899,,Center at Greenwich NB,0,,
,40.671053,,5299,-75.253819,,,1246,,Freemansburg at Milford EB,0,,
,40.613258,,6370,-75.363051,,,2816_merged_671221,,Greenway WB,0,,
,40.671331,,4967,-75.253571,,,1247,,Freemansburg at Milford WB,0,,
,40.670196,,5305,-75.257067,,,1248,,Greenwood at Oregon,0,,
,40.633297,,4704,-75.481676,,,3236,,Grape at Whitehall Mall EB,0,,
,40.609628,,4544,-75.468205,,,1537,,4th at Gordon SB,0,,
,40.632605,,4748,-75.484299,,,3238,,Grape at MacArthur EB,0,,
,40.567359,,6206,-75.339817,,,1788,,Main at Polk Valley SB,0,,
,40.710867,,3234,-75.217886,,,2964,,Knox at Sullivan Trail SB,0,,
,40.848321,,5560,-75.291966,,,768,,Broadway at Center SB,0,,
,40.610747,,3236,-75.489352,,,2966,,Roth at Sumner NB,0,,
,40.68569,,3229,-75.516265,,,2961,,Main at Hillside WB,0,,
,40.689065,,3228,-75.507516,,,2960,,Coplay at Main,0,,
,40.68274,,3231,-75.526798,,,2963,,Main at Edna WB,0,,
,40.683963,,3230,-75.522345,,,2962,,Main at Spruce WB,0,,
,40.842802,,5471,-75.293697,,,762,,Broadway at 5th NB,0,,
,40.588008,,6195,-75.341092,,,1781,,Main at Clark SB,0,,
,40.588301,,5660,-75.340834,,,1782,,Main at Clark NB,0,,
,40.582023,,6199,-75.341144,,,1783,,Main at Depot SB,0,,
,40.610809,,3239,-75.490197,,,2969,,Roth at Sumner SB,0,,
,40.848151,,5473,-75.291829,,,767,,Broadway at Center NB,0,,
,40.844154,,5557,-75.293127,,,764,,Broadway at 6th,0,,
,40.682643,,5994,-75.526671,,,1787,,Main at Edna EB,0,,
,40.713537,,6983,-75.324093,,,3049,,Nazareth at Lonat SB,0,,
,40.713511,,6982,-75.323915,,,3048,,Nazareth at Lonat NB,0,,
,40.599468,,6975,-75.493693,,,3041,,17th at Turner SB,0,,
,40.600665,,6974,-75.494467,,,3040,,Chew at 17th EB,0,,
,40.585951,,6977,-75.459695,,,3043,,4th at Lexington NB,0,,
,40.697423,,6976,-75.505798,,,3042,,Held at 26th,0,,
,40.730871,,6979,-75.316163,,,3045,,Nazareth Plaza EB,0,,
,40.585643,,6978,-75.459711,,,3044,,4th at Lexington SB,0,,
,40.739486,,6980,-75.323412,,,3046,,Seip at Kohl WB,0,,
,40.63175536,,1410,-75.3686465,,,1079,,Easton at Beech EB,0,,
,40.697087,,4350,-75.501268,,,1535,,Held at Cherryville SB,0,,
,40.659233,,1432,-75.329956,,,1074,,Easton at 7th EB,0,,
,40.659105,,1483,-75.330335,,,1075,,Easton at 7th WB,0,,
,40.660144,,5061,-75.349758,,,1072,,East at Barrett SB,0,,
,40.662409,,1434,-75.324727,,,1073,,Easton at 10th EB,0,,
,40.647631,,5077,-75.349941,,,1071,,East at Spring Garden SB,0,,
,40.570746,,4852,-75.517732,,,1678,,Lincoln at Americus EB,0,,
,40.602047,,4111,-75.478444,,,1679,,Linden at 10th,0,,
,40.603126,,4398,-75.497425,,,1674,,Liberty at 18th WB,0,,
,40.602934,,4459,-75.497691,,,1675,,Liberty at 18th EB,0,,
,40.602575,,4399,-75.499434,,,1676,,Liberty at 19th,0,,
,40.570829,,4903,-75.517883,,,1677,,Lincoln at Americus WB,0,,
,40.603708,,4131,-75.495315,,,1672,,Liberty at 17th WB,0,,
,40.603494,,4458,-75.495647,,,1673,,Liberty at 17th EB,0,,
,40.657807,,1482,-75.331608,,,1094,,Easton at Hecktown WB,0,,
,40.64013511,,1471,-75.35623925,,,1095,,Easton at Henderson WB,0,,
,40.646861,,1424,-75.342362,,,1096,,Easton at High Point EB,0,,
,40.646559,,1477,-75.343002,,,1097,,Easton at High Point WB,0,,
,40.651093,,1500,-75.337446,,,1091,,Easton at 3050 Shopping Center SB,0,,
,40.662723,,1485,-75.324223,,,1092,,Easton at 10th WB,0,,
,40.657306,,1431,-75.331926,,,1093,,Easton at Hecktown EB,0,,
,40.609874,,4526,-75.383282,,,674,,Broadway at Montclair,0,,
,40.608951,,4529,-75.385101,,,675,,Broadway at Wyandotte SB,0,,
,40.631962,,1413,-75.368637,,,1098,,Easton at Beech WB,0,,
,40.598569,,4513,-75.404542,,,671,,Broadway at Roosevelt,0,,
,40.599795,,4537,-75.401117,,,673,,Broadway at Springer,0,,
,40.71281,,6468,-75.275804,,,3135,,Corriere at Palmer View EB,0,,
,40.712932,,6467,-75.275653,,,3134,,Corriere at Palmer View WB,0,,
,40.719408,,6470,-75.274492,,,3137,,Van Buren at Corriere SB,0,,
,40.719107,,6469,-75.274307,,,3136,,Van Buren at Corriere NB,0,,
,40.681096,,5357,-75.329467,,,3131,,Hecktown at Brodhead NB,0,,
,40.674505,,5354,-75.327917,,,3130,,Green Pond at Hecktown EB,0,,
,40.713179,,6466,-75.280095,,,3133,,Corriere at Walmart WB,0,,
,40.681336,,5358,-75.329606,,,3132,,Hecktown at Brodhead SB,0,,
,40.727178,,6473,-75.280591,,,3139,,Hollo at Lulu EB,0,,
,40.726623,,6471,-75.269308,,,3138,,2345 Newlins Mill WB,0,,
,40.601641,,4534,-75.395478,,,645,,Broadway at Bergen WB,0,,
,40.600417,,1034,-75.478013,,,1418,,Hamilton at 10th,0,,
,40.600016,,1035,-75.479495,,,1419,,Hamilton at 11th,0,,
,40.684932,,5195,-75.262077,,,1414,,Greenwood at Northampton SB,0,,
,40.604116,,1026,-75.465204,,,1417,,Hamilton at 4th,0,,
,40.613635,,4768,-75.459198,,,1322,,Front at Liberty SB,0,,
,40.662067,,6046,-75.488277,,,1320,,Front at Iron SB,0,,
,40.666612,,6044,-75.488597,,,1325,,Front at North SB,0,,
,40.661053,,6047,-75.488192,,,1328,,Front at South SB,0,,
,40.616539,,4717,-75.460323,,,1329,,Front at Tilghman NB,0,,
,40.644582,,5987,-75.495111,,,1868_merged_671210,,MacArthur Towne Centre,0,,
,40.610956,,1340,-75.473591,,,2747_merged_671212,,Allen Street EB,0,,
,40.603993,,1012,-75.471547,,,3169_merged_671217,,ATC - Platform C,0,,
,40.658631,,4955,-75.276881,,,1256,,Freemansburg at Orchard WB,0,,
,40.658315,,5285,-75.277151,,,1254,,Freemansburg at Orchard EB,0,,
,40.66451,,5289,-75.266073,,,1255,,Freemansburg at Eichlin EB,0,,
,40.670644,,4966,-75.254979,,,1252,,Freemansburg at Oakwood,0,,
,40.666538,,5294,-75.262199,,,1250,,Freemansburg at Mine Lane EB,0,,
,40.666846,,4962,-75.26197,,,1251,,Freemansburg at Mine Lane WB,0,,
,40.683847,,5312,-75.237647,,,1259,,Freemansburg at Ridge EB,0,,
,40.599451,,6031,-75.505518,,,308,,22nd at Gordon SB,0,,
,40.674091,,4088,-75.345045,,,309,,3859 Nazareth Pike NB,0,,
,40.601864,,5983,-75.506595,,,300,,22nd at Allen NB,0,,
,40.602016,,6033,-75.506762,,,301,,22nd at Allen SB,0,,
,40.598132,,6030,-75.504905,,,302,,22nd at Chew,0,,
,40.687577,,4926,-75.244891,,,303,,22nd at Fairview SB,0,,
,40.686651,,5394,-75.244225,,,304,,Lehigh at 22nd,0,,
,40.687371,,5395,-75.244764,,,305,,22nd at Fairview NB,0,,
,40.688498,,4928,-75.244978,,,306,,22nd at Ferry,0,,
,40.599168,,5981,-75.505279,,,307,,22nd at Gordon NB,0,,
,40.610609,,1343,-75.475764,,,71_merged_671182,,Allen Street WB & SB,0,,
,40.838909,,8123,-75.860919,,,3340,,Andrewsville WB,0,,
,40.636103,,4875,-75.497926,,,70,,Madison at Peachtree,0,,
,40.675466,,6990,-75.245819,,,3056,,Freemansburg at 25th EB,0,,
,40.726061,,6988,-75.227811,,,3054,,Sullivan Trail at Kesslerville NB,0,,
,40.717545,,3241,-75.221506,,,2971,,Sullivan Trail at Park Plaza NB,0,,
,40.680622,,3244,-75.380061,,,2976,,Commerce at Commerce NB,0,,
,40.680896,,3245,-75.379925,,,2977,,Commerce at Commerce WB,0,,
,40.612945,,6260,-75.373091,,,2713_merged_671163,,Polk at 2nd NB,0,,
,40.676895,,3242,-75.382822,,,2974,,Commerce at Southland NB,0,,
,40.675593,,4972,-75.245911,,,78,,Freemansburg at 25th WB,0,,
,40.58555644,,1077,-75.5156151,,,1446,,Hamilton at Reading EB,0,,
,40.579496,,5827,-75.608243,,,114,,Olin at Penn,0,,
,40.557946,,3752,-75.411007,,,2990,,Center Valley at Promenade WB,0,,
,40.592904,,1242,-75.576909,,,2359,,Tilghman at Werley EB,0,,
,40.583894,,4893,-75.505333,,,2352,,Texas at 25th WB,0,,
,40.582329,,4896,-75.510426,,,2353,,Flexler at College SB,0,,
,40.583812,,4842,-75.504919,,,2351,,Texas at 25th EB,0,,
,40.583055,,4844,-75.508765,,,2356,,Texas at Ott EB,0,,
,40.583317,,4895,-75.508327,,,2357,,Texas at Ott WB,0,,
,40.558086,,3753,-75.409929,,,2991,,Center Valley at Promenade EB,0,,
,40.709328,,5442,-75.279149,,,1898,,Nazareth at Northwood,0,,
,40.706645,,5444,-75.275923,,,1894,,Nazareth at Kingston NB,0,,
,40.706524,,5443,-75.276088,,,1895,,Nazareth at Kingston SB,0,,
,40.689955,,5187,-75.256639,,,1896,,Nazareth at Lawnherst SB,0,,
,40.689784,,5231,-75.255969,,,1897,,Nazareth at Lawnherst NB,0,,
,40.691016,,5230,-75.257906,,,1890,,Nazareth at Kathryn NB,0,,
,40.699655,,5716,-75.266552,,,1891,,Nazareth at Crest,0,,
,40.692137,,5229,-75.259613,,,1893,,Nazareth at Jewel NB,0,,
,40.606011,,1283,-75.475507,,,959,,Chew at 8th,0,,
,40.731303,,5530,-75.306031,,,2137,,Rt 248 at Jandy SB,0,,
,40.703519,,5524,-75.329466,,,2134,,Rt 191 at Newburg SB,0,,
,40.703826,,5433,-75.329264,,,2133,,Rt 191 at Newburg NB,0,,
,40.600195,,1293,-75.496601,,,951,,Chew at 18th WB,0,,
,40.600921,,1292,-75.493974,,,950,,Chew at 17th WB,0,,
,40.599087,,1295,-75.500609,,,953,,Chew at 20th WB,0,,
,40.599665,,1294,-75.498516,,,952,,Chew at 19th WB,0,,
,40.598013,,1296,-75.504327,,,954,,Chew at 22nd WB,0,,
,40.731927,,5438,-75.306466,,,2138,,Rt 248 at Jandy NB,0,,
,40.720465,,5531,-75.292229,,,2139,,Rt 248 at Prologis NB,0,,
,40.654972,,1430,-75.333919,,,1102,,Easton at Kelchner,0,,
,40.613352,,6927,-75.346591,,,2993,,Spillman at Emery WB,0,,
,40.669039,,1453,-75.274305,,,2640,,William Penn at Sheridan WB,0,,
,40.666879,,1456,-75.295272,,,2641,,William Penn at Emrick EB,0,,
,40.670917,,1457,-75.269631,,,2642,,William Penn at Stones Crossing WB,0,,
,40.67608,,1463,-75.262,,,2643,,William Penn at Kingwood EB,0,,
,40.667007,,1492,-75.297751,,,2644,,William Penn at William Penn WB,0,,
,40.613309,,6928,-75.349472,,,2994,,Spillman at Lynn WB,0,,
,40.629476,,5024,-75.344295,,,2006,,Pembroke at Clearfield EB,0,,
,40.628814,,5015,-75.354692,,,2007,,Pembroke at Bethlehem EB,0,,
,40.615129,,1345,-75.477921,,,511_merged_671197,,Greenleaf EB,0,,
,40.678293,,6967,-75.220982,,,3033,,Centre at Berwick NB,0,,
,40.628949,,5016,-75.354436,,,2008,,Pembroke at Bethlehem WB,0,,
,40.601067,,4519,-75.396887,,,666,,Broadway at Lynn EB,0,,
,40.67409246,,4084,-75.49320152,,,919,,Chestnut at 2nd - Coplay,0,,
,40.648879,,5051,-75.30356,,,1261,,Freemansburg at Schweps,0,,
,40.58382,,3179,-75.623243,,,2911,,Windsor at Imperial SB,0,,
,40.592475,,3180,-75.44286,,,2912,,Cumberland at Ellsworth,0,,
,40.599361,,4515,-75.402114,,,664,,Broadway at Dodson EB,0,,
,40.588857,,3182,-75.61084,,,2914,,Snowdrift at Tilghman NB,0,,
,40.592691,,3183,-75.444849,,,2915,,Cumberland at Dauphin,0,,
,40.623796,,1146,-75.414125,,,719,,Broad at Cambridge WB,0,,
,40.623653,,1125,-75.413765,,,718,,Broad at Cambridge EB,0,,
,40.590249,,6193,-75.340222,,,1793,,Main at High SB,0,,
,40.565863,,3187,-75.557036,,,2919,,Hamilton Crossing East EB,0,,
,40.665721,,4272,-75.480958,,,1791,,Main at Green SB,0,,
,40.665474,,4315,-75.480846,,,1790,,Main at Green NB,0,,
,40.679599,,4324,-75.489805,,,1797,,Main at Laubach WB,0,,
,40.622466,,1136,-75.395148,,,712,,Rose Garden EB,0,,
,40.594338,,6190,-75.340359,,,1795,,Main at Kichline,0,,
,40.590644,,5662,-75.339898,,,1794,,Main at High NB,0,,
,40.602011,,4521,-75.394004,,,660,,Broadway at Hoffert EB,0,,
,40.697402,,4348,-75.499496,,,917,,Cherryville at Main EB,0,,
,40.648922,,5075,-75.350121,,,1069,,East at North SB,0,,
,40.650001,,5076,-75.350082,,,1068,,East at Lansdale NB,0,,
,40.650263,,5073,-75.350323,,,1061,,East at Lansdale SB,0,,
,40.648625,,5074,-75.349873,,,1060,,East at North NB,0,,
,40.646303,,5079,-75.349752,,,1063,,East at Lewis SB,0,,
,40.663909,,5057,-75.350889,,,1065,,East at Linden EB,0,,
,40.664123,,5058,-75.350933,,,1064,,East at Linden WB,0,,
,40.654754,,5067,-75.349063,,,1067,,East at Middle,0,,
,40.647424,,5068,-75.349692,,,1066,,East at Spring Garden NB,0,,
,40.589061,,1370,-75.473841,,,1667,,Wyoming at 10th EB,0,,
,40.589441,,1382,-75.473261,,,1666,,Lehigh at Wyoming,0,,
,40.590383,,1380,-75.468403,,,1665,,8th at Wyoming NB,0,,
,40.575891,,1365,-75.480898,,,1664,,Lehigh at Vultee SB,0,,
,40.575523,,1364,-75.480684,,,1663,,Lehigh at Vultee NB,0,,
,40.553142,,1357,-75.491385,,,1661,,Lehigh at Regent,0,,
,40.598047,,1356,-75.467801,,,1660,,Lehigh at MLK SB,0,,
,40.63772615,,1468,-75.36268545,,,1087,,Easton at Edgeboro WB,0,,
,40.644875,,1476,-75.345444,,,1086,,Easton at Stefko WB,0,,
,40.597205,,5794,-75.616324,,,593,,6950 Ambassador WB,0,,
,40.598817,,5836,-75.612676,,,592,,Ambassador at Hickory EB,0,,
,40.595894,,5793,-75.619711,,,595,,Ambassador at Mill,0,,
,40.599046,,5795,-75.612743,,,594,,Ambassador at Hickory WB,0,,
,40.643245,,1422,-75.348484,,,1081,,Easton at East EB,0,,
,40.649426,,4780,-75.429461,,,596,,Avenua A at Airport,0,,
,40.649608,,4782,-75.427531,,,599,,2315 Avenue A,0,,
,40.650654,,6131,-75.423504,,,598,,Avenue B at Avenue A,0,,
,40.666439,,1490,-75.309814,,,1089,,Easton at Farmersville WB,0,,
,40.660743,,1440,-75.328002,,,1088,,Easton at 9th EB,0,,
,40.712225,,6474,-75.28276,,,3140,,Corriere at Nazareth Pike EB,0,,
,40.694558,,6475,-75.263474,,,3141,,Old Nazareth at Seip NB,0,,
,40.694516,,6476,-75.263711,,,3142,,Seip at Old Nazareth EB,0,,
,40.693964,,6605,-75.331646,,,3143,,Butztown at Hecktown NB,0,,
,40.694078,,6606,-75.33178,,,3144,,Butztown at Hecktown SB,0,,
,40.696904,,6607,-75.332156,,,3145,,Butztown and Lower Naz Park NB,0,,
,40.696882,,6608,-75.332299,,,3146,,Butztown and Lower Naz Park SB,0,,
,40.722381,,6610,-75.290093,,,3147,,Prologis at BMW EB,0,,
,40.703995,,6611,-75.288447,,,3148,,Newburg at Northwood NB,0,,
,40.703806,,6612,-75.28811,,,3149,,Newburg at Northwood SB,0,,
,40.661541,,6655,-75.294278,,,2827,,2710 Emrick NB,0,,
,40.602811,,6306,-75.529402,,,2820,,Cedar Crest at Livingston NB,0,,
,40.604408,,6316,-75.529888,,,2821,,Cedar Crest at Highland NB,0,,
,40.599241,,6380,-75.528301,,,2822,,Cedar Crest at Washington NB,0,,
,40.687125,,4042,-75.231851,,,2823,,Lehigh at 15th,0,,
,40.622643,,1157,-75.395282,,,713,,Rose Garden WB,0,,
,40.679667,,5236,-75.261439,,,1408,,Greenwood at Hartley SB,0,,
,40.616011,,4286,-75.474101,,,1403,,Greenleaf at 5th EB,0,,
,40.616671,,4287,-75.471699,,,1402,,Greenleaf at 4th,0,,
,40.674566,,4914,-75.328121,,,1401,,Green Pond at Hecktown,0,,
,40.675014,,4916,-75.319502,,,1400,,Green Pond at Country Meadows WB,0,,
,40.681472,,5238,-75.261675,,,1407,,Greenwood at Charlotte,0,,
,40.569368,,5819,-75.621881,,,1406,,150 Boulder,0,,
,40.615665,,4242,-75.475787,,,1404,,Greenleaf at 6th,0,,
,40.626207,,4711,-75.468949,,,1339,,Fullerton at Kimmett NB,0,,
,40.620047,,4764,-75.462603,,,1338,,Fullerton at Jordan,0,,
,40.611045,,4599,-75.362752,,,443,,4th at Hill WB,0,,
,40.610738,,4594,-75.365868,,,442,,4th at Hayes EB,0,,
,40.624743,,4759,-75.467667,,,1337,,Fullerton at Fairmont SB,0,,
,40.662918,,4271,-75.481127,,,440,,4th at Grove SB,0,,
,40.611184,,4600,-75.359416,,,446,,4th at Hobart EB,0,,
,40.611298,,4601,-75.359557,,,445,,4th at Hobart WB,0,,
,40.610954,,4598,-75.362668,,,444,,4th at Hill EB,0,,
,40.866087,,8012,-75.803956,,,3261,,Catawissa at Oak WB,0,,
,40.562966,,6207,-75.340591,,,38,,Creekside Shopping Center,0,,
,40.622586,,1130,-75.403454,,,694,,Broad at 14th EB,0,,
,40.866007,,8011,-75.803768,,,3260,,Catawissa at Oak EB,0,,
,40.565124,,4779,-75.516714,,,33,,1251 Professional Park NB,0,,
,40.527096,,1405,-75.50841,,,31,,Weis Emmaus,0,,
,40.622761,,1151,-75.402962,,,695,,Broad at 14th WB,0,,
,40.63054507,,4375,-75.37111327,,,37,,Elizabeth at Madison WB,0,,
,40.686486,,5393,-75.242842,,,36,,21st at Lehigh NB,0,,
,40.713208,,4938,-75.221856,,,35,,Forks Plaza North,0,,
,40.566485,,1005,-75.520602,,,34,,LVHN Cedar Crest 1240 Building,0,,
,40.734731,,5461,-75.265639,,,3092,,McFadden at Carson SB,0,,
,40.654948,,5284,-75.283712,,,1240,,Freemansburg at Hope EB,0,,
,40.770274,,6063,-75.599129,,,3090,,Rt 145 at Valley Dr SB,0,,
,40.610181,,4528,-75.383054,,,642,,Broadway at 4th,0,,
,40.736182,,6463,-75.264053,,,3096,,Commerce at McFadden WB,0,,
,40.659438,,5286,-75.275087,,,1244,,Freemansburg at Kingview EB,0,,
,40.605205,,4531,-75.390052,,,647,,Broadway at Bishopthorpe SB,0,,
,40.601615,,4520,-75.395236,,,646,,Broadway at Bergen EB,0,,
,40.603583,,4532,-75.391604,,,649,,Broadway at Clewell SB,0,,
,40.604874,,4524,-75.390234,,,648,,Broadway at Bishopthorpe NB,0,,
,40.68879,,6359,-75.211023,,,3099,,4th at Spruce,0,,
,40.598455,,6189,-75.340781,,,1539,,Hellertown at Silvex,0,,
,40.609458,,6188,-75.339961,,,1538,,Hellertown at Shimersville SB,0,,
,40.616207,,4435,-75.527424,,,339,,Walbert at 28th WB,0,,
,40.86719,,8203,-75.733689,,,3266,,Jim Thorpe Market,0,,
,40.589883,,4837,-75.505601,,,331,,24th at Union,0,,
,40.584405,,4892,-75.503179,,,330,,24th at Texas,0,,
,40.677105,,3243,-75.38292,,,2975,,Commerce at Southland SB,0,,
,40.647917,,4303,-75.480652,,,2061,,Pine at 3rd NB - Whitehall,0,,
,40.66099,,6130,-75.438281,,,2118,,Race at Cascade WB,0,,
,40.591284,,4736,-75.468997,,,545,,8th at St John SB,0,,
,40.63723,,1415,-75.363025,,,1085,,Easton at Edgeboro EB,0,,
,40.883185,,5612,-75.218141,,,1353,,Garibaldi at Webster,0,,
,40.643512,,5166,-75.404967,,,2659_merged_671214,,Westgate Mall WB,0,,
,40.656138,,4264,-75.473508,,,2064,,Pine at 3rd SB - Catasauqua,0,,
,40.576291,,5765,-75.622611,,,2345,,Sycamore at Adrienne,0,,
,40.592828,,4569,-75.426606,,,2344,,Susquehanna at Vermont,0,,
,40.592701,,4566,-75.434042,,,2340,,Susquehanna at Tweed EB,0,,
,40.604896,,1027,-75.462416,,,1455,,Hamilton at American Parkway WB,0,,
,40.690663,,5186,-75.257769,,,1889,,Nazareth at Kathryn SB,0,,
,40.691579,,5185,-75.259227,,,1888,,Nazareth at Jewel SB,0,,
,40.609352,,5125,-75.390686,,,1887,,Mohican at Delaware,0,,
,40.591707,,5791,-75.617304,,,1885,,Mill at Daniels SB,0,,
,40.591729,,5833,-75.617077,,,1884,,Mill at Daniels NB,0,,
,40.593812,,5834,-75.618573,,,1883,,7150 Mill NB,0,,
,40.593575,,5792,-75.618692,,,1882,,7150 Mill SB,0,,
,40.595389,,5835,-75.619636,,,1881,,1100 Mill,0,,
,40.589835,,5790,-75.616029,,,1880,,Mill at Ambassador SB,0,,
,40.648743,,6091,-75.468444,,,2121,,Race at Front SB,0,,
,40.659575,,6128,-75.443096,,,2120,,Race at Fashion WB,0,,
,40.660787,,6129,-75.439606,,,2123,,1680 Race,0,,
,40.573103,,3997,-75.519458,,,3194,,Cedar Crest at Catherine NB,0,,
,40.65814827,,6127,-75.446324,,,2125,,Race at Willowbrook SB,0,,
,40.602041,,1290,-75.489959,,,948,,Chew at 15th,0,,
,40.72047944,,5814,-75.62117671,,,2126,,Rt 873 at Oak SB,0,,
,40.881353,,5610,-75.213785,,,2129,,Roseto at Jewel,0,,
,40.602626,,1289,-75.487784,,,947,,Chew at 14th,0,,
,40.604288,,1286,-75.481779,,,944,,Chew at 11th,0,,
,40.603771,,1287,-75.483621,,,945,,Chew at 12th,0,,
,40.604746,,1285,-75.480104,,,943,,Chew at 10th,0,,
,40.636759,,4825,-75.491712,,,2596_merged_671176,,Whitehall Square South,0,,
,40.592975,,1258,-75.545092,,,2410,,Tilghman at 40th WB,0,,
,40.641884,,5167,-75.408076,,,2658,,Westgate at Bathgate SB,0,,
,40.634671,,6157,-75.491518,,,2094_merged_671198,,Presidential at Cornerstone WB,0,,
,40.628744,,5027,-75.357647,,,2653,,Pembroke at Jennings WB,0,,
,40.685828,,5196,-75.250465,,,2650,,Wood at 25th EB,0,,
,40.641781,,5212,-75.407911,,,2657,,Westgate at Bathgate NB,0,,
,40.64017,,5213,-75.407269,,,2656,,Westgate at Catasauqua NB,0,,
,40.640261,,5168,-75.407467,,,2655,,Westgate at Catasauqua SB,0,,
,40.607064,,4453,-75.487937,,,133,,Allen at 13th EB,0,,
,40.609875,,4121,-75.478109,,,132,,Allen at 8th WB,0,,
,40.644025,,5988,-75.494853,,,131,,MacArthur at Sutler Parking Lot 2548,0,,
,40.622904,,5141,-75.394886,,,137,,8th at Broad NB,0,,
,40.606875,,1342,-75.471653,,,136,,6th at Chew,0,,
,40.588284,,4232,-75.479433,,,135,,Jefferson at Wyoming SB,0,,
,40.597627,,1032,-75.487913,,,134,,15th at Hamilton NB,0,,
,40.689259,,1184,-75.242761,,,139,,Northampton at 21st WB,0,,
,40.644677,,5097,-75.344871,,,138,,Stefko at Easton,0,,
,40.627844,,5640,-75.362976,,,2019,,Pembroke at Fernwood,0,,
,40.628984,,5018,-75.352092,,,2015,,Pembroke at Win EB,0,,
,40.629341,,5021,-75.348219,,,2014,,Pembroke at Roosevelt WB,0,,
,40.626317,,5642,-75.367331,,,2017,,Pembroke at Elm WB,0,,
,40.628625,,5014,-75.357812,,,2011,,Pembroke at Jennings EB,0,,
,40.629328,,5022,-75.346507,,,2010,,Pembroke at Garfield,0,,
,40.629224,,5020,-75.348339,,,2013,,Pembroke at Roosevelt EB,0,,
,40.629599,,5025,-75.344205,,,2012,,Pembroke at Clearfield WB,0,,
,40.641197,,4726,-75.450185,,,183,,Postal at Irving WB,0,,
,40.678039,,3171,-75.548854,,,2903,,Levans at Old Post SB,0,,
,40.654559,,3170,-75.599124,,,2902,,Levans at Rt 309 EB,0,,
,40.65449,,3169,-75.599673,,,2901,,Levans at Rt 309 WB,0,,
,40.664627,,3168,-75.564224,,,2900,,Levans at Mauch Chunk EB,0,,
,40.615629,,3175,-75.533833,,,2907,,Walbert at Cedar Crest WB,0,,
,40.622602,,1159,-75.392604,,,709,,Broad at 6th WB,0,,
,40.611542,,3173,-75.562235,,,2905,,Walbert at Ridgeview WB,0,,
,40.677965,,3172,-75.548751,,,2904,,Levans at Old Post NB,0,,
,40.622386,,1140,-75.389776,,,704,,Broad at 4th EB,0,,
,40.622559,,1161,-75.389791,,,705,,Broad at 4th WB,0,,
,40.59061174,,3176,-75.63125335,,,2908,,Lehigh Hills Plaza - Fogelsville,0,,
,40.622341,,1142,-75.386936,,,700,,West Broad Street EB,0,,
,40.622519,,1143,-75.387055,,,701,,West Broad Street WB,0,,
,40.839532,,5551,-75.299934,,,88,,Wind Gap Plaza,0,,
,40.678433,,5205,-75.220951,,,80,,Berwick at Centre WB,0,,
,40.680701,,5342,-75.220018,,,81,,Thomas Bright at Holt,0,,
,40.874302,,5569,-75.235211,,,86,,Bangor Plaza,0,,
,40.868725,,5566,-75.254759,,,87,,Pennsylvania at Robinson WB,0,,
,40.884444,,5611,-75.219185,,,85,,Garibaldi at North,0,,
,40.569773,,1367,-75.482244,,,1658,,Lehigh at 24th SB,0,,
,40.556591,,1359,-75.489211,,,1659,,Lehigh at 33rd SB,0,,
,40.571565,,1363,-75.481049,,,1652,,Lehigh at Downyflake NB,0,,
,40.571926,,1366,-75.481159,,,1653,,Lehigh at Downyflake SB,0,,
,40.551785,,1358,-75.491505,,,1650,,Lehigh at Bevin SB,0,,
,40.585491,,1375,-75.475427,,,1656,,Lehigh at Juniata NB,0,,
,40.5856,,1378,-75.475543,,,1657,,Lehigh at Juniata SB,0,,
,40.659832,,4268,-75.476927,,,411,,4th at Arch EB,0,,
,40.617468,,4947,-75.441934,,,3214,,Irving at Hanover SB,0,,
,40.609551,,4122,-75.479289,,,584,,Allen at 9th WB,0,,
,40.598972,,6971,-75.500594,,,3037,,Chew at 20th EB,0,,
,40.610386,,4995,-75.475866,,,582,,Allen at 7th,0,,
,40.609898,,4994,-75.477674,,,583,,Allen at 8th EB,0,,
,40.605528,,4129,-75.493974,,,580,,Allen at 16th,0,,
,40.604788,,4105,-75.496045,,,581,,17th at Allen NB,0,,
,40.698167,,5682,-75.265831,,,1984,,Old Nazareth at Swanson,0,,
,40.69601,,6616,-75.274978,,,3153,,Hecktown at Fischer WB,0,,
,40.695635,,6615,-75.278687,,,3152,,Hecktown at Phillips EB,0,,
,40.695929,,6614,-75.28069,,,3151,,LVHN Hecktown Oaks NB,0,,
,40.69684,,6613,-75.280765,,,3150,,LVHN Hecktown Oaks SB,0,,
,40.684147,,6620,-75.241149,,,3157,,Butler at 21st EB,0,,
,40.69458,,6619,-75.270663,,,3156,,Fischer at Eldridge WB,0,,
,40.694641,,6618,-75.270797,,,3155,,Fischer at Eldridge EB,0,,
,40.695881,,6617,-75.275219,,,3154,,Hecktown at Fischer EB,0,,
,40.652901,,3038,-75.496862,,,2837,,7th at Crescent NB,0,,
,40.655015,,3037,-75.497172,,,2836,,7th at Lehigh NB,0,,
,40.684786,,6622,-75.236822,,,3159,,Butler at 18th EB,0,,
,40.684385,,6621,-75.24049,,,3158,,Butler at 20th WB,0,,
,40.692005,,6769,-75.609432,,,2832,,Rt 873 at Unionville,0,,
,40.719575,,6527,-75.223278,,,2831,,Sullivan Trail at Rennselaer SB,0,,
,40.711738,,6166,-75.219998,,,1983,,Forks Plaza South,0,,
,40.592944,,1070,-75.504919,,,1436,,Hamilton at 23rd EB,0,,
,40.592555,,1071,-75.506603,,,1437,,Hamilton at 24th EB,0,,
,40.594294,,1068,-75.500223,,,1434,,Hamilton at 21st EB,0,,
,40.59358,,1069,-75.502786,,,1435,,Hamilton at 22nd EB,0,,
,40.59612,,1065,-75.494265,,,1432,,Hamilton at 18th WB,0,,
,40.595283,,1066,-75.496551,,,1433,,Hamilton at 19th EB,0,,
,40.59662851,,1064,-75.49184614,,,1430,,Hamilton at 17th EB,0,,
,40.596695,,1030,-75.492116,,,1431,,Hamilton at 17th WB,0,,
,40.719711,,5356,-75.223145,,,1981,,Sullivan Trail at Rennselaer NB,0,,
,40.591845,,1072,-75.50909,,,1438,,Hamilton at 25th EB,0,,
,40.583376,,4746,-75.457952,,,458,,4th at Montgomery NB,0,,
,40.880482,,5615,-75.215886,,,1349,,Garibaldi at Columbus,0,,
,40.580697,,4697,-75.459588,,,450,,Dixon at Church WB,0,,
,40.697617,,4152,-75.500093,,,451,,Cherryville at Main WB,0,,
,40.622177,,4713,-75.464679,,,1342,,Fullerton at Lincoln NB,0,,
,40.610971,,4550,-75.468858,,,453,,4th at Liberty SB,0,,
,40.625001,,4710,-75.467652,,,1344,,Fullerton at Fairmont NB,0,,
,40.60559,,4554,-75.466251,,,455,,4th at Linden SB,0,,
,40.612034,,4652,-75.350427,,,456,,4th at Lynn WB,0,,
,40.634622,,4700,-75.477614,,,1347,,Grape at Jordan WB,0,,
,40.617717,,3015,-75.478925,,,2895_merged_671204,,7th at Sumner Bridge NB,0,,
,40.584329,,5912,-75.544725,,,766,,Broadway at Cedarbrook EB,0,,
,40.600644,,4518,-75.398141,,,656,,Broadway at Green EB,0,,
,40.623469,,1120,-75.421873,,,1503,,Hanover at Wahneta WB,0,,
,40.606066,,4525,-75.388721,,,654,,Broadway at Fiot NB,0,,
,40.600777,,4536,-75.398141,,,655,,Broadway at Green WB,0,,
,40.546717,,4226,-75.490581,,,1506,,Harrison at Beechwood SB,0,,
,40.781657,,6061,-75.6037,,,3088,,Rt 145 at Rt 248 SB,0,,
,40.603547,,4523,-75.391478,,,650,,Broadway at Clewell NB,0,,
,40.599424,,4538,-75.402277,,,651,,Broadway at Dodson WB,0,,
,40.760719,,6058,-75.594505,,,3085,,Best at Chestnut NB,0,,
,40.8019,,7421,-75.609834,,,3084,,Delaware at 3rd WB,0,,
,40.544604,,4225,-75.492511,,,1508,,Harrison at Wenner SB,0,,
,40.76084,,6059,-75.594749,,,3086,,Best at Chestnut SB,0,,
,40.799657,,7403,-75.615002,,,3081,,Delaware at 1st EB,0,,
,40.802063,,7420,-75.61002,,,3083,,3rd at Palmerton Park,0,,
,40.799774,,7404,-75.615222,,,3082,,Delaware at 1st WB,0,,
,40.613202,,6371,-75.362308,,,2817_merged_671189,,Daly at Sands EB,0,,
,40.601456,,1291,-75.492026,,,949,,Chew at 16th,0,,
,40.603203,,1288,-75.485682,,,946,,Chew at 13th,0,,
,40.587611,,4839,-75.504521,,,323,,24th at Elm NB,0,,
,40.588919,,4889,-75.505301,,,326,,24th at Fairview SB,0,,
,40.585475,,4841,-75.503517,,,327,,24th at Mosser,0,,
,40.587797,,4890,-75.504774,,,324,,24th at Elm SB,0,,
,40.588777,,4838,-75.505079,,,325,,24th at Fairview NB,0,,
,40.586482,,4840,-75.503995,,,328,,24th at South NB,0,,
,40.586688,,4891,-75.504243,,,329,,24th at South SB,0,,
,40.626195,,4760,-75.469238,,,1340,,Fullerton at Kimmett SB,0,,
,40.612643,,6267,-75.377651,,,2720_merged_671193,,Fahy Bridge South EB,0,,
,40.590577,,4558,-75.453363,,,2330,,Susquehanna at Front EB,0,,
,40.592402,,4504,-75.43686,,,2331,,Susquehanna at Halstead WB,0,,
,40.592207,,4565,-75.437036,,,2332,,Susquehanna at Halstead EB,0,,
,40.597591,,4575,-75.407054,,,2333,,Broadway at Kids Peace EB,0,,
,40.592702,,4507,-75.429686,,,2334,,Susquehanna at Hillside WB,0,,
,40.595267,,4574,-75.411167,,,2336,,Broadway at Seidersville,0,,
,40.590366,,4495,-75.457752,,,2337,,Susquehanna at Race WB,0,,
,40.590243,,4555,-75.458068,,,2338,,Susquehanna at Race EB,0,,
,40.592849,,4505,-75.433572,,,2339,,Susquehanna at Tweed WB,0,,
,40.680331,,7008,-75.376337,,,3074,,167 N Commerce Way EB,0,,
,40.680409,,7009,-75.376223,,,3075,,167 N Commerce Way WB,0,,
,40.677586,,7011,-75.374493,,,3077,,Brodhead at Commerce SB,0,,
,40.655143,,3222,-75.590673,,,2954,,Levans at Wolf Hollow EB,0,,
,40.867932,,60008,-75.811311,,,3251,,Carbon Depot,0,,
,40.623966,,4637,-75.446071,,,2488,,Union at Godfrey EB,0,,
,40.623752,,4635,-75.44953,,,2486,,Union at Fenwick EB,0,,
,40.624014,,4634,-75.449267,,,2487,,Union at Fenwick WB,0,,
,40.591926,,4833,-75.498505,,,2484,,Union at St Elmo EB,0,,
,40.62103007,,4641,-75.45251999,,,2485,,Union at Ellsworth SB,0,,
,40.626174,,4674,-75.421371,,,2482,,Union at Club WB,0,,
,40.620345,,4642,-75.452892,,,2483,,Union at Ellsworth NB,0,,
,40.627983,,4671,-75.412084,,,2480,,Union at Beverly WB,0,,
,40.691127,,3219,-75.212951,,,2951,,Northampton at 5th WB,0,,
,40.862848,,8002,-75.816017,,,3252,,Catawissa at Allen EB,0,,
,40.678329,,6002,-75.503234,,,995,,Coplay at Coplay SB,0,,
,40.590094,,4888,-75.505611,,,2465,,Union at 24th,0,,
,40.625126,,4656,-75.388236,,,2466,,Union at 3rd EB,0,,
,40.625259,,4608,-75.387697,,,2467,,Union at 3rd WB,0,,
,40.591825,,4885,-75.499324,,,2460,,Union at 21st,0,,
,40.591068,,4835,-75.501638,,,2461,,Union at 22nd EB,0,,
,40.591245,,4886,-75.501421,,,2462,,Union at 22nd WB,0,,
,40.590481,,4836,-75.503771,,,2463,,Union at 23rd EB,0,,
,40.55363104,,5937,-75.42301255,,,999,,3701 Corporate Parkway SB,0,,
,40.625283,,4609,-75.389404,,,2469,,Union at 4th WB,0,,
,40.744141,,5599,-75.241372,,,123,,Sullivan Trail at Uhler NB,0,,
,40.731494,,5543,-75.265096,,,125,,McFadden at Danforth NB,0,,
,40.70144,,5448,-75.269313,,,127,,Nazareth at Northgate SB,0,,
,40.694719,,5683,-75.263858,,,129,,Old Nazareth at Seip,0,,
,40.617514,,5209,-75.378387,,,989_merged_671219,,Fahy Bridge North WB,0,,
,40.594221,,5925,-75.513592,,,2068,,Ott at Parkway NB,0,,
,40.734999,,6546,-75.309452,,,2799,,Broad at South NB,0,,
,40.655191,,4263,-75.474653,,,2060,,Pine at 2nd SB - Catasauqua,0,,
,40.755205,,6487,-75.261992,,,2793,,Main at Bushkill,0,,
,40.833993,,6472,-75.297136,,,2790,,Sullivan Trail at Moorestown,0,,
,40.648209,,4258,-75.480711,,,2063,,Pine at 3rd SB - Whitehall,0,,
,40.757036,,6537,-75.265203,,,2796,,Main at Industrial NB,0,,
,40.646392,,4302,-75.481269,,,2065,,Pine at 4th NB,0,,
,40.661395,,6502,-75.382165,,,2794,,Bath Pike at Park SB,0,,
,40.646563,,4257,-75.481382,,,2067,,Pine at 4th SB,0,,
,40.86619,,8005,-75.812697,,,3255,,Mermon at Rhume NB,0,,
,40.868203,,8006,-75.814818,,,3256,,Cerchiaro Memorial Park EB,0,,
,40.740799,,4147,-75.258627,,,2666,,Main at 8th EB - Tatamy,0,,
,40.589079,,4281,-75.474451,,,2667,,Wyoming at 10th WB,0,,
,40.588781,,4237,-75.478117,,,2664,,Wyoming at 12th WB,0,,
,40.592068,,4151,-75.463166,,,2665,,Wyoming at 5th,0,,
,40.588962,,4238,-75.475854,,,2662,,Wyoming at 11th WB,0,,
,40.588641,,4280,-75.478333,,,2663,,Wyoming at 12th EB,0,,
,40.588842,,4146,-75.476071,,,2661,,Wyoming at 11th EB,0,,
,40.623831,,1123,-75.418876,,,722,,Broad at Grandview EB,0,,
,40.59857915,,1221,-75.52416736,,,2668,,Tilghman at 30th EB,0,,
,40.658102,,3206,-75.416158,,,2938,,Stoke Park at High Point EB,0,,
,40.660041,,3207,-75.396786,,,2939,,Stoke Park at Jacksonville WB,0,,
,40.658331,,3205,-75.415666,,,2937,,Stoke Park at High Point WB,0,,
,40.652922,,3202,-75.458311,,,2934,,Race at 13th,0,,
,40.652723,,3203,-75.459175,,,2935,,Race at 12th,0,,
,40.652057,,3200,-75.460783,,,2932,,Race at 11th EB,0,,
,40.652204,,3201,-75.460656,,,2933,,Race at 11th WB,0,,
,40.651036,,3198,-75.46368,,,2930,,Race at 10th EB,0,,
,40.651163,,3199,-75.463601,,,2931,,Race at 10th WB,0,,
,40.6379778074,,6067,-75.4391767216,,,1048_merged_671208,,Airport Shopping Center SB,0,,
,40.590796,,1372,-75.471203,,,1645,,Lehigh at 9th WB - Allentown,0,,
,40.590468,,1371,-75.471463,,,1647,,Lehigh at 9th EB - Allentown,0,,
,40.687641,,4050,-75.220904,,,1646,,Lehigh at 9th - Easton,0,,
,40.656691,,4057,-75.493198,,,1641,,Lehigh at 5th WB,0,,
,40.656367,,4063,-75.493727,,,1640,,Lehigh at 5th EB,0,,
,40.635357,,4749,-75.474352,,,1396,,Grape at 6th EB,0,,
,40.852328,,5561,-75.285046,,,1649,,Lehigh at Alpha WB,0,,
,40.852117,,5474,-75.285101,,,1648,,Lehigh at Alpha EB,0,,
,40.623772,,1124,-75.416865,,,728,,Broad at Keystone EB,0,,
,40.623892,,1145,-75.416591,,,729,,Broad at Keystone WB,0,,
,40.605923,,4455,-75.492085,,,579,,Allen at 15th EB,0,,
,40.606131,,4128,-75.491778,,,578,,Allen at 15th WB,0,,
,40.608167,,4451,-75.483901,,,573,,Allen at 11th EB,0,,
,40.608363,,4124,-75.483675,,,572,,Allen at 11th WB,0,,
,40.608707,,4450,-75.481978,,,571,,Allen at 10th EB,0,,
,40.608911,,4123,-75.481633,,,570,,Allen at 10th WB,0,,
,40.606484,,4454,-75.490048,,,577,,Allen at 14th EB,0,,
,40.606721,,4127,-75.489648,,,576,,Allen at 14th WB,0,,
,40.607662,,4452,-75.485765,,,575,,Allen at 12th EB,0,,
,40.607846,,4125,-75.48556,,,574,,Allen at 12th WB,0,,
,40.752042,,6652,-75.250199,,,2808,,Sullivan Trail at Forks Church NB,0,,
,40.604598,,1011,-75.47158,,,3168,,ATC - Platform B,0,,
,40.727484,,6571,-75.266924,,,2802,,McFadden at Newlins Mill SB,0,,
,40.819917,,6587,-75.292385,,,2803,,Sullivan Trail at Kromer,0,,
,40.686992,,6627,-75.253334,,,3164,,Northampton at Sales WB,0,,
,40.741873,,6559,-75.253195,,,2801,,Main at 4th NB - Tatamy,0,,
,40.827047,,6609,-75.294889,,,2806,,6589 Sullivan Trail,0,,
,40.741204,,6637,-75.320657,,,2807,,Convent at Mauch Chunk SB,0,,
,40.676594,,6623,-75.246385,,,3160,,25th at Dearborn NB,0,,
,40.858991,,6589,-75.273856,,,2805,,Penn at Sanders NB,0,,
,40.5996,,1036,-75.481553,,,1421,,Hamilton at 12th WB,0,,
,40.599502,,1037,-75.481348,,,1420,,Hamilton at 12th EB,0,,
,40.598999,,1038,-75.483763,,,1423,,Hamilton at 13th WB,0,,
,40.598886,,1039,-75.483568,,,1422,,Hamilton at 13th EB,0,,
,40.598407,,1040,-75.485876,,,1425,,Hamilton at 14th WB,0,,
,40.598184,,1041,-75.486106,,,1424,,Hamilton at 14th EB,0,,
,40.59786,,1042,-75.487898,,,1427,,Hamilton at 15th WB,0,,
,40.599934,,1268,-75.519832,,,2407,,Tilghman at 28th WB,0,,
,40.597265,,1031,-75.490075,,,1429,,Hamilton at 16th WB,0,,
,40.597052,,1063,-75.490217,,,1428,,Hamilton at 16th EB,0,,
,40.622259,,1166,-75.370821,,,731,,Broad at Linden WB,0,,
,40.622084,,1177,-75.370214,,,730,,Broad at Linden EB,0,,
,40.530611,,1403,-75.502263,,,938,,Chestnut at 9th - Emmaus,0,,
,40.621902,,1168,-75.360695,,,735,,Broad at Stefko EB,0,,
,40.622091,,1167,-75.360869,,,734,,Broad at Stefko WB,0,,
,40.623335,,1126,-75.410574,,,737,,Pennsylvania EB,0,,
,40.622206068,,1163,-75.3785782282,,,736,,Broad at New EB,0,,
,40.623519,,1147,-75.410608,,,738,,Pennsylvania WB,0,,
,40.871018,,5586,-75.241714,,,1358,,Rt 512 at Park EB,0,,
,40.602834,,1262,-75.509242,,,2400,,Tilghman at 23rd WB,0,,
,40.656919,,4265,-75.472782,,,465,,4th at Pine,0,,
,40.882135,,5613,-75.217245,,,1352,,Garibaldi at Washington,0,,
,40.881456,,5614,-75.216702,,,1351,,Garibaldi at Jewel,0,,
,40.602241,,1263,-75.511411,,,2401,,Tilghman at 24th WB,0,,
,40.578545,,4153,-75.454721,,,461,,4th at Baker NB,0,,
,40.583579,,4199,-75.458291,,,460,,4th at Montgomery SB,0,,
,40.871166,,5588,-75.241591,,,1355,,Rt 512 at Park WB,0,,
,40.57362607,,5887,-75.45168281,,,462,,4th at Mountain NB,0,,
,40.655797,,5228,-75.416656,,,2225,,Schoenersville at Vallley Center SB,0,,
,40.531388,,1402,-75.500484,,,936,,Chestnut at 8th WB - Emmaus,0,,
,40.531179,,1389,-75.500685,,,935,,Chestnut at 8th EB - Emmaus,0,,
,40.542342,,4193,-75.494412,,,1515,,Harrison at Keystone NB,0,,
,40.546651,,4196,-75.490476,,,1514,,Harrison at Beechwood NB,0,,
,40.532156,,1401,-75.498701,,,934,,Chestnut at 7th WB - Emmaus,0,,
,40.541021,,4192,-75.495701,,,1511,,Harrison at 2nd NB,0,,
,40.543737,,4224,-75.493304,,,1510,,Harrison at 1st SB,0,,
,40.539986,,4221,-75.496891,,,1513,,Harrison at 3rd SB,0,,
,40.541003,,4222,-75.495871,,,1512,,Harrison at 2nd SB,0,,
,40.679389,,4325,-75.489585,,,1798,,Main at Laubach EB,0,,
,40.608229,,4403,-75.502408,,,280,,19th at Greenleaf NB,0,,
,40.643097,,5166,-75.406941,,,2659_merged_671183,,Westgate at LVHN WB,0,,
,40.554971,,5813,-75.624556,,,3184,,Grim at Willard SB,0,,
,40.559493,,5830,-75.626556,,,3185,,Grim at Industrial SB,0,,
,40.613492,,4480,-75.470051,,,3186,,Jordan Heights EB,0,,
,40.613663,,4481,-75.46988,,,3187,,Jordan Heights WB,0,,
,40.563765,,5755,-75.586788,,,3180,,Cetronia Rd at Grange Rd,0,,
,40.551995,,5757,-75.617262,,,3181,,Cetronia Rd at Mosser Rd,0,,
,40.609395,,4449,-75.479532,,,585,,Allen at 9th EB,0,,
,40.56004,,5758,-75.57621,,,3183,,Grange at Red Maples,0,,
,40.5551567696,,4173,-75.4914672986,,,3188,,South Mall NB,0,,
,40.668119,,6043,-75.488721,,,350,,2nd at Hokendauqua SB,0,,
,40.612085,,6260,-75.372186,,,2713_merged_671194,,Southside Station EB,0,,
,40.657391,,5179,-75.418892,,,43,,Avenue C at Schoenersville WB,0,,
,40.591301,,4562,-75.443041,,,2323,,Susquehanna at Ellsworth EB,0,,
,40.607779,,1029,-75.451105,,,1447,,Hamilton at Albert WB,0,,
,40.591277,,4501,-75.445119,,,2321,,Susquehanna at Dauphin,0,,
,40.594476,,4573,-75.416497,,,2320,,Susquehanna at Center EB,0,,
,40.591442,,4563,-75.441045,,,2327,,Susquehanna at Filbert,0,,
,40.593486,,4571,-75.422279,,,2326,,Susquehanna at Fairview EB,0,,
,40.593496,,4510,-75.422607,,,2325,,Susquehanna at Fairview WB,0,,
,40.592583,,4567,-75.429591,,,2324,,Susquehanna at Hillside EB,0,,
,40.590753,,4497,-75.452597,,,2329,,Susquehanna at Front WB,0,,
,40.59289,,4570,-75.425042,,,2328,,Susquehanna at Fretz,0,,
,40.607585,,1025,-75.451207,,,1445,,Hamilton at Albert EB,0,,
,40.605502,,4462,-75.501296,,,289,,19th at Tilghman SB,0,,
,40.604877,,4401,-75.500841,,,288,,19th at Tilghman NB,0,,
,40.603226,,1021,-75.467929,,,1444,,Hamilton at 5th,0,,
,40.608359,,4464,-75.502661,,,281,,19th at Greenleaf SB,0,,
,40.603654,,1022,-75.466195,,,1443,,Hamilton at 4th EB,0,,
,40.611336,,4405,-75.503894,,,283,,19th at Highland NB,0,,
,40.602549,,4460,-75.499887,,,285,,19th at Liberty,0,,
,40.611575,,4466,-75.504179,,,284,,19th at Highland SB,0,,
,40.609954,,4465,-75.503427,,,287,,19th at Livingston SB,0,,
,40.666097,,1489,-75.312393,,,1114,,Easton at Reeve WB,0,,
,40.583911,,5848,-75.623471,,,1560,,Imperial at Windsor,0,,
,40.598898,,4878,-75.488664,,,267,,15th at Linden,0,,
,40.598088,,4879,-75.488281,,,266,,15th at Hamilton SB,0,,
,40.595282,,4144,-75.486958,,,269,,15th at Union SB,0,,
,40.595153,,4998,-75.486757,,,268,,15th at Union NB,0,,
,40.626713,,4673,-75.418171,,,2499,,Gateway WB,0,,
,40.624632,,4681,-75.438074,,,2498,,Union at Kiowa WB,0,,
,40.563561,,5822,-75.617415,,,1563,,8001 Industrial EB,0,,
,40.62413,,4685,-75.446228,,,2491,,Union at Godfrey WB,0,,
,40.625836,,4669,-75.408477,,,2493,,Union at Highland WB,0,,
,40.62572736,,4622,-75.40876236,,,2492,,Union at Highland EB,0,,
,40.624277,,4639,-75.440156,,,2495,,Union at Jerome EB,0,,
,40.62418893,,4683,-75.44269464,,,2494,,Irving WB,0,,
,40.624481,,4633,-75.437941,,,2497,,Union at Kiowa EB,0,,
,40.624432,,4682,-75.440266,,,2496,,Union at Jerome WB,0,,
,40.679535,,5199,-75.210316,,,2259,,St John at Berwick,0,,
,40.680786,,5245,-75.210484,,,2258,,St John at Wilkes Barre SB,0,,
,40.680043,,5344,-75.205753,,,2257,,Charles at Kleinhans SB,0,,
,40.681352,,5244,-75.210306,,,2256,,St John at Nesquehoning NB,0,,
,40.625219,,4613,-75.394373,,,2477,,Union at 8th EB,0,,
,40.625367,,4661,-75.394649,,,2476,,Union at 8th WB,0,,
,40.625328,,4611,-75.392128,,,2473,,Union at 6th WB,0,,
,40.625191,,4659,-75.392416,,,2472,,Union at 6th EB,0,,
,40.735666,,5600,-75.235037,,,986,,Sullivan Trail at American General NB,0,,
,40.627818,,4624,-75.412057,,,2479,,Union at Beverly EB,0,,
,40.622517,,4643,-75.45087,,,2478,,Ballpark EB,0,,
,40.566598,,4007,-75.553249,,,115,,Hamilton at Brookside WB,0,,
,40.695028,,6006,-75.609738,,,2198,,Rt 873 at Park SB,0,,
,40.550034,,5748,-75.591755,,,117,,Trexler Mall,0,,
,40.575285,,5766,-75.621781,,,111,,Sycamore at Penn,0,,
,40.562486,,5821,-75.620106,,,113,,8014 Industrial Blvd,0,,
,40.571032,,6220,-75.651161,,,112,,860 Nestle Way EB,0,,
,40.548143,,6231,-75.605105,,,119,,Hamilton at Trexlertown EB,0,,
,40.817431,,6437,-75.291282,,,2785,,Sullivan Trail at Sandt SB,0,,
,40.60675,,7447,-75.381036,,,3227,,Brodhead at Summit SB,0,,
,40.701132,,6448,-75.268641,,,2787,,Nazareth at Northgate NB,0,,
,40.817339,,6438,-75.291052,,,2786,,Sullivan Trail at Sandt NB,0,,
,40.670682,,6456,-75.269926,,,2780,,William Penn at Stones Crossing EB,0,,
,40.742543,,6423,-75.311589,,,2783,,Center at Main WB,0,,
,40.731574,,6458,-75.265245,,,2789,,McFadden at Danforth SB,0,,
,40.807852,,6450,-75.287852,,,2788,,Sullivan Trail at State Park NB,0,,
,40.589265,,5873,-75.525735,,,2079,,Broadway at Cedar Crest WB,0,,
,40.589026,,5920,-75.525863,,,2078,,Broadway at Cedar Crest EB,0,,
,40.591281,,5876,-75.518091,,,2073,,Parkway at 29th WB,0,,
,40.591068,,5923,-75.518307,,,2072,,Parkway at 29th EB,0,,
,40.592265,,5877,-75.516189,,,2071,,Parkway at 28th WB,0,,
,40.592176,,5924,-75.516042,,,2070,,Parkway at 28th EB,0,,
,40.590581,,5922,-75.519764,,,2077,,Parkway at 30th EB,0,,
,40.589836,,5874,-75.522407,,,2076,,Parkway at 31st WB,0,,
,40.589675,,5921,-75.522517,,,2075,,Parkway at 31st EB,0,,
,40.590661,,5875,-75.520127,,,2074,,Parkway at 30th WB,0,,
,40.676625,,5336,-75.209561,,,1388,,Grant at St John WB,0,,
,40.593076,,6191,-75.340211,,,1796,,Main at Kiernan SB,0,,
,40.595428,,1610,-75.496794,,,2671,,Hamilton at 19th WB,0,,
,40.594363,,1612,-75.500616,,,2673,,Hamilton at 21st WB,0,,
,40.594989,,1611,-75.498342,,,2672,,Hamilton at 20th WB,0,,
,40.593256,,1614,-75.504711,,,2675,,Hamilton at 23rd WB,0,,
,40.593755,,1613,-75.502774,,,2674,,Hamilton at 22nd WB,0,,
,40.592001,,1616,-75.508998,,,2677,,Hamilton at 25th WB,0,,
,40.592587,,1615,-75.506776,,,2676,,Hamilton at 24th WB,0,,
,40.650068,,3197,-75.466359,,,2929,,Race at Pineapple SB,0,,
,40.649963,,3196,-75.466332,,,2928,,Race at Pineapple NB,0,,
,40.564627,,3189,-75.560652,,,2921,,Hamilton Crossing Main EB,0,,
,40.56579702,,3188,-75.55765723,,,2920,,Hamilton Crossing East WB,0,,
,40.564172,,3191,-75.565236,,,2923,,Hamilton Crossing West,0,,
,40.56484692,,3190,-75.56028944,,,2922,,Hamilton Crossings Main WB,0,,
,40.614741,,3193,-75.538949,,,2925,,Walbert at Pond WB,0,,
,40.614555,,3192,-75.53914,,,2924,,Walbert at Pond EB,0,,
,40.603049,,3194,-75.474149,,,2926,,8th at Linden,0,,
,40.8021367373,,,-75.6102902098,,,8412,,3rd at Delaware SB,0,,
,40.681261,,4976,-75.240841,,,1208,,Freemansburg at 21st,0,,
,40.622426,,1138,-75.392474,,,708,,Broad at 6th EB,0,,
,40.611433,,3174,-75.562923,,,2906,,Walbert at Ridgeview EB,0,,
,40.674921,,5331,-75.214348,,,1986,,Philadelphia at Williams NB,0,,
,40.561098,,1362,-75.486524,,,1631,,Lehigh at 29th NB,0,,
,40.561471,,1368,-75.486595,,,1632,,Lehigh at 29th SB,0,,
,40.572563,,7430,-75.39021,,,3217,,PA 378 at Colesville,0,,
,40.658597,,4054,-75.487951,,,1634,,Lehigh at 2nd WB,0,,
,40.5563180757,,1360,-75.4890417988,,,1635,,Lehigh at 33rd NB,0,,
,40.615178,,4482,-75.529861,,,1980,,Office Center at Walbert,0,,
,40.65808567,,4055,-75.48923845,,,1637,,Lehigh at 3rd WB,0,,
,40.657362,,4056,-75.491313,,,1639,,Lehigh at 4th WB,0,,
,40.581675,,7431,-75.387951,,,3218,,PA 378 at Black River NB,0,,
,40.607089,,5129,-75.394151,,,1989,,Ostrum at Bishopthorpe,0,,
,40.606591,,7441,-75.38113,,,3222,,Summit at Brodhead NB,0,,
,40.613203,,6352,-75.346448,,,2815,,Spillman at Emery EB,0,,
,40.742166,,6922,-75.251063,,,2811,,Main at Bushkill EB - Tatamy,0,,
,40.751501,,6654,-75.249858,,,2810,,Sullivan Trail at Forks Church SB,0,,
,40.610908,,4904,-75.480133,,,561,,9th at Tilghman,0,,
,40.601095,,6301,-75.528876,,,2819,,Cedar Crest at Greenleaf NB,0,,
,40.611773,,6668,-75.345143,,,2818,,4th at Emery EB,0,,
,40.553363,,5754,-75.610729,,,3179,,Cetronia Rd at Sparrow Way,0,,
,40.562071,,5753,-75.582743,,,3178,,Grange at Mill Creek,0,,
,40.623114,,1014,-75.380569,,,3171,,BTC - Platform 2,0,,
,40.62253,,1013,-75.380592,,,3170,,BTC - Platform 1,0,,
,40.631321,,1019,-75.478325,,,3173,,LVM - Platform 2,0,,
,40.631269,,1018,-75.478783,,,3172,,LVM - Platform 1,0,,
,40.550566,,5750,-75.594043,,,3175,,Trexlertown Plaza,0,,
,40.550719,,5749,-75.589641,,,3174,,Trexler Mall at Health Center,0,,
,40.550359,,5752,-75.598144,,,3177,,Hamilton Blvd at Trexlertown Plaza EB,0,,
,40.548917,,5751,-75.593788,,,3176,,Trexlertown Giant,0,,
,40.657491,,4952,-75.279302,,,1188,,Freemansburg at Ohio WB,0,,
,40.653089,,4953,-75.291113,,,1189,,Emrick at Freemansburg NB,0,,
,40.652883,,5377,-75.291359,,,1187,,Emrick at Freemansburg SB,0,,
,40.659444,,5375,-75.293739,,,1184,,Emrick at Baglyos SB,0,,
,40.657581,,5376,-75.292641,,,1185,,Emrick at Cook,0,,
,40.661491,,5373,-75.294438,,,1182,,2710 Emrick SB,0,,
,40.659137,,4950,-75.293414,,,1183,,Emrick at Baglyos NB,0,,
,40.571036,,4138,-75.469678,,,1180,,Emaus at Howard SB,0,,
,40.571139,,4161,-75.469151,,,1181,,Emaus at Howard NB,0,,
,40.623221,,1148,-75.408901,,,726,,Broad at Highland WB,0,,
,40.622299,,1165,-75.373047,,,727,,Broad at High WB,0,,
,40.622123,,1176,-75.373026,,,724,,Broad at High EB,0,,
,40.623015,,1127,-75.408727,,,725,,Broad at Highland EB,0,,
,40.668215,,4273,-75.480966,,,1748,,Main at 1st SB,0,,
,40.623941,,1144,-75.418151,,,723,,Broad at Grandview WB,0,,
,40.622022,,1171,-75.367062,,,720,,Broad at Elm EB,0,,
,40.622191,,1172,-75.366621,,,721,,Broad at Elm WB,0,,
,40.687478,,4337,-75.497751,,,1744,,Main at 18th SB,0,,
,40.688902,,4338,-75.498356,,,1745,,Main at 19th NB,0,,
,40.688726,,4339,-75.498407,,,1746,,Main at 19th SB,0,,
,40.668021,,4317,-75.480814,,,1747,,Main at 1st NB,0,,
,40.684735,,4333,-75.495435,,,1740,,Main at 16th SB,0,,
,40.685811,,4334,-75.49632,,,1741,,Main at 17th NB,0,,
,40.685647,,4335,-75.496334,,,1742,,Main at 17th SB,0,,
,40.687553,,4336,-75.497651,,,1743,,Main at 18th NB,0,,
,40.558881,,4166,-75.479958,,,1160,,Emaus at 29th SB,0,,
,40.803138,,8411,-75.614526,,,3308,,2nd at Columbia SB,0,,
,40.557426,,4167,-75.482306,,,1163,,Emaus at 30th SB,0,,
,40.63431291,,6156,-75.48959582,,,2100_merged_671180,,Presidential at Mickley WB,0,,
,40.575959,,4197,-75.458168,,,1168,,Emaus at Law NB,0,,
,40.807852,,8407,-75.60419,,,3304,,Columbia at 6th,0,,
,40.606644,,4493,-75.466599,,,472,,4th at Turner NB,0,,
,40.598163,,3181,-75.525602,,,2913,,Tilghman at Village West,0,,
,40.806943,,8408,-75.606501,,,3305,,Columbia at 5th,0,,
,40.608111,,4492,-75.467311,,,48,,4th at Chew NB,0,,
,40.580857,,4692,-75.467098,,,49,,Dixon at Mack WB,0,,
,40.641661,,4791,-75.449951,,,46,,Postal at Irving EB,0,,
,40.627568,,4672,-75.414936,,,47,,Union at Pennsylvania WB,0,,
,40.652188,,4783,-75.423735,,,44,,Avenue B at City Line,0,,
,40.65244747,,1006,-75.43309893,,,45,,LVIA - Airport Transit Center,0,,
,40.642426,,5219,-75.425623,,,42,,Catasauqua at Pennsylvania EB,0,,
,40.756594,,4092,-75.59537,,,2034,,Main at Best WB,0,,
,40.610611,,4584,-75.374768,,,40,,4th at Taylor WB,0,,
,40.570907,,5824,-75.609768,,,1568,,7350 Industrial EB 2,0,,
,40.572811,,5825,-75.609519,,,1569,,7350 Industrial EB,0,,
,40.678766,,5275,-75.205571,,,1298,,Charles at Lincoln SB,0,,
,40.681167,,5276,-75.205911,,,1299,,Charles at Wilkesbarre SB,0,,
,40.666949,,4920,-75.306637,,,1292,,Farmersville at Easton NB,0,,
,40.677387,,4918,-75.307819,,,1293,,Farmersville at Green Pond Road,0,,
,40.860123,,8001,-75.818387,,,3341,,Redner's Nesquehoning,0,,
,40.670514,,4919,-75.30714,,,1291,,Farmersville at King Charles NB,0,,
,40.562395,,5774,-75.622352,,,1564,,400 Boulder,0,,
,40.560759,,5820,-75.624698,,,1565,,8250 Industrial Blvd,0,,
,40.568394,,3999,-75.544679,,,3192,,Kressler at Hedgerow,0,,
,40.680076,,5517,-75.352292,,,797,,Brodhead at Opus WB,0,,
,40.679956,,5426,-75.352208,,,796,,Brodhead at Opus EB,0,,
,40.617505,,5161,-75.3791,,,1921_merged_671200,,Fahy Bridge North EB,0,,
,40.612559,,6266,-75.376654,,,2719_merged_671165,,Columbia at Webster,0,,
,40.685493,,5998,-75.516668,,,1789,,Main at Hillside EB,0,,
,40.680958,,5520,-75.344583,,,791,,Brodhead at Fritch WB,0,,
,40.626103,,5102,-75.375426,,,1366,,Goepp at Center EB,0,,
,40.607001,,4553,-75.466954,,,473,,4th at Turner SB,0,,
,40.613371,,4488,-75.469848,,,470,,4th at Tilghman NB,0,,
,40.61341,,4548,-75.470003,,,471,,4th at Tilghman SB,0,,
,40.64013,,4792,-75.448092,,,3199,,Irving at Marcon NB,0,,
,40.582308,,4198,-75.457105,,,474,,4th at Wabash,0,,
,40.657361,,4309,-75.473208,,,475,,4th at Walnut,0,,
,40.638172,,4796,-75.438542,,,3198,,Airport Shopping Center NB,0,,
,40.592198,,3184,-75.446877,,,2916,,Cumberland at Carlisle,0,,
,40.626067,,5103,-75.373301,,,1368,,Goepp at High EB,0,,
,40.626195,,5116,-75.372958,,,1369,,Goepp at High WB,0,,
